SYS_TIME[ms],T_CNT[us],T_PPS[us],T_CAN_RSV[us],DP[Pa],AOA[deg],AOS[deg],T_DP_SENSOR[degC],PS[hPa],H_PS[m],TAT[degC],HUM[%],RHO[kg/m^3],T_PS_SENSOR[degC],AX[m/s^2],AY[m/s^2],AZ[m/s^2],GX[deg/s],GY[deg/s],GZ[deg/s],EX[deg],EY[deg],EZ[deg],MICROSECONDS_PPS[us],cls[-],id[-],len[-],iTOW[ms],year[y],month[month],day[d],hour[h],minute[min],sec[s],valid[-],tAcc[ns],nano[ns],fixType[-],flags[-],flags2[-],numSV[-],lon[10^7 deg],lat[10^7 deg],height[mm],hMSL[mm],hAcc[mm],vAcc[mm],velN[mm/s],velE[mm/s],velD[mm/s],gSpeed[mm/s],headMot[10^5 deg],sAcc[mm/s],headAcc[10^5 deg],pDOP[-],reserved1[-],headVeh[10^5 deg],reserved2[-],DP_raw[Pa],AOA_raw[deg],AOS_raw[deg],T_DP_SENSOR_raw[degC],PS_raw[hPa],H_PS_raw[m],TAT_raw[degC],HUM_raw[%],RHO_raw[kg/m^3],T_PS_SENSOR_raw[degC],AX_raw[m/s^2],AY_raw[m/s^2],AZ_raw[m/s^2],GX_raw[deg/s],GY_raw[deg/s],GZ_raw[deg/s],EX_raw[deg],EY_raw[deg],EZ_raw[deg],MICROSECONDS_PPS_raw[us],cls_raw[-],id_raw[-],len_raw[-],iTOW_raw[ms],year_raw[y],month_raw[month],day_raw[d],hour_raw[h],minute_raw[min],sec_raw[s],valid_raw[-],tAcc_raw[ns],nano_raw[ns],fixType_raw[-],flags_raw[-],flags2_raw[-],numSV_raw[-],lon_raw[10^7 deg],lat_raw[10^7 deg],height_raw[mm],hMSL_raw[mm],hAcc_raw[mm],vAcc_raw[mm],velN_raw[mm/s],velE_raw[mm/s],velD_raw[mm/s],gSpeed_raw[mm/s],headMot_raw[10^5 deg],sAcc_raw[mm/s],headAcc_raw[10^5 deg],pDOP_raw[-],reserved1_raw[-],headVeh_raw[10^5 deg],reserved2_raw[-],ROLL[deg],PITCH[deg],YAW[deg],H_US[-],ELEV[-],RUDD[-],AIR_DATA_EN[-],ENV_DATA_EN[-],IMU_DATA_EN[-],GPS_DATA_EN[-],LOGGING_EN[-],LOGGING_MODE[-],AOA_OFFSET[deg],AOS_OFFSET[deg],DP_GAIN[-],DP_OFFSET[Pa],LPF_DP[-],LPF_SW[-],PS_INIT_VAL[hPa],H_PS_OFFSET[m],LPF_PS[-],LPF_SW[-],AX_OFFSET[m/s^2],AY_OFFSET[m/s^2],AZ_OFFSET[m/s^2],GX_OFFSET[deg/s],GY_OFFSET[deg/s],GZ_OFFSET[deg/s],EX_OFFSET[deg],EY_OFFSET[deg],EZ_OFFSET[deg],LPF_ACC[-],LPF_GYR[-],LPF_ACC_SW[-],LPF_GYR_SW[-],DP_err[-],AOA_err[-],AOS_err[-],T_DP_SENSOR_err[-],DP_GAIN_err[-],DP_OFFSET_err[-],AOA_OFFSET_err[-],AOS_OFFSET_err[-],LPF_DP_err[-],DP_I2C_err[-],AOA_I2C_err[-],AOS_I2C_err[-],SETTING_DATA_READ_err[-],PS_err[-],T_PS_SENSOR_err[-],TAT_err[-],HUM_err[-],PS_INIT_VAL_err[-],H_PS_OFFSET_err[-],H_PS_err[-],RHO_err[-],LPF_PS_err[-],ENV_I2C_err[-],SETTING_DATA_READ_err[-],AX_err[-],AY_err[-],AZ_err[-],GX_err[-],GY_err[-],GZ_err[-],LPF_ACC_err[-],LPF_GYR_err[-],AX_OFFSET_err[-],AY_OFFSET_err[-],AZ_OFFSET_err[-],GX_OFFSET_err[-],GY_OFFSET_err[-],GZ_OFFSET_err[-],EX_OFFSET_err[-],EY_OFFSET_err[-],EZ_OFFSET_err[-],SETTING_DATA_READ_err[-],PPS_INTV_err[-],MEG_INTV_err[-],CHK_SUM_err[-],INIT_err[-],SET_MODE_err[-],SEND_err[-],RECEIVE_err[-],AIRSPEED[m/s],WINDN[m/s],WINDE[m/s],WINDD[m/s],SD_DETECT[-],LOG_NUMBER[-],LOGGING_MODE[-],LOGGING_EN[-],CPU_USED[%],MEMORY_USED[%],
1202889,1,1202721273,0,2.316666603088379,-1.901611328125,-5.9121246337890625,22.114999771118164,999.6133422851562,-2.683563709259033,21.264209747314453,71.08567810058594,1.1754213571548462,43.88999938964844,-0.09809999912977219,-0.12752999365329742,9.819809913635254,0.3499999940395355,-0.49000000953674316,0.2800000011920929,-0.9091318249702454,0.8259130120277405,105.30796813964844,0,1,7,92,455206000,2022,5,27,6,26,28,55,2,455551,3,3,10,15,1410137104,376320812,59566,22795,649,749,21,-41,10,46,0,150,17314428,117,,0,,2.316666603088379,166.88232421875,-161.455078125,22.114999771118164,999.66357421875,0.0,21.264209747314453,71.08567810058594,1.225000023841858,43.88999938964844,-0.09809999912977219,-0.12752999365329742,9.819809913635254,0.3499999940395355,-0.49000000953674316,0.2800000011920929,-0.9091318249702454,0.8259130120277405,105.30796813964844,0,1,7,92,455206000,2022,5,27,6,26,28,55,2,455551,3,3,10,15,1410137104,376320812,59566,22795,649,749,21,-41,10,46,0,150,17314428,117,,0,,0.0,0.0,0.0,0,0,0,True,True,True,True,True,1,-168.783935546875,155.54295349121094,1.0,0.0,1.0,False,999.2973022460938,0.0,0.05000000074505806,True,0.0,0.0,0.0,0.0,0.0,0.0,0.0,0.0,0.0,1.0,1.0,False,False,False,False,False,False,False,False,False,False,False,False,False,False,False,False,False,False,False,False,False,False,False,False,False,False,False,False,False,False,False,False,False,False,False,False,False,False,False,False,False,False,False,False,True,False,False,False,False,True,True,1.9854090213775635,-1.6107546091079712,2.4880988597869873,-0.17198427021503448,True,4,1,True,77,56,
1202951,1,1202721273,0,2.200000047683716,-1.879638671875,-5.9340972900390625,22.145000457763672,999.6128540039062,-2.682274103164673,21.41908836364746,71.17112731933594,1.1747167110443115,43.88999938964844,-0.2844899892807007,-0.1863899976015091,9.780570030212402,0.0,-0.20999999344348907,0.49000000953674316,-0.9748616218566895,1.0247442722320557,105.32280731201172,0,1,7,92,455206100,2022,5,27,6,26,28,55,2,100455538,3,3,10,15,1410137104,376320812,59567,22797,649,749,-1,31,6,31,0,156,17314470,117,,0,,2.200000047683716,166.904296875,-161.47705078125,22.145000457763672,999.58447265625,0.0,21.41908836364746,71.17112731933594,1.225000023841858,43.88999938964844,-0.2844899892807007,-0.1863899976015091,9.780570030212402,0.0,-0.20999999344348907,0.49000000953674316,-0.9748616218566895,1.0247442722320557,105.32280731201172,0,1,7,92,455206100,2022,5,27,6,26,28,55,2,100455538,3,3,10,15,1410137104,376320812,59567,22797,649,749,-1,31,6,31,0,156,17314470,117,,0,,0.0,0.0,0.0,0,0,0,True,True,True,True,True,1,-168.783935546875,155.54295349121094,1.0,0.0,1.0,False,999.2973022460938,0.0,0.05000000074505806,True,0.0,0.0,0.0,0.0,0.0,0.0,0.0,0.0,0.0,1.0,1.0,False,False,False,False,False,False,False,False,False,False,False,False,False,False,False,False,False,False,False,False,False,False,False,False,False,False,False,False,False,False,False,False,False,False,False,False,False,False,False,False,False,False,False,False,True,False,False,False,False,True,True,1.9353511333465576,-1.6184258460998535,2.3800904750823975,0.0478583388030529,True,4,1,True,53,56,
1203011,1,1202721273,0,2.200000047683716,-1.945556640625,-6.0219879150390625,22.135000228881836,999.6098022460938,-2.6574575901031494,21.363012313842773,71.15892028808594,1.1749660968780518,43.88999938964844,-0.05886000022292137,-0.12752999365329742,9.770759582519531,0.20999999344348907,-0.6299999952316284,0.20999999344348907,-0.9504120945930481,0.659091591835022,105.35363006591797,0,1,7,92,455206100,2022,5,27,6,26,28,55,2,100455538,3,3,10,15,1410137104,376320812,59567,22797,649,749,-1,31,6,31,0,156,17314470,117,,0,,2.200000047683716,166.83837890625,-161.56494140625,22.135000228881836,999.5986328125,0.0,21.363012313842773,71.15892028808594,1.225000023841858,43.88999938964844,-0.05886000022292137,-0.12752999365329742,9.770759582519531,0.20999999344348907,-0.6299999952316284,0.20999999344348907,-0.9504120945930481,0.659091591835022,105.35363006591797,0,1,7,92,455206100,2022,5,27,6,26,28,55,2,100455538,3,3,10,15,1410137104,376320812,59567,22797,649,749,-1,31,6,31,0,156,17314470,117,,0,,0.0,0.0,0.0,0,0,0,True,True,True,True,True,1,-168.783935546875,155.54295349121094,1.0,0.0,1.0,False,999.2973022460938,0.0,0.05000000074505806,True,0.0,0.0,0.0,0.0,0.0,0.0,0.0,0.0,0.0,1.0,1.0,False,False,False,False,False,False,False,False,False,False,False,False,False,False,False,False,False,False,False,False,False,False,False,False,False,False,False,False,False,False,False,False,False,False,False,False,False,False,False,False,False,False,False,False,True,False,False,False,False,True,True,1.9351457357406616,-1.6293319463729858,2.450404167175293,-0.26881566643714905,True,4,1,True,54,56,
1203071,1,1202721273,0,2.383333444595337,-1.879638671875,-6.0000152587890625,22.165000915527344,999.6204223632812,-2.743605375289917,21.33363914489746,71.14060974121094,1.175112009048462,43.88999938964844,-0.1863899976015091,-0.19619999825954437,9.643230438232422,0.14000000059604645,-0.41999998688697815,0.2800000011920929,-1.2392642498016357,1.116748571395874,105.35528564453125,0,1,7,92,455206200,2022,5,27,6,26,28,55,2,200455525,3,3,10,15,1410137104,376320812,59567,22797,649,749,-2,-6,6,6,0,151,17314508,117,,0,,2.383333444595337,166.904296875,-161.54296875,22.165000915527344,999.655517578125,0.0,21.33363914489746,71.14060974121094,1.225000023841858,43.88999938964844,-0.1863899976015091,-0.19619999825954437,9.643230438232422,0.14000000059604645,-0.41999998688697815,0.2800000011920929,-1.2392642498016357,1.116748571395874,105.35528564453125,0,1,7,92,455206200,2022,5,27,6,26,28,55,2,200455525,3,3,10,15,1410137104,376320812,59567,22797,649,749,-2,-6,6,6,0,151,17314508,117,,0,,0.0,0.0,0.0,0,0,0,True,True,True,True,True,1,-168.783935546875,155.54295349121094,1.0,0.0,1.0,False,999.2973022460938,0.0,0.05000000074505806,True,0.0,0.0,0.0,0.0,0.0,0.0,0.0,0.0,0.0,1.0,1.0,False,False,False,False,False,False,False,False,False,False,False,False,False,False,False,False,False,False,False,False,False,False,False,False,False,False,False,False,False,False,False,False,False,False,False,False,False,False,False,False,False,False,False,False,True,False,False,False,False,True,True,2.014038562774658,-1.857188105583191,2.3906235694885254,0.33016109466552734,True,4,1,True,53,56,
1203131,1,1202721273,0,2.299999952316284,-1.923583984375,-6.0000152587890625,22.114999771118164,999.6220092773438,-2.7604832649230957,21.405736923217773,71.18638610839844,1.1747854948043823,43.88999938964844,-0.11772000044584274,-0.15695999562740326,9.653039932250977,0.699999988079071,-0.41999998688697815,-0.14000000059604645,-1.0020049810409546,0.5694192051887512,105.36712646484375,0,1,7,92,455206300,2022,5,27,6,26,28,55,2,300455512,3,3,10,15,1410137104,376320813,59571,22800,648,749,-4,-27,5,28,0,153,17314548,117,,0,,2.299999952316284,166.8603515625,-161.54296875,22.114999771118164,999.612060546875,0.0,21.405736923217773,71.18638610839844,1.225000023841858,43.88999938964844,-0.11772000044584274,-0.15695999562740326,9.653039932250977,0.699999988079071,-0.41999998688697815,-0.14000000059604645,-1.0020049810409546,0.5694192051887512,105.36712646484375,0,1,7,92,455206300,2022,5,27,6,26,28,55,2,300455512,3,3,10,15,1410137104,376320813,59571,22800,648,749,-4,-27,5,28,0,153,17314548,117,,0,,0.0,0.0,0.0,0,0,0,True,True,True,True,True,1,-168.783935546875,155.54295349121094,1.0,0.0,1.0,False,999.2973022460938,0.0,0.05000000074505806,True,0.0,0.0,0.0,0.0,0.0,0.0,0.0,0.0,0.0,1.0,1.0,False,False,False,False,False,False,False,False,False,False,False,False,False,False,False,False,False,False,False,False,False,False,False,False,False,False,False,False,False,False,False,False,False,False,False,False,False,False,False,False,False,False,False,False,True,False,False,False,False,True,True,1.9787895679473877,-1.7103217840194702,2.5068013668060303,-0.3243183493614197,True,4,1,True,54,56,
1203191,1,1202721273,0,2.2666666507720947,-1.879638671875,-6.0659332275390625,22.135000228881836,999.62255859375,-2.7649576663970947,21.306934356689453,71.22605895996094,1.1752249002456665,43.88999938964844,-0.08828999847173691,-0.11772000044584274,9.711899757385254,-0.2800000011920929,-0.20999999344348907,0.5600000023841858,-0.939602792263031,0.8232459425926208,105.3879623413086,0,1,7,92,455206300,2022,5,27,6,26,28,55,2,300455512,3,3,10,15,1410137104,376320813,59571,22800,648,749,-4,-27,5,28,0,153,17314548,117,,0,,2.2666666507720947,166.904296875,-161.60888671875,22.135000228881836,999.6982421875,0.0,21.306934356689453,71.22605895996094,1.225000023841858,43.88999938964844,-0.08828999847173691,-0.11772000044584274,9.711899757385254,-0.2800000011920929,-0.20999999344348907,0.5600000023841858,-0.939602792263031,0.8232459425926208,105.3879623413086,0,1,7,92,455206300,2022,5,27,6,26,28,55,2,300455512,3,3,10,15,1410137104,376320813,59571,22800,648,749,-4,-27,5,28,0,153,17314548,117,,0,,0.0,0.0,0.0,0,0,0,True,True,True,True,True,1,-168.783935546875,155.54295349121094,1.0,0.0,1.0,False,999.2973022460938,0.0,0.05000000074505806,True,0.0,0.0,0.0,0.0,0.0,0.0,0.0,0.0,0.0,1.0,1.0,False,False,False,False,False,False,False,False,False,False,False,False,False,False,False,False,False,False,False,False,False,False,False,False,False,False,False,False,False,False,False,False,False,False,False,False,False,False,False,False,False,False,False,False,True,False,False,False,False,True,True,1.9640309810638428,-1.6908999681472778,2.5968637466430664,-0.23987630009651184,True,4,1,True,53,56,
1203252,1,1202721273,0,2.183333396911621,-1.857666015625,-6.0219879150390625,22.135000228881836,999.6226196289062,-2.7681849002838135,21.363012313842773,71.08872985839844,1.1749892234802246,43.88999938964844,-0.2256300002336502,-0.17657999694347382,9.692279815673828,0.699999988079071,-0.41999998688697815,0.14000000059604645,-0.7869330048561096,1.0059369802474976,105.3993148803711,0,1,7,92,455206400,2022,5,27,6,26,28,55,2,400455499,3,3,10,15,1410137105,376320813,59567,22796,648,749,-9,18,7,20,0,151,17314586,117,,0,,2.183333396911621,166.92626953125,-161.56494140625,22.135000228881836,999.57763671875,0.0,21.363012313842773,71.08872985839844,1.225000023841858,43.88999938964844,-0.2256300002336502,-0.17657999694347382,9.692279815673828,0.699999988079071,-0.41999998688697815,0.14000000059604645,-0.7869330048561096,1.0059369802474976,105.3993148803711,0,1,7,92,455206400,2022,5,27,6,26,28,55,2,400455499,3,3,10,15,1410137105,376320813,59567,22796,648,749,-9,18,7,20,0,151,17314586,117,,0,,0.0,0.0,0.0,0,0,0,True,True,True,True,True,1,-168.783935546875,155.54295349121094,1.0,0.0,1.0,False,999.2973022460938,0.0,0.05000000074505806,True,0.0,0.0,0.0,0.0,0.0,0.0,0.0,0.0,0.0,1.0,1.0,False,False,False,False,False,False,False,False,False,False,False,False,False,False,False,False,False,False,False,False,False,False,False,False,False,False,False,False,False,False,False,False,False,False,False,False,False,False,False,False,False,False,False,False,True,False,False,False,False,True,True,1.9277827739715576,-1.5351150035858154,2.4948720932006836,-0.18358367681503296,True,4,1,True,53,56,
1203312,1,1202721273,0,2.2333333492279053,-1.857666015625,-5.9560699462890625,22.190000534057617,999.6194458007812,-2.7389988899230957,21.41908836364746,71.12077331542969,1.1747301816940308,43.900001525878906,-0.039239998906850815,-0.11772000044584274,9.8100004196167,0.699999988079071,-0.699999988079071,0.2800000011920929,-0.7549268007278442,0.7262927889823914,105.42619323730469,0,1,7,92,455206400,2022,5,27,6,26,28,55,2,400455499,3,3,10,15,1410137105,376320813,59567,22796,648,749,-9,18,7,20,0,151,17314586,117,,0,,2.2333333492279053,166.92626953125,-161.4990234375,22.190000534057617,999.572998046875,0.0,21.41908836364746,71.12077331542969,1.225000023841858,43.900001525878906,-0.039239998906850815,-0.11772000044584274,9.8100004196167,0.699999988079071,-0.699999988079071,0.2800000011920929,-0.7549268007278442,0.7262927889823914,105.42619323730469,0,1,7,92,455206400,2022,5,27,6,26,28,55,2,400455499,3,3,10,15,1410137105,376320813,59567,22796,648,749,-9,18,7,20,0,151,17314586,117,,0,,0.0,0.0,0.0,0,0,0,True,True,True,True,True,1,-168.783935546875,155.54295349121094,1.0,0.0,1.0,False,999.2973022460938,0.0,0.05000000074505806,True,0.0,0.0,0.0,0.0,0.0,0.0,0.0,0.0,0.0,1.0,1.0,False,False,False,False,False,False,False,False,False,False,False,False,False,False,False,False,False,False,False,False,False,False,False,False,False,False,False,False,False,False,False,False,False,False,False,False,False,False,False,False,False,False,False,False,True,False,False,False,False,True,True,1.9499465227127075,-1.5234603881835938,2.3460075855255127,-0.5335933566093445,True,4,1,True,54,56,
1203372,1,1202721273,0,2.2833333015441895,-1.901611328125,-5.9780426025390625,22.1299991607666,999.6143188476562,-2.695657968521118,21.405736923217773,71.13908386230469,1.1747817993164062,43.88999938964844,-0.20600999891757965,-0.23544000089168549,9.73151969909668,0.41999998688697815,-0.6299999952316284,0.41999998688697815,-1.019845962524414,0.8330997228622437,105.44143676757812,0,1,7,92,455206500,2022,5,27,6,26,28,55,2,500455486,3,3,10,15,1410137105,376320813,59568,22798,648,749,6,20,3,21,0,158,17314626,117,,0,,2.2833333015441895,166.88232421875,-161.52099609375,22.1299991607666,999.58642578125,0.0,21.405736923217773,71.13908386230469,1.225000023841858,43.88999938964844,-0.20600999891757965,-0.23544000089168549,9.73151969909668,0.41999998688697815,-0.6299999952316284,0.41999998688697815,-1.019845962524414,0.8330997228622437,105.44143676757812,0,1,7,92,455206500,2022,5,27,6,26,28,55,2,500455486,3,3,10,15,1410137105,376320813,59568,22798,648,749,6,20,3,21,0,158,17314626,117,,0,,0.0,0.0,0.0,0,0,0,True,True,True,True,True,1,-168.783935546875,155.54295349121094,1.0,0.0,1.0,False,999.2973022460938,0.0,0.05000000074505806,True,0.0,0.0,0.0,0.0,0.0,0.0,0.0,0.0,0.0,1.0,1.0,False,False,False,False,False,False,False,False,False,False,False,False,False,False,False,False,False,False,False,False,False,False,False,False,False,False,False,False,False,False,False,False,False,False,False,False,False,False,False,False,False,False,False,False,True,False,False,False,False,True,True,1.971610188484192,-1.7830679416656494,2.4449715614318848,-0.0669502392411232,True,4,1,True,53,56,
1203432,1,1202721273,0,2.4666666984558105,-1.879638671875,-6.0219879150390625,22.170000076293945,999.6178588867188,-2.72187876701355,21.320287704467773,71.22758483886719,1.1751587390899658,43.900001525878906,-0.08828999847173691,-0.11772000044584274,9.74133014678955,0.49000000953674316,-0.5600000023841858,0.14000000059604645,-0.7215628027915955,0.575609564781189,105.45436096191406,0,1,7,92,455206600,2022,5,27,6,26,28,55,2,600455473,3,3,10,15,1410137105,376320813,59576,22805,648,749,8,-13,-4,15,0,153,17314666,117,,0,,2.4666666984558105,166.904296875,-161.56494140625,22.170000076293945,999.62646484375,0.0,21.320287704467773,71.22758483886719,1.225000023841858,43.900001525878906,-0.08828999847173691,-0.11772000044584274,9.74133014678955,0.49000000953674316,-0.5600000023841858,0.14000000059604645,-0.7215628027915955,0.575609564781189,105.45436096191406,0,1,7,92,455206600,2022,5,27,6,26,28,55,2,600455473,3,3,10,15,1410137105,376320813,59576,22805,648,749,8,-13,-4,15,0,153,17314666,117,,0,,0.0,0.0,0.0,0,0,0,True,True,True,True,True,1,-168.783935546875,155.54295349121094,1.0,0.0,1.0,False,999.2973022460938,0.0,0.05000000074505806,True,0.0,0.0,0.0,0.0,0.0,0.0,0.0,0.0,0.0,1.0,1.0,False,False,False,False,False,False,False,False,False,False,False,False,False,False,False,False,False,False,False,False,False,False,False,False,False,False,False,False,False,False,False,False,False,False,False,False,False,False,False,False,False,False,False,False,True,False,False,False,False,True,True,2.048905611038208,-1.599098801612854,2.446857213973999,-0.7670164704322815,True,4,1,True,54,56,
1203492,1,1202721273,0,2.299999952316284,-1.879638671875,-6.0000152587890625,22.1299991607666,999.61279296875,-2.6816420555114746,21.349660873413086,71.05668640136719,1.1750408411026,43.900001525878906,-0.16676999628543854,-0.14714999496936798,9.751139640808105,0.3499999940395355,-0.8399999737739563,0.6299999952316284,-0.7170106768608093,1.0387264490127563,105.4762954711914,0,1,7,92,455206600,2022,5,27,6,26,28,55,2,600455473,3,3,10,15,1410137105,376320813,59576,22805,648,749,8,-13,-4,15,0,153,17314666,117,,0,,2.299999952316284,166.904296875,-161.54296875,22.1299991607666,999.59521484375,0.0,21.349660873413086,71.05668640136719,1.225000023841858,43.900001525878906,-0.16676999628543854,-0.14714999496936798,9.751139640808105,0.3499999940395355,-0.8399999737739563,0.6299999952316284,-0.7170106768608093,1.0387264490127563,105.4762954711914,0,1,7,92,455206600,2022,5,27,6,26,28,55,2,600455473,3,3,10,15,1410137105,376320813,59576,22805,648,749,8,-13,-4,15,0,153,17314666,117,,0,,0.0,0.0,0.0,0,0,0,True,True,True,True,True,1,-168.783935546875,155.54295349121094,1.0,0.0,1.0,False,999.2973022460938,0.0,0.05000000074505806,True,0.0,0.0,0.0,0.0,0.0,0.0,0.0,0.0,0.0,1.0,1.0,False,False,False,False,False,False,False,False,False,False,False,False,False,False,False,False,False,False,False,False,False,False,False,False,False,False,False,False,False,False,False,False,False,False,False,False,False,False,False,False,False,False,False,False,True,False,False,False,False,True,True,1.9785746335983276,-1.6055039167404175,2.5358104705810547,-0.13446857035160065,True,4,1,True,53,56,
1203552,1,1202721273,0,2.4833333492279053,-1.879638671875,-6.0219879150390625,22.170000076293945,999.6115112304688,-2.6681392192840576,21.349660873413086,71.11619567871094,1.175032138824463,43.900001525878906,-0.16676999628543854,-0.15695999562740326,9.672659873962402,0.3499999940395355,-0.2800000011920929,-0.14000000059604645,-0.7965493202209473,0.7707191705703735,105.48497772216797,0,1,7,92,455206700,2022,5,27,6,26,28,55,2,700455460,3,3,10,15,1410137105,376320814,59569,22799,648,748,17,-7,2,19,0,158,17314708,117,,0,,2.4833333492279053,166.904296875,-161.56494140625,22.170000076293945,999.585205078125,0.0,21.349660873413086,71.11619567871094,1.225000023841858,43.900001525878906,-0.16676999628543854,-0.15695999562740326,9.672659873962402,0.3499999940395355,-0.2800000011920929,-0.14000000059604645,-0.7965493202209473,0.7707191705703735,105.48497772216797,0,1,7,92,455206700,2022,5,27,6,26,28,55,2,700455460,3,3,10,15,1410137105,376320814,59569,22799,648,748,17,-7,2,19,0,158,17314708,117,,0,,0.0,0.0,0.0,0,0,0,True,True,True,True,True,1,-168.783935546875,155.54295349121094,1.0,0.0,1.0,False,999.2973022460938,0.0,0.05000000074505806,True,0.0,0.0,0.0,0.0,0.0,0.0,0.0,0.0,0.0,1.0,1.0,False,False,False,False,False,False,False,False,False,False,False,False,False,False,False,False,False,False,False,False,False,False,False,False,False,False,False,False,False,False,False,False,False,False,False,False,False,False,False,False,False,False,False,False,True,False,False,False,False,True,True,2.05592679977417,-1.745029091835022,2.584918260574341,-0.44778093695640564,True,4,1,True,53,56,
1203612,1,1202721273,0,2.4666666984558105,-1.901611328125,-6.0219879150390625,22.149999618530273,999.6143798828125,-2.692810297012329,21.38971519470215,71.10398864746094,1.174857258796692,43.900001525878906,-0.039239998906850815,-0.10790999978780746,9.7020902633667,0.3499999940395355,-0.5600000023841858,0.2800000011920929,-0.7971132397651672,0.9613873362541199,105.49938201904297,0,1,7,92,455206700,2022,5,27,6,26,28,55,2,700455460,3,3,10,15,1410137105,376320814,59569,22799,648,748,17,-7,2,19,0,158,17314708,117,,0,,2.4666666984558105,166.88232421875,-161.56494140625,22.149999618530273,999.623779296875,0.0,21.38971519470215,71.10398864746094,1.225000023841858,43.900001525878906,-0.039239998906850815,-0.10790999978780746,9.7020902633667,0.3499999940395355,-0.5600000023841858,0.2800000011920929,-0.7971132397651672,0.9613873362541199,105.49938201904297,0,1,7,92,455206700,2022,5,27,6,26,28,55,2,700455460,3,3,10,15,1410137105,376320814,59569,22799,648,748,17,-7,2,19,0,158,17314708,117,,0,,0.0,0.0,0.0,0,0,0,True,True,True,True,True,1,-168.783935546875,155.54295349121094,1.0,0.0,1.0,False,999.2973022460938,0.0,0.05000000074505806,True,0.0,0.0,0.0,0.0,0.0,0.0,0.0,0.0,0.0,1.0,1.0,False,False,False,False,False,False,False,False,False,False,False,False,False,False,False,False,False,False,False,False,False,False,False,False,False,False,False,False,False,False,False,False,False,False,False,False,False,False,False,False,False,False,False,False,True,False,False,False,False,True,True,2.049168586730957,-1.7682383060455322,2.6294751167297363,-0.15321967005729675,True,4,1,True,54,56,
1203672,1,1202721273,0,2.2833333015441895,-1.879638671875,-5.9560699462890625,22.145000457763672,999.61328125,-2.6853647232055664,21.461814880371094,71.18943786621094,1.1745232343673706,43.900001525878906,-0.2648699879646301,-0.17657999694347382,9.662850379943848,0.20999999344348907,-0.2800000011920929,0.49000000953674316,-0.7937407493591309,1.1795822381973267,105.51564025878906,0,1,7,92,455206800,2022,5,27,6,26,28,55,2,800455447,3,3,10,15,1410137105,376320814,59576,22806,648,748,-18,1,1,18,0,162,17314750,117,,0,,2.2833333015441895,166.904296875,-161.4990234375,22.145000457763672,999.587890625,0.0,21.461814880371094,71.18943786621094,1.225000023841858,43.900001525878906,-0.2648699879646301,-0.17657999694347382,9.662850379943848,0.20999999344348907,-0.2800000011920929,0.49000000953674316,-0.7937407493591309,1.1795822381973267,105.51564025878906,0,1,7,92,455206800,2022,5,27,6,26,28,55,2,800455447,3,3,10,15,1410137105,376320814,59576,22806,648,748,-18,1,1,18,0,162,17314750,117,,0,,0.0,0.0,0.0,0,0,0,True,True,True,True,True,1,-168.783935546875,155.54295349121094,1.0,0.0,1.0,False,999.2973022460938,0.0,0.05000000074505806,True,0.0,0.0,0.0,0.0,0.0,0.0,0.0,0.0,0.0,1.0,1.0,False,False,False,False,False,False,False,False,False,False,False,False,False,False,False,False,False,False,False,False,False,False,False,False,False,False,False,False,False,False,False,False,False,False,False,False,False,False,False,False,False,False,False,False,True,False,False,False,False,True,True,1.9718271493911743,-1.6678434610366821,2.4537405967712402,0.10041369497776031,True,4,1,True,53,56,
1203732,1,1203721293,0,2.4000000953674316,-1.879638671875,-5.9560699462890625,22.1299991607666,999.6102905273438,-2.656686544418335,21.27756118774414,71.20011901855469,1.175344705581665,43.900001525878906,-0.07847999781370163,-0.1373399943113327,9.829620361328125,0.2800000011920929,-0.5600000023841858,0.14000000059604645,-0.7931268215179443,0.5341556668281555,105.53054809570312,0,1,7,92,455206900,2022,5,27,6,26,28,55,2,900455434,3,3,10,15,1410137105,376320814,59577,22807,648,748,20,2,3,20,0,163,17314792,117,,0,,2.4000000953674316,166.904296875,-161.4990234375,22.1299991607666,999.552734375,0.0,21.27756118774414,71.20011901855469,1.225000023841858,43.900001525878906,-0.07847999781370163,-0.1373399943113327,9.829620361328125,0.2800000011920929,-0.5600000023841858,0.14000000059604645,-0.7931268215179443,0.5341556668281555,105.53054809570312,0,1,7,92,455206900,2022,5,27,6,26,28,55,2,900455434,3,3,10,15,1410137105,376320814,59577,22807,648,748,20,2,3,20,0,163,17314792,117,,0,,0.0,0.0,0.0,0,0,0,True,True,True,True,True,1,-168.783935546875,155.54295349121094,1.0,0.0,1.0,False,999.2973022460938,0.0,0.05000000074505806,True,0.0,0.0,0.0,0.0,0.0,0.0,0.0,0.0,0.0,1.0,1.0,False,False,False,False,False,False,False,False,False,False,False,False,False,False,False,False,False,False,False,False,False,False,False,False,False,False,False,False,False,False,False,False,False,False,False,False,False,False,False,False,False,False,False,False,True,False,False,False,False,True,True,2.0208683013916016,-1.7047016620635986,2.319164991378784,-0.6867918968200684,True,4,1,True,54,56,
1203792,1,1203721293,0,2.5166666507720947,-1.879638671875,-5.9560699462890625,22.165000915527344,999.6132202148438,-2.6817636489868164,21.363012313842773,71.16807556152344,1.1749683618545532,43.90999984741211,-0.14714999496936798,-0.17657999694347382,9.760950088500977,0.3499999940395355,-0.49000000953674316,0.41999998688697815,-1.1113423109054565,0.7713085412979126,105.54019927978516,0,1,7,92,455206900,2022,5,27,6,26,28,55,2,900455434,3,3,10,15,1410137105,376320814,59577,22807,648,748,20,2,3,20,0,163,17314792,117,,0,,2.5166666507720947,166.904296875,-161.4990234375,22.165000915527344,999.571533203125,0.0,21.363012313842773,71.16807556152344,1.225000023841858,43.90999984741211,-0.14714999496936798,-0.17657999694347382,9.760950088500977,0.3499999940395355,-0.49000000953674316,0.41999998688697815,-1.1113423109054565,0.7713085412979126,105.54019927978516,0,1,7,92,455206900,2022,5,27,6,26,28,55,2,900455434,3,3,10,15,1410137105,376320814,59577,22807,648,748,20,2,3,20,0,163,17314792,117,,0,,0.0,0.0,0.0,0,0,0,True,True,True,True,True,1,-168.783935546875,155.54295349121094,1.0,0.0,1.0,False,999.2973022460938,0.0,0.05000000074505806,True,0.0,0.0,0.0,0.0,0.0,0.0,0.0,0.0,0.0,1.0,1.0,False,False,False,False,False,False,False,False,False,False,False,False,False,False,False,False,False,False,False,False,False,False,False,False,False,False,False,False,False,False,False,False,False,False,False,False,False,False,False,False,False,False,False,False,True,False,False,False,False,True,True,2.069735050201416,-1.962968349456787,2.4642937183380127,-0.051524676382541656,True,4,1,True,53,56,
1203853,1,1203721293,0,2.2833333015441895,-1.879638671875,-5.9121246337890625,22.165000915527344,999.6248168945312,-2.7842626571655273,21.349660873413086,71.16349792480469,1.175042986869812,43.90999984741211,-0.11772000044584274,-0.17657999694347382,9.721710205078125,0.20999999344348907,-0.2800000011920929,-0.07000000029802322,-0.9602523446083069,0.5831040740013123,105.55443572998047,0,1,7,92,455207000,2022,5,27,6,26,29,55,2,455421,3,3,10,15,1410137106,376320814,59581,22811,648,748,-15,2,-4,15,0,159,17314834,117,,0,,2.2833333015441895,166.904296875,-161.455078125,22.165000915527344,999.76513671875,0.0,21.349660873413086,71.16349792480469,1.225000023841858,43.90999984741211,-0.11772000044584274,-0.17657999694347382,9.721710205078125,0.20999999344348907,-0.2800000011920929,-0.07000000029802322,-0.9602523446083069,0.5831040740013123,105.55443572998047,0,1,7,92,455207000,2022,5,27,6,26,29,55,2,455421,3,3,10,15,1410137106,376320814,59581,22811,648,748,-15,2,-4,15,0,159,17314834,117,,0,,0.0,0.0,0.0,0,0,0,True,True,True,True,True,1,-168.783935546875,155.54295349121094,1.0,0.0,1.0,False,999.2973022460938,0.0,0.05000000074505806,True,0.0,0.0,0.0,0.0,0.0,0.0,0.0,0.0,0.0,1.0,1.0,False,False,False,False,False,False,False,False,False,False,False,False,False,False,False,False,False,False,False,False,False,False,False,False,False,False,False,False,False,False,False,False,False,False,False,False,False,False,False,False,False,False,False,False,True,False,False,False,False,True,True,1.9713910818099976,-1.750645399093628,2.2778539657592773,-0.37756210565567017,True,4,1,True,53,56,
1203913,1,1203721293,0,2.316666603088379,-1.857666015625,-5.9340972900390625,22.155000686645508,999.6232299804688,-2.77113676071167,21.38971519470215,71.12535095214844,1.17486572265625,43.90999984741211,-0.06866999715566635,-0.14714999496936798,9.751139640808105,0.41999998688697815,-0.49000000953674316,0.07000000029802322,-0.9721329212188721,0.7873460054397583,105.56585693359375,0,1,7,92,455207000,2022,5,27,6,26,29,55,2,455421,3,3,10,15,1410137106,376320814,59581,22811,648,748,-15,2,-4,15,0,159,17314834,117,,0,,2.316666603088379,166.92626953125,-161.47705078125,22.155000686645508,999.590576171875,0.0,21.38971519470215,71.12535095214844,1.225000023841858,43.90999984741211,-0.06866999715566635,-0.14714999496936798,9.751139640808105,0.41999998688697815,-0.49000000953674316,0.07000000029802322,-0.9721329212188721,0.7873460054397583,105.56585693359375,0,1,7,92,455207000,2022,5,27,6,26,29,55,2,455421,3,3,10,15,1410137106,376320814,59581,22811,648,748,-15,2,-4,15,0,159,17314834,117,,0,,0.0,0.0,0.0,0,0,0,True,True,True,True,True,1,-168.783935546875,155.54295349121094,1.0,0.0,1.0,False,999.2973022460938,0.0,0.05000000074505806,True,0.0,0.0,0.0,0.0,0.0,0.0,0.0,0.0,0.0,1.0,1.0,False,False,False,False,False,False,False,False,False,False,False,False,False,False,False,False,False,False,False,False,False,False,False,False,False,False,False,False,False,False,False,False,False,False,False,False,False,False,False,False,False,False,False,False,True,False,False,False,False,True,True,1.985878348350525,-1.7990076541900635,2.3591721057891846,-0.22169043123722076,True,4,1,True,54,56,
1203973,1,1203721293,0,2.1666667461395264,-1.879638671875,-6.0219879150390625,22.1299991607666,999.6199340820312,-2.7437546253204346,21.349660873413086,71.12535095214844,1.1750417947769165,43.90999984741211,-0.2256300002336502,-0.15695999562740326,9.7020902633667,0.2800000011920929,-0.699999988079071,0.20999999344348907,-0.9392074942588806,0.9949123859405518,105.57646179199219,0,1,7,92,455207100,2022,5,27,6,26,29,55,2,100455408,3,3,10,15,1410137106,376320815,59574,22804,648,748,12,-4,11,12,0,138,17314870,117,,0,,2.1666667461395264,166.904296875,-161.56494140625,22.1299991607666,999.697021484375,0.0,21.349660873413086,71.12535095214844,1.225000023841858,43.90999984741211,-0.2256300002336502,-0.15695999562740326,9.7020902633667,0.2800000011920929,-0.699999988079071,0.20999999344348907,-0.9392074942588806,0.9949123859405518,105.57646179199219,0,1,7,92,455207100,2022,5,27,6,26,29,55,2,100455408,3,3,10,15,1410137106,376320815,59574,22804,648,748,12,-4,11,12,0,138,17314870,117,,0,,0.0,0.0,0.0,0,0,0,True,True,True,True,True,1,-168.783935546875,155.54295349121094,1.0,0.0,1.0,False,999.2973022460938,0.0,0.05000000074505806,True,0.0,0.0,0.0,0.0,0.0,0.0,0.0,0.0,0.0,1.0,1.0,False,False,False,False,False,False,False,False,False,False,False,False,False,False,False,False,False,False,False,False,False,False,False,False,False,False,False,False,False,False,False,False,False,False,False,False,False,False,False,False,False,False,False,False,True,False,False,False,False,True,True,1.92036771774292,-1.79742431640625,2.402095317840576,-0.04008658975362778,True,4,1,True,53,56,
1204033,1,1203721293,0,2.5,-1.879638671875,-6.0219879150390625,22.149999618530273,999.6188354492188,-2.7299795150756836,21.320287704467773,71.04905700683594,1.1751800775527954,43.90999984741211,-0.06866999715566635,-0.1373399943113327,9.760950088500977,0.14000000059604645,-0.20999999344348907,0.3499999940395355,-0.9091364145278931,0.6999468803405762,105.59909057617188,0,1,7,92,455207200,2022,5,27,6,26,29,55,2,200455395,3,3,10,15,1410137106,376320815,59580,22810,648,748,-4,8,7,9,0,147,17314908,117,,0,,2.5,166.904296875,-161.56494140625,22.149999618530273,999.635986328125,0.0,21.320287704467773,71.04905700683594,1.225000023841858,43.90999984741211,-0.06866999715566635,-0.1373399943113327,9.760950088500977,0.14000000059604645,-0.20999999344348907,0.3499999940395355,-0.9091364145278931,0.6999468803405762,105.59909057617188,0,1,7,92,455207200,2022,5,27,6,26,29,55,2,200455395,3,3,10,15,1410137106,376320815,59580,22810,648,748,-4,8,7,9,0,147,17314908,117,,0,,0.0,0.0,0.0,0,0,0,True,True,True,True,True,1,-168.783935546875,155.54295349121094,1.0,0.0,1.0,False,999.2973022460938,0.0,0.05000000074505806,True,0.0,0.0,0.0,0.0,0.0,0.0,0.0,0.0,0.0,1.0,1.0,False,False,False,False,False,False,False,False,False,False,False,False,False,False,False,False,False,False,False,False,False,False,False,False,False,False,False,False,False,False,False,False,False,False,False,False,False,False,False,False,False,False,False,False,True,False,False,False,False,True,True,2.0626845359802246,-1.8876835107803345,2.4921865463256836,-0.41130903363227844,True,4,1,True,54,56,
1204093,1,1203721293,0,2.700000047683716,-1.879638671875,-5.9780426025390625,22.149999618530273,999.6271362304688,-2.798704147338867,21.448463439941406,71.17723083496094,1.1746001243591309,43.90999984741211,-0.17657999694347382,-0.14714999496936798,9.711899757385254,0.699999988079071,-0.5600000023841858,0.20999999344348907,-0.8161274790763855,1.0359086990356445,105.61844635009766,0,1,7,92,455207200,2022,5,27,6,26,29,55,2,200455395,3,3,10,15,1410137106,376320815,59580,22810,648,748,-4,8,7,9,0,147,17314908,117,,0,,2.700000047683716,166.904296875,-161.52099609375,22.149999618530273,999.698974609375,0.0,21.448463439941406,71.17723083496094,1.225000023841858,43.90999984741211,-0.17657999694347382,-0.14714999496936798,9.711899757385254,0.699999988079071,-0.5600000023841858,0.20999999344348907,-0.8161274790763855,1.0359086990356445,105.61844635009766,0,1,7,92,455207200,2022,5,27,6,26,29,55,2,200455395,3,3,10,15,1410137106,376320815,59580,22810,648,748,-4,8,7,9,0,147,17314908,117,,0,,0.0,0.0,0.0,0,0,0,True,True,True,True,True,1,-168.783935546875,155.54295349121094,1.0,0.0,1.0,False,999.2973022460938,0.0,0.05000000074505806,True,0.0,0.0,0.0,0.0,0.0,0.0,0.0,0.0,0.0,1.0,1.0,False,False,False,False,False,False,False,False,False,False,False,False,False,False,False,False,False,False,False,False,False,False,False,False,False,False,False,False,False,False,False,False,False,False,False,False,False,False,False,False,False,False,False,False,True,False,False,False,False,True,True,2.1441338062286377,-1.9332799911499023,2.610896110534668,-0.07985201478004456,True,4,1,True,53,56,
1204153,1,1203721293,0,2.4000000953674316,-1.835693359375,-6.0219879150390625,22.135000228881836,999.6224975585938,-2.7631843090057373,21.405736923217773,71.20774841308594,1.1747833490371704,43.90999984741211,-0.17657999694347382,-0.16676999628543854,9.692279815673828,0.2800000011920929,-0.41999998688697815,0.20999999344348907,-0.7584992051124573,0.7518929243087769,105.62796783447266,0,1,7,92,455207300,2022,5,27,6,26,29,55,2,300455382,3,3,10,15,1410137106,376320815,59579,22809,648,748,22,-9,10,23,0,152,17314948,117,,0,,2.4000000953674316,166.9482421875,-161.56494140625,22.135000228881836,999.599365234375,0.0,21.405736923217773,71.20774841308594,1.225000023841858,43.90999984741211,-0.17657999694347382,-0.16676999628543854,9.692279815673828,0.2800000011920929,-0.41999998688697815,0.20999999344348907,-0.7584992051124573,0.7518929243087769,105.62796783447266,0,1,7,92,455207300,2022,5,27,6,26,29,55,2,300455382,3,3,10,15,1410137106,376320815,59579,22809,648,748,22,-9,10,23,0,152,17314948,117,,0,,0.0,0.0,0.0,0,0,0,True,True,True,True,True,1,-168.783935546875,155.54295349121094,1.0,0.0,1.0,False,999.2973022460938,0.0,0.05000000074505806,True,0.0,0.0,0.0,0.0,0.0,0.0,0.0,0.0,0.0,1.0,1.0,False,False,False,False,False,False,False,False,False,False,False,False,False,False,False,False,False,False,False,False,False,False,False,False,False,False,False,False,False,False,False,False,False,False,False,False,False,False,False,False,False,False,False,False,True,False,False,False,False,True,True,2.0213510990142822,-1.782191514968872,2.4006130695343018,-0.5913441777229309,True,4,1,True,53,56,
1204213,1,1203721293,0,2.383333444595337,-1.901611328125,-6.0219879150390625,22.149999618530273,999.62109375,-2.752380132675171,21.405736923217773,71.08872985839844,1.174795389175415,43.90999984741211,-0.09809999912977219,-0.11772000044584274,9.74133014678955,0.20999999344348907,-0.6299999952316284,0.49000000953674316,-0.752783477306366,0.9535771012306213,105.65339660644531,0,1,7,92,455207300,2022,5,27,6,26,29,55,2,300455382,3,3,10,15,1410137106,376320815,59579,22809,648,748,22,-9,10,23,0,152,17314948,117,,0,,2.383333444595337,166.88232421875,-161.56494140625,22.149999618530273,999.64208984375,0.0,21.405736923217773,71.08872985839844,1.225000023841858,43.90999984741211,-0.09809999912977219,-0.11772000044584274,9.74133014678955,0.20999999344348907,-0.6299999952316284,0.49000000953674316,-0.752783477306366,0.9535771012306213,105.65339660644531,0,1,7,92,455207300,2022,5,27,6,26,29,55,2,300455382,3,3,10,15,1410137106,376320815,59579,22809,648,748,22,-9,10,23,0,152,17314948,117,,0,,0.0,0.0,0.0,0,0,0,True,True,True,True,True,1,-168.783935546875,155.54295349121094,1.0,0.0,1.0,False,999.2973022460938,0.0,0.05000000074505806,True,0.0,0.0,0.0,0.0,0.0,0.0,0.0,0.0,0.0,1.0,1.0,False,False,False,False,False,False,False,False,False,False,False,False,False,False,False,False,False,False,False,False,False,False,False,False,False,False,False,False,False,False,False,False,False,False,False,False,False,False,False,False,False,False,False,False,True,False,False,False,False,True,True,2.014309883117676,-1.8339942693710327,2.465775966644287,-0.2050640732049942,True,4,1,True,54,56,
1204273,1,1203721293,0,2.2833333015441895,-1.857666015625,-6.0000152587890625,22.145000457763672,999.62109375,-2.752380132675171,21.405736923217773,71.08872985839844,1.174795389175415,43.90999984741211,-0.09809999912977219,-0.11772000044584274,9.74133014678955,0.20999999344348907,-0.6299999952316284,0.49000000953674316,-0.752783477306366,0.9535771012306213,105.65339660644531,0,1,7,92,455207400,2022,5,27,6,26,29,55,2,400455369,3,3,10,15,1410137106,376320815,59587,22817,648,747,-14,-25,-1,29,0,162,17314990,117,,0,,2.2833333015441895,166.92626953125,-161.54296875,22.145000457763672,999.705810546875,0.0,21.293582916259766,71.13450622558594,1.225000023841858,43.91999816894531,-0.20600999891757965,-0.17657999694347382,9.682470321655273,0.3499999940395355,-0.20999999344348907,0.3499999940395355,-0.987368106842041,0.9699313640594482,105.66566467285156,0,1,7,92,455207400,2022,5,27,6,26,29,55,2,400455369,3,3,10,15,1410137106,376320815,59587,22817,648,747,-14,-25,-1,29,0,162,17314990,117,,0,,0.0,0.0,0.0,0,0,0,True,True,True,True,True,1,-168.783935546875,155.54295349121094,1.0,0.0,1.0,False,999.2973022460938,0.0,0.05000000074505806,True,0.0,0.0,0.0,0.0,0.0,0.0,0.0,0.0,0.0,1.0,1.0,False,False,False,False,False,False,False,False,False,False,False,False,False,False,False,False,False,False,False,False,False,False,False,False,False,False,False,False,False,False,False,False,False,False,False,False,False,False,False,False,False,False,False,False,True,False,False,False,False,True,True,1.9711813926696777,-1.864459753036499,2.372849702835083,-0.04911844804883003,True,4,1,True,53,56,
1204333,1,1203721293,0,2.2833333015441895,-1.923583984375,-6.0000152587890625,22.1299991607666,999.6216430664062,-2.757632255554199,21.38971519470215,71.13450622558594,1.1748628616333008,43.90999984741211,-0.04904999956488609,-0.10790999978780746,9.770759582519531,0.6299999952316284,-0.49000000953674316,0.07000000029802322,-0.7726960778236389,0.7789441347122192,105.68788146972656,0,1,7,92,455207500,2022,5,27,6,26,29,55,2,500455356,3,3,10,15,1410137106,376320816,59584,22814,648,747,24,21,0,32,0,164,17315032,117,,0,,2.2833333015441895,166.8603515625,-161.54296875,22.1299991607666,999.61767578125,0.0,21.38971519470215,71.13450622558594,1.225000023841858,43.90999984741211,-0.04904999956488609,-0.10790999978780746,9.770759582519531,0.6299999952316284,-0.49000000953674316,0.07000000029802322,-0.7726960778236389,0.7789441347122192,105.68788146972656,0,1,7,92,455207500,2022,5,27,6,26,29,55,2,500455356,3,3,10,15,1410137106,376320816,59584,22814,648,747,24,21,0,32,0,164,17315032,117,,0,,0.0,0.0,0.0,0,0,0,True,True,True,True,True,1,-168.783935546875,155.54295349121094,1.0,0.0,1.0,False,999.2973022460938,0.0,0.05000000074505806,True,0.0,0.0,0.0,0.0,0.0,0.0,0.0,0.0,0.0,1.0,1.0,False,False,False,False,False,False,False,False,False,False,False,False,False,False,False,False,False,False,False,False,False,False,False,False,False,False,False,False,False,False,False,False,False,False,False,False,False,False,False,False,False,False,False,False,True,False,False,False,False,True,True,1.9715421199798584,-1.810901165008545,2.2998898029327393,-0.35116279125213623,True,4,1,True,54,56,
1204393,1,1203721293,0,2.1500000953674316,-1.945556640625,-5.9340972900390625,22.145000457763672,999.6287841796875,-2.822326183319092,21.37636375427246,71.12077331542969,1.1749330759048462,43.90999984741211,-0.21581999957561493,-0.19619999825954437,9.721710205078125,0.699999988079071,-0.41999998688697815,0.41999998688697815,-1.0705195665359497,1.0333538055419922,105.69524383544922,0,1,7,92,455207500,2022,5,27,6,26,29,55,2,500455356,3,3,10,15,1410137106,376320816,59584,22814,648,747,24,21,0,32,0,164,17315032,117,,0,,2.1500000953674316,166.83837890625,-161.47705078125,22.145000457763672,999.747802734375,0.0,21.37636375427246,71.12077331542969,1.225000023841858,43.90999984741211,-0.21581999957561493,-0.19619999825954437,9.721710205078125,0.699999988079071,-0.41999998688697815,0.41999998688697815,-1.0705195665359497,1.0333538055419922,105.69524383544922,0,1,7,92,455207500,2022,5,27,6,26,29,55,2,500455356,3,3,10,15,1410137106,376320816,59584,22814,648,747,24,21,0,32,0,164,17315032,117,,0,,0.0,0.0,0.0,0,0,0,True,True,True,True,True,1,-168.783935546875,155.54295349121094,1.0,0.0,1.0,False,999.2973022460938,0.0,0.05000000074505806,True,0.0,0.0,0.0,0.0,0.0,0.0,0.0,0.0,0.0,1.0,1.0,False,False,False,False,False,False,False,False,False,False,False,False,False,False,False,False,False,False,False,False,False,False,False,False,False,False,False,False,False,False,False,False,False,False,False,False,False,False,False,False,False,False,False,False,True,False,False,False,False,True,True,1.9130558967590332,-1.8171724081039429,2.1104815006256104,0.2620594799518585,True,4,1,True,53,56,
1204454,1,1203721293,0,2.200000047683716,-1.901611328125,-5.9560699462890625,22.170000076293945,999.6287841796875,-2.8193697929382324,21.349660873413086,71.16349792480469,1.1750478744506836,43.91999816894531,-0.07847999781370163,-0.1373399943113327,9.780570030212402,0.3499999940395355,-0.5600000023841858,0.07000000029802322,-0.802415132522583,0.426565557718277,105.71263122558594,0,1,7,92,455207600,2022,5,27,6,26,29,55,2,600455343,3,3,10,15,1410137106,376320816,59584,22814,648,747,-11,-19,5,22,0,158,17315074,117,,0,,2.200000047683716,166.88232421875,-161.4990234375,22.170000076293945,999.64892578125,0.0,21.349660873413086,71.16349792480469,1.225000023841858,43.91999816894531,-0.07847999781370163,-0.1373399943113327,9.780570030212402,0.3499999940395355,-0.5600000023841858,0.07000000029802322,-0.802415132522583,0.426565557718277,105.71263122558594,0,1,7,92,455207600,2022,5,27,6,26,29,55,2,600455343,3,3,10,15,1410137106,376320816,59584,22814,648,747,-11,-19,5,22,0,158,17315074,117,,0,,0.0,0.0,0.0,0,0,0,True,True,True,True,True,1,-168.783935546875,155.54295349121094,1.0,0.0,1.0,False,999.2973022460938,0.0,0.05000000074505806,True,0.0,0.0,0.0,0.0,0.0,0.0,0.0,0.0,0.0,1.0,1.0,False,False,False,False,False,False,False,False,False,False,False,False,False,False,False,False,False,False,False,False,False,False,False,False,False,False,False,False,False,False,False,False,False,False,False,False,False,False,False,False,False,False,False,False,True,False,False,False,False,True,True,1.9350783824920654,-1.6688909530639648,2.068103075027466,-0.7230627536773682,True,4,1,True,53,56,
1204514,1,1203721293,0,2.0999999046325684,-1.901611328125,-5.9780426025390625,22.15999984741211,999.636474609375,-2.8895840644836426,21.349660873413086,71.05668640136719,1.1750693321228027,43.91999816894531,-0.14714999496936798,-0.14714999496936798,9.74133014678955,0.5600000023841858,-0.9100000262260437,0.49000000953674316,-0.7416301369667053,0.8838772773742676,105.7439956665039,0,1,7,92,455207600,2022,5,27,6,26,29,55,2,600455343,3,3,10,15,1410137106,376320816,59584,22814,648,747,-11,-19,5,22,0,158,17315074,117,,0,,2.0999999046325684,166.88232421875,-161.52099609375,22.15999984741211,999.6962890625,0.0,21.349660873413086,71.05668640136719,1.225000023841858,43.91999816894531,-0.14714999496936798,-0.14714999496936798,9.74133014678955,0.5600000023841858,-0.9100000262260437,0.49000000953674316,-0.7416301369667053,0.8838772773742676,105.7439956665039,0,1,7,92,455207600,2022,5,27,6,26,29,55,2,600455343,3,3,10,15,1410137106,376320816,59584,22814,648,747,-11,-19,5,22,0,158,17315074,117,,0,,0.0,0.0,0.0,0,0,0,True,True,True,True,True,1,-168.783935546875,155.54295349121094,1.0,0.0,1.0,False,999.2973022460938,0.0,0.05000000074505806,True,0.0,0.0,0.0,0.0,0.0,0.0,0.0,0.0,0.0,1.0,1.0,False,False,False,False,False,False,False,False,False,False,False,False,False,False,False,False,False,False,False,False,False,False,False,False,False,False,False,False,False,False,False,False,False,False,False,False,False,False,False,False,False,False,False,False,True,False,False,False,False,True,True,1.8905705213546753,-1.7177292108535767,2.189267635345459,-0.2705800533294678,True,4,1,True,54,56,
1204574,1,1203721293,0,2.25,-1.901611328125,-5.9780426025390625,22.135000228881836,999.63232421875,-2.849876642227173,21.43243980407715,71.15281677246094,1.1746819019317627,43.93000030517578,-0.25505998730659485,-0.19619999825954437,9.770759582519531,0.49000000953674316,-0.7699999809265137,-0.07000000029802322,-0.877588152885437,0.6339833736419678,105.74598693847656,0,1,7,92,455207700,2022,5,27,6,26,29,55,2,700455330,3,3,10,15,1410137106,376320816,59589,22819,648,747,-5,1,1,5,0,161,17315116,117,,0,,2.25,166.88232421875,-161.52099609375,22.135000228881836,999.63134765625,0.0,21.43243980407715,71.15281677246094,1.225000023841858,43.93000030517578,-0.25505998730659485,-0.19619999825954437,9.770759582519531,0.49000000953674316,-0.7699999809265137,-0.07000000029802322,-0.877588152885437,0.6339833736419678,105.74598693847656,0,1,7,92,455207700,2022,5,27,6,26,29,55,2,700455330,3,3,10,15,1410137106,376320816,59589,22819,648,747,-5,1,1,5,0,161,17315116,117,,0,,0.0,0.0,0.0,0,0,0,True,True,True,True,True,1,-168.783935546875,155.54295349121094,1.0,0.0,1.0,False,999.2973022460938,0.0,0.05000000074505806,True,0.0,0.0,0.0,0.0,0.0,0.0,0.0,0.0,0.0,1.0,1.0,False,False,False,False,False,False,False,False,False,False,False,False,False,False,False,False,False,False,False,False,False,False,False,False,False,False,False,False,False,False,False,False,False,False,False,False,False,False,False,False,False,False,False,False,True,False,False,False,False,True,True,1.9572491645812988,-1.807460904121399,2.185441732406616,-0.4324376583099365,True,4,1,True,53,56,
1204634,1,1203721293,0,2.2666666507720947,-1.901611328125,-6.0000152587890625,22.139999389648438,999.6403198242188,-2.919978141784668,21.41908836364746,71.14060974121094,1.1747525930404663,43.93000030517578,-0.039239998906850815,-0.07847999781370163,9.770759582519531,0.49000000953674316,-0.8399999737739563,0.41999998688697815,-0.7282703518867493,0.777715802192688,105.76701354980469,0,1,7,92,455207800,2022,5,27,6,26,29,55,2,800455317,3,3,10,15,1410137106,376320816,59581,22811,647,747,12,-5,8,12,0,146,17315154,117,,0,,2.2666666507720947,166.88232421875,-161.54296875,22.139999389648438,999.723388671875,0.0,21.41908836364746,71.14060974121094,1.225000023841858,43.93000030517578,-0.039239998906850815,-0.07847999781370163,9.770759582519531,0.49000000953674316,-0.8399999737739563,0.41999998688697815,-0.7282703518867493,0.777715802192688,105.76701354980469,0,1,7,92,455207800,2022,5,27,6,26,29,55,2,800455317,3,3,10,15,1410137106,376320816,59581,22811,647,747,12,-5,8,12,0,146,17315154,117,,0,,0.0,0.0,0.0,0,0,0,True,True,True,True,True,1,-168.783935546875,155.54295349121094,1.0,0.0,1.0,False,999.2973022460938,0.0,0.05000000074505806,True,0.0,0.0,0.0,0.0,0.0,0.0,0.0,0.0,0.0,1.0,1.0,False,False,False,False,False,False,False,False,False,False,False,False,False,False,False,False,False,False,False,False,False,False,False,False,False,False,False,False,False,False,False,False,False,False,False,False,False,False,False,False,False,False,False,False,True,False,False,False,False,True,True,1.964425802230835,-1.799245834350586,2.2146873474121094,-0.44221433997154236,True,4,1,True,54,56,
1204694,1,1203721293,0,2.2833333015441895,-1.879638671875,-5.9560699462890625,22.145000457763672,999.6368408203125,-2.889976978302002,21.38971519470215,71.10398864746094,1.17488431930542,43.93000030517578,-0.2844899892807007,-0.20600999891757965,9.662850379943848,0.20999999344348907,-0.49000000953674316,0.49000000953674316,-0.8736194372177124,0.9362425208091736,105.76937103271484,0,1,7,92,455207800,2022,5,27,6,26,29,55,2,800455317,3,3,10,15,1410137106,376320816,59581,22811,647,747,12,-5,8,12,0,146,17315154,117,,0,,2.2833333015441895,166.904296875,-161.4990234375,22.145000457763672,999.586669921875,0.0,21.38971519470215,71.10398864746094,1.225000023841858,43.93000030517578,-0.2844899892807007,-0.20600999891757965,9.662850379943848,0.20999999344348907,-0.49000000953674316,0.49000000953674316,-0.8736194372177124,0.9362425208091736,105.76937103271484,0,1,7,92,455207800,2022,5,27,6,26,29,55,2,800455317,3,3,10,15,1410137106,376320816,59581,22811,647,747,12,-5,8,12,0,146,17315154,117,,0,,0.0,0.0,0.0,0,0,0,True,True,True,True,True,1,-168.783935546875,155.54295349121094,1.0,0.0,1.0,False,999.2973022460938,0.0,0.05000000074505806,True,0.0,0.0,0.0,0.0,0.0,0.0,0.0,0.0,0.0,1.0,1.0,False,False,False,False,False,False,False,False,False,False,False,False,False,False,False,False,False,False,False,False,False,False,False,False,False,False,False,False,False,False,False,False,False,False,False,False,False,False,False,False,False,False,False,False,True,False,False,False,False,True,True,1.9715241193771362,-1.8691734075546265,2.229823350906372,-0.14046929776668549,True,4,1,True,53,56,
1204754,1,1204721313,0,2.316666603088379,-1.879638671875,-5.9560699462890625,22.139999389648438,999.63818359375,-2.900096893310547,21.320287704467773,71.09788513183594,1.175197958946228,43.93000030517578,-0.04904999956488609,-0.09809999912977219,9.73151969909668,0.3499999940395355,-0.6299999952316284,0.2800000011920929,-0.5928351879119873,0.32832086086273193,105.80155181884766,0,1,7,92,455207900,2022,5,27,6,26,29,55,2,900455304,3,3,10,15,1410137106,376320817,59589,22818,647,747,7,-10,2,12,0,152,17315194,117,,0,,2.316666603088379,166.904296875,-161.4990234375,22.139999389648438,999.60546875,0.0,21.320287704467773,71.09788513183594,1.225000023841858,43.93000030517578,-0.04904999956488609,-0.09809999912977219,9.73151969909668,0.3499999940395355,-0.6299999952316284,0.2800000011920929,-0.5928351879119873,0.32832086086273193,105.80155181884766,0,1,7,92,455207900,2022,5,27,6,26,29,55,2,900455304,3,3,10,15,1410137106,376320817,59589,22818,647,747,7,-10,2,12,0,152,17315194,117,,0,,0.0,0.0,0.0,0,0,0,True,True,True,True,True,1,-168.783935546875,155.54295349121094,1.0,0.0,1.0,False,999.2973022460938,0.0,0.05000000074505806,True,0.0,0.0,0.0,0.0,0.0,0.0,0.0,0.0,0.0,1.0,1.0,False,False,False,False,False,False,False,False,False,False,False,False,False,False,False,False,False,False,False,False,False,False,False,False,False,False,False,False,False,False,False,False,False,False,False,False,False,False,False,False,False,False,False,False,True,False,False,False,False,True,True,1.9855976104736328,-1.5141308307647705,1.7797114849090576,-1.1214584112167358,True,4,1,True,53,56,
1204814,1,1204721313,0,2.2333333492279053,-1.901611328125,-6.0000152587890625,22.170000076293945,999.6385498046875,-2.9034814834594727,21.38971519470215,71.10398864746094,1.1748864650726318,43.93000030517578,-0.19619999825954437,-0.1863899976015091,9.7020902633667,0.41999998688697815,-0.6299999952316284,0.5600000023841858,-0.9485771059989929,0.8926892876625061,105.81613159179688,0,1,7,92,455208000,2022,5,27,6,26,30,55,2,455291,3,3,10,15,1410137107,376320817,59585,22814,647,747,-7,17,11,19,0,146,17315232,117,,0,,2.2333333492279053,166.88232421875,-161.54296875,22.170000076293945,999.619140625,0.0,21.38971519470215,71.10398864746094,1.225000023841858,43.93000030517578,-0.19619999825954437,-0.1863899976015091,9.7020902633667,0.41999998688697815,-0.6299999952316284,0.5600000023841858,-0.9485771059989929,0.8926892876625061,105.81613159179688,0,1,7,92,455208000,2022,5,27,6,26,30,55,2,455291,3,3,10,15,1410137107,376320817,59585,22814,647,747,-7,17,11,19,0,146,17315232,117,,0,,0.0,0.0,0.0,0,0,0,True,True,True,True,True,1,-168.783935546875,155.54295349121094,1.0,0.0,1.0,False,999.2973022460938,0.0,0.05000000074505806,True,0.0,0.0,0.0,0.0,0.0,0.0,0.0,0.0,0.0,1.0,1.0,False,False,False,False,False,False,False,False,False,False,False,False,False,False,False,False,False,False,False,False,False,False,False,False,False,False,False,False,False,False,False,False,False,False,False,False,False,False,False,False,False,False,False,False,True,False,False,False,False,True,True,1.9498168230056763,-1.8704807758331299,2.1499733924865723,-0.09462764114141464,True,4,1,True,54,56,
1204874,1,1204721313,0,2.2833333015441895,-1.857666015625,-5.9340972900390625,22.145000457763672,999.640380859375,-2.9195547103881836,21.37636375427246,71.17112731933594,1.1749407052993774,43.93000030517578,-0.16676999628543854,-0.16676999628543854,9.73151969909668,0.20999999344348907,-0.2800000011920929,0.2800000011920929,-0.8708662986755371,0.6588064432144165,105.84153747558594,0,1,7,92,455208000,2022,5,27,6,26,30,55,2,455291,3,3,10,15,1410137107,376320817,59585,22814,647,747,-7,17,11,19,0,146,17315232,117,,0,,2.2833333015441895,166.92626953125,-161.47705078125,22.145000457763672,999.600830078125,0.0,21.37636375427246,71.17112731933594,1.225000023841858,43.93000030517578,-0.16676999628543854,-0.16676999628543854,9.73151969909668,0.20999999344348907,-0.2800000011920929,0.2800000011920929,-0.8708662986755371,0.6588064432144165,105.84153747558594,0,1,7,92,455208000,2022,5,27,6,26,30,55,2,455291,3,3,10,15,1410137107,376320817,59585,22814,647,747,-7,17,11,19,0,146,17315232,117,,0,,0.0,0.0,0.0,0,0,0,True,True,True,True,True,1,-168.783935546875,155.54295349121094,1.0,0.0,1.0,False,999.2973022460938,0.0,0.05000000074505806,True,0.0,0.0,0.0,0.0,0.0,0.0,0.0,0.0,0.0,1.0,1.0,False,False,False,False,False,False,False,False,False,False,False,False,False,False,False,False,False,False,False,False,False,False,False,False,False,False,False,False,False,False,False,False,False,False,False,False,False,False,False,False,False,False,False,False,True,False,False,False,False,True,True,1.9714767932891846,-1.79535973072052,2.0230255126953125,-0.47976186871528625,True,4,1,True,53,56,
1204934,1,1204721313,0,2.316666603088379,-1.923583984375,-5.9780426025390625,22.149999618530273,999.6429443359375,-2.940467596054077,21.306934356689453,70.99412536621094,1.175275206565857,43.93000030517578,-0.06866999715566635,-0.16676999628543854,9.780570030212402,0.6299999952316284,-0.5600000023841858,0.49000000953674316,-1.0122061967849731,0.8267475962638855,105.86207580566406,0,1,7,92,455208100,2022,5,27,6,26,30,55,2,100455278,3,3,10,14,1410137107,376320818,59583,22812,647,747,2,-6,11,7,0,134,17315268,119,,0,,2.316666603088379,166.8603515625,-161.52099609375,22.149999618530273,999.654296875,0.0,21.306934356689453,70.99412536621094,1.225000023841858,43.93000030517578,-0.06866999715566635,-0.16676999628543854,9.780570030212402,0.6299999952316284,-0.5600000023841858,0.49000000953674316,-1.0122061967849731,0.8267475962638855,105.86207580566406,0,1,7,92,455208100,2022,5,27,6,26,30,55,2,100455278,3,3,10,14,1410137107,376320818,59583,22812,647,747,2,-6,11,7,0,134,17315268,119,,0,,0.0,0.0,0.0,0,0,0,True,True,True,True,True,1,-168.783935546875,155.54295349121094,1.0,0.0,1.0,False,999.2973022460938,0.0,0.05000000074505806,True,0.0,0.0,0.0,0.0,0.0,0.0,0.0,0.0,0.0,1.0,1.0,False,False,False,False,False,False,False,False,False,False,False,False,False,False,False,False,False,False,False,False,False,False,False,False,False,False,False,False,False,False,False,False,False,False,False,False,False,False,False,False,False,False,False,False,True,False,False,False,False,True,True,1.9855324029922485,-1.9030333757400513,2.117802619934082,-0.0491236075758934,True,4,1,True,54,56,
1204994,1,1204721313,0,2.299999952316284,-1.857666015625,-6.0000152587890625,22.170000076293945,999.6436767578125,-2.9462954998016357,21.349660873413086,71.16349792480469,1.175065279006958,43.93000030517578,-0.20600999891757965,-0.19619999825954437,9.770759582519531,0.49000000953674316,-0.5600000023841858,0.3499999940395355,-0.9433497786521912,1.0061492919921875,105.87789916992188,0,1,7,92,455208100,2022,5,27,6,26,30,55,2,100455278,3,3,10,14,1410137107,376320818,59583,22812,647,747,2,-6,11,7,0,134,17315268,119,,0,,2.299999952316284,166.92626953125,-161.54296875,22.170000076293945,999.73828125,0.0,21.349660873413086,71.16349792480469,1.225000023841858,43.93000030517578,-0.20600999891757965,-0.19619999825954437,9.770759582519531,0.49000000953674316,-0.5600000023841858,0.3499999940395355,-0.9433497786521912,1.0061492919921875,105.87789916992188,0,1,7,92,455208100,2022,5,27,6,26,30,55,2,100455278,3,3,10,14,1410137107,376320818,59583,22812,647,747,2,-6,11,7,0,134,17315268,119,,0,,0.0,0.0,0.0,0,0,0,True,True,True,True,True,1,-168.783935546875,155.54295349121094,1.0,0.0,1.0,False,999.2973022460938,0.0,0.05000000074505806,True,0.0,0.0,0.0,0.0,0.0,0.0,0.0,0.0,0.0,1.0,1.0,False,False,False,False,False,False,False,False,False,False,False,False,False,False,False,False,False,False,False,False,False,False,False,False,False,False,False,False,False,False,False,False,False,False,False,False,False,False,False,False,False,False,False,False,True,False,False,False,False,True,True,1.9785540103912354,-1.9067038297653198,2.1216464042663574,-0.061572037637233734,True,4,1,True,53,56,
