SYS_TIME[ms],T_CNT[us],T_PPS[us],T_CAN_RSV[us],DP[Pa],AOA[deg],AOS[deg],T_DP_SENSOR[degC],PS[hPa],H_PS[m],TAT[degC],HUM[%],RHO[kg/m^3],T_PS_SENSOR[degC],AX[m/s^2],AY[m/s^2],AZ[m/s^2],GX[deg/s],GY[deg/s],GZ[deg/s],EX[deg],EY[deg],EZ[deg],MICROSECONDS_PPS[us],cls[-],id[-],len[-],iTOW[ms],year[y],month[month],day[d],hour[h],minute[min],sec[s],valid[-],tAcc[ns],nano[ns],fixType[-],flags[-],flags2[-],numSV[-],lon[10^7 deg],lat[10^7 deg],height[mm],hMSL[mm],hAcc[mm],vAcc[mm],velN[mm/s],velE[mm/s],velD[mm/s],gSpeed[mm/s],headMot[10^5 deg],sAcc[mm/s],headAcc[10^5 deg],pDOP[-],reserved1[-],headVeh[10^5 deg],reserved2[-],DP_raw[Pa],AOA_raw[deg],AOS_raw[deg],T_DP_SENSOR_raw[degC],PS_raw[hPa],H_PS_raw[m],TAT_raw[degC],HUM_raw[%],RHO_raw[kg/m^3],T_PS_SENSOR_raw[degC],AX_raw[m/s^2],AY_raw[m/s^2],AZ_raw[m/s^2],GX_raw[deg/s],GY_raw[deg/s],GZ_raw[deg/s],EX_raw[deg],EY_raw[deg],EZ_raw[deg],MICROSECONDS_PPS_raw[us],cls_raw[-],id_raw[-],len_raw[-],iTOW_raw[ms],year_raw[y],month_raw[month],day_raw[d],hour_raw[h],minute_raw[min],sec_raw[s],valid_raw[-],tAcc_raw[ns],nano_raw[ns],fixType_raw[-],flags_raw[-],flags2_raw[-],numSV_raw[-],lon_raw[10^7 deg],lat_raw[10^7 deg],height_raw[mm],hMSL_raw[mm],hAcc_raw[mm],vAcc_raw[mm],velN_raw[mm/s],velE_raw[mm/s],velD_raw[mm/s],gSpeed_raw[mm/s],headMot_raw[10^5 deg],sAcc_raw[mm/s],headAcc_raw[10^5 deg],pDOP_raw[-],reserved1_raw[-],headVeh_raw[10^5 deg],reserved2_raw[-],ROLL[deg],PITCH[deg],YAW[deg],H_US[-],ELEV[-],RUDD[-],AIR_DATA_EN[-],ENV_DATA_EN[-],IMU_DATA_EN[-],GPS_DATA_EN[-],LOGGING_EN[-],LOGGING_MODE[-],AOA_OFFSET[deg],AOS_OFFSET[deg],DP_GAIN[-],DP_OFFSET[Pa],LPF_DP[-],LPF_SW[-],PS_INIT_VAL[hPa],H_PS_OFFSET[m],LPF_PS[-],LPF_SW[-],AX_OFFSET[m/s^2],AY_OFFSET[m/s^2],AZ_OFFSET[m/s^2],GX_OFFSET[deg/s],GY_OFFSET[deg/s],GZ_OFFSET[deg/s],EX_OFFSET[deg],EY_OFFSET[deg],EZ_OFFSET[deg],LPF_ACC[-],LPF_GYR[-],LPF_ACC_SW[-],LPF_GYR_SW[-],DP_err[-],AOA_err[-],AOS_err[-],T_DP_SENSOR_err[-],DP_GAIN_err[-],DP_OFFSET_err[-],AOA_OFFSET_err[-],AOS_OFFSET_err[-],LPF_DP_err[-],DP_I2C_err[-],AOA_I2C_err[-],AOS_I2C_err[-],SETTING_DATA_READ_err[-],PS_err[-],T_PS_SENSOR_err[-],TAT_err[-],HUM_err[-],PS_INIT_VAL_err[-],H_PS_OFFSET_err[-],H_PS_err[-],RHO_err[-],LPF_PS_err[-],ENV_I2C_err[-],SETTING_DATA_READ_err[-],AX_err[-],AY_err[-],AZ_err[-],GX_err[-],GY_err[-],GZ_err[-],LPF_ACC_err[-],LPF_GYR_err[-],AX_OFFSET_err[-],AY_OFFSET_err[-],AZ_OFFSET_err[-],GX_OFFSET_err[-],GY_OFFSET_err[-],GZ_OFFSET_err[-],EX_OFFSET_err[-],EY_OFFSET_err[-],EZ_OFFSET_err[-],SETTING_DATA_READ_err[-],PPS_INTV_err[-],MEG_INTV_err[-],CHK_SUM_err[-],INIT_err[-],SET_MODE_err[-],SEND_err[-],RECEIVE_err[-],AIRSPEED[m/s],WINDN[m/s],WINDE[m/s],WINDD[m/s],SD_DETECT[-],LOG_NUMBER[-],LOGGING_MODE[-],LOGGING_EN[-],CPU_USED[%],MEMORY_USED[%],
1202842,1,1202777813,0,2.1666667461395264,2.4112091064453125,-3.0135345458984375,22.3700008392334,999.4451293945312,-1.399119257926941,21.96917724609375,68.57251739501953,1.1723581552505493,43.59000015258789,-0.4218299984931946,-0.1863899976015091,9.8100004196167,0.3499999940395355,-0.7699999809265137,0.5600000023841858,-1.030540108680725,3.1742374897003174,-70.58273315429688,0,1,7,92,455210900,2022,5,27,6,26,32,55,3,900032579,3,1,10,16,1410136701,376320748,39222,2452,858,1049,11,42,-9,43,0,167,16852698,113,,0,,2.1666667461395264,-172.96875,-178.70361328125,22.3700008392334,999.47265625,0.0,21.96917724609375,68.57251739501953,1.225000023841858,43.59000015258789,-0.4218299984931946,-0.1863899976015091,9.8100004196167,0.3499999940395355,-0.7699999809265137,0.5600000023841858,-1.030540108680725,3.1742374897003174,-70.58273315429688,0,1,7,92,455210900,2022,5,27,6,26,32,55,3,900032579,3,1,10,16,1410136701,376320748,39222,2452,858,1049,11,42,-9,43,0,167,16852698,113,,0,,0.0,0.0,0.0,0,0,0,True,True,True,True,True,1,175.3799591064453,175.69007873535156,1.0,0.0,1.0,False,999.27880859375,0.0,0.05000000074505806,True,0.0,0.0,0.0,0.0,0.0,0.0,0.0,0.0,0.0,1.0,1.0,False,False,False,False,False,False,False,False,False,False,False,False,False,False,False,False,False,False,False,False,False,False,False,False,False,False,False,False,False,False,False,False,False,False,False,False,False,False,False,False,False,False,False,False,True,False,False,False,False,True,True,1.9225643873214722,-1.1459811925888062,2.419283628463745,0.8661141395568848,True,4,1,True,62,56,
1202903,1,1202777813,0,2.299999952316284,2.4551544189453125,-2.9915618896484375,22.395000457763672,999.4445190429688,-1.3932275772094727,21.867704391479492,68.57251739501953,1.1728101968765259,43.59000015258789,-0.627839982509613,-0.16676999628543854,9.8100004196167,0.20999999344348907,-0.699999988079071,-0.20999999344348907,-1.1561318635940552,2.939333200454712,-70.57958984375,0,1,7,92,455211000,2022,5,27,6,26,33,55,3,33824,3,1,10,16,1410136700,376320748,39233,2463,858,1049,15,-13,-13,20,0,161,16852740,113,,0,,2.299999952316284,-172.9248046875,-178.681640625,22.395000457763672,999.460693359375,0.0,21.867704391479492,68.57251739501953,1.225000023841858,43.59000015258789,-0.627839982509613,-0.16676999628543854,9.8100004196167,0.20999999344348907,-0.699999988079071,-0.20999999344348907,-1.1561318635940552,2.939333200454712,-70.57958984375,0,1,7,92,455211000,2022,5,27,6,26,33,55,3,33824,3,1,10,16,1410136700,376320748,39233,2463,858,1049,15,-13,-13,20,0,161,16852740,113,,0,,0.0,0.0,0.0,0,0,0,True,True,True,True,True,1,175.3799591064453,175.69007873535156,1.0,0.0,1.0,False,999.27880859375,0.0,0.05000000074505806,True,0.0,0.0,0.0,0.0,0.0,0.0,0.0,0.0,0.0,1.0,1.0,False,False,False,False,False,False,False,False,False,False,False,False,False,False,False,False,False,False,False,False,False,False,False,False,False,False,False,False,False,False,False,False,False,False,False,False,False,False,False,False,False,False,False,False,True,False,False,False,False,True,True,1.9804552793502808,-1.2252388000488281,2.7499027252197266,0.4038372039794922,True,4,1,True,54,56,
1202963,1,1202777813,0,2.1666667461395264,2.4771270751953125,-2.9915618896484375,22.3700008392334,999.451171875,-1.4528361558914185,21.886396408081055,68.60761260986328,1.172730803489685,43.599998474121094,-0.34334999322891235,-0.19619999825954437,9.751139640808105,0.14000000059604645,-0.5600000023841858,0.20999999344348907,-1.1986923217773438,2.7165191173553467,-70.55947875976562,0,1,7,92,455211000,2022,5,27,6,26,33,55,3,33824,3,1,10,16,1410136700,376320748,39233,2463,858,1049,15,-13,-13,20,0,161,16852740,113,,0,,2.1666667461395264,-172.90283203125,-178.681640625,22.3700008392334,999.515625,0.0,21.886396408081055,68.60761260986328,1.225000023841858,43.599998474121094,-0.34334999322891235,-0.19619999825954437,9.751139640808105,0.14000000059604645,-0.5600000023841858,0.20999999344348907,-1.1986923217773438,2.7165191173553467,-70.55947875976562,0,1,7,92,455211000,2022,5,27,6,26,33,55,3,33824,3,1,10,16,1410136700,376320748,39233,2463,858,1049,15,-13,-13,20,0,161,16852740,113,,0,,0.0,0.0,0.0,0,0,0,True,True,True,True,True,1,175.3799591064453,175.69007873535156,1.0,0.0,1.0,False,999.27880859375,0.0,0.05000000074505806,True,0.0,0.0,0.0,0.0,0.0,0.0,0.0,0.0,0.0,1.0,1.0,False,False,False,False,False,False,False,False,False,False,False,False,False,False,False,False,False,False,False,False,False,False,False,False,False,False,False,False,False,False,False,False,False,False,False,False,False,False,False,False,False,False,False,False,True,False,False,False,False,True,True,1.922258973121643,-1.2214070558547974,2.6985418796539307,-0.02389509603381157,True,4,1,True,54,56,
1203023,1,1202777813,0,2.2333333492279053,2.4551544189453125,-2.9915618896484375,22.3700008392334,999.449462890625,-1.436733365058899,21.91309928894043,68.60303497314453,1.1726099252700806,43.599998474121094,-0.6082199811935425,-0.16676999628543854,9.83942985534668,0.49000000953674316,-0.699999988079071,0.49000000953674316,-0.972112238407135,3.069632053375244,-70.5322265625,0,1,7,92,455211100,2022,5,27,6,26,33,55,3,100035070,3,1,10,17,1410136699,376320748,39246,2476,858,1049,17,-30,-24,34,0,162,16852782,111,,0,,2.2333333492279053,-172.9248046875,-178.681640625,22.3700008392334,999.44189453125,0.0,21.91309928894043,68.60303497314453,1.225000023841858,43.599998474121094,-0.6082199811935425,-0.16676999628543854,9.83942985534668,0.49000000953674316,-0.699999988079071,0.49000000953674316,-0.972112238407135,3.069632053375244,-70.5322265625,0,1,7,92,455211100,2022,5,27,6,26,33,55,3,100035070,3,1,10,17,1410136699,376320748,39246,2476,858,1049,17,-30,-24,34,0,162,16852782,111,,0,,0.0,0.0,0.0,0,0,0,True,True,True,True,True,1,175.3799591064453,175.69007873535156,1.0,0.0,1.0,False,999.27880859375,0.0,0.05000000074505806,True,0.0,0.0,0.0,0.0,0.0,0.0,0.0,0.0,0.0,1.0,1.0,False,False,False,False,False,False,False,False,False,False,False,False,False,False,False,False,False,False,False,False,False,False,False,False,False,False,False,False,False,False,False,False,False,False,False,False,False,False,False,False,False,False,False,False,True,False,False,False,False,True,True,1.9517086744308472,-1.1272203922271729,2.5425264835357666,0.7900810837745667,True,4,1,True,53,56,
1203083,1,1202777813,0,2.383333444595337,2.4771270751953125,-2.9695892333984375,22.405000686645508,999.4448852539062,-1.393580675125122,21.942474365234375,68.61829376220703,1.1724711656570435,43.599998474121094,-0.4512600004673004,-0.20600999891757965,9.780570030212402,0.14000000059604645,-0.41999998688697815,0.0,-1.4082878828048706,2.634941339492798,-70.5321044921875,0,1,7,92,455211200,2022,5,27,6,26,33,55,3,200036315,3,1,10,17,1410136698,376320748,39232,2462,858,1049,-17,-10,-9,20,0,171,16852830,111,,0,,2.383333444595337,-172.90283203125,-178.65966796875,22.405000686645508,999.435302734375,0.0,21.942474365234375,68.61829376220703,1.225000023841858,43.599998474121094,-0.4512600004673004,-0.20600999891757965,9.780570030212402,0.14000000059604645,-0.41999998688697815,0.0,-1.4082878828048706,2.634941339492798,-70.5321044921875,0,1,7,92,455211200,2022,5,27,6,26,33,55,3,200036315,3,1,10,17,1410136698,376320748,39232,2462,858,1049,-17,-10,-9,20,0,171,16852830,111,,0,,0.0,0.0,0.0,0,0,0,True,True,True,True,True,1,175.3799591064453,175.69007873535156,1.0,0.0,1.0,False,999.27880859375,0.0,0.05000000074505806,True,0.0,0.0,0.0,0.0,0.0,0.0,0.0,0.0,0.0,1.0,1.0,False,False,False,False,False,False,False,False,False,False,False,False,False,False,False,False,False,False,False,False,False,False,False,False,False,False,False,False,False,False,False,False,False,False,False,False,False,False,False,False,False,False,False,False,True,False,False,False,False,True,True,2.016305446624756,-1.3781883716583252,2.7727744579315186,-0.34217000007629395,True,4,1,True,54,56,
1203143,1,1202777813,0,2.2166666984558105,2.4551544189453125,-2.9256439208984375,22.389999389648438,999.4517211914062,-1.4555416107177734,21.886396408081055,68.59540557861328,1.1727327108383179,43.599998474121094,-0.5297399759292603,-0.17657999694347382,9.751139640808105,0.41999998688697815,-0.8399999737739563,0.6299999952316284,-0.9931477308273315,3.1056904792785645,-70.48110961914062,0,1,7,92,455211200,2022,5,27,6,26,33,55,3,200036315,3,1,10,17,1410136698,376320748,39232,2462,858,1049,-17,-10,-9,20,0,171,16852830,111,,0,,2.2166666984558105,-172.9248046875,-178.61572265625,22.389999389648438,999.52099609375,0.0,21.886396408081055,68.59540557861328,1.225000023841858,43.599998474121094,-0.5297399759292603,-0.17657999694347382,9.751139640808105,0.41999998688697815,-0.8399999737739563,0.6299999952316284,-0.9931477308273315,3.1056904792785645,-70.48110961914062,0,1,7,92,455211200,2022,5,27,6,26,33,55,3,200036315,3,1,10,17,1410136698,376320748,39232,2462,858,1049,-17,-10,-9,20,0,171,16852830,111,,0,,0.0,0.0,0.0,0,0,0,True,True,True,True,True,1,175.3799591064453,175.69007873535156,1.0,0.0,1.0,False,999.27880859375,0.0,0.05000000074505806,True,0.0,0.0,0.0,0.0,0.0,0.0,0.0,0.0,0.0,1.0,1.0,False,False,False,False,False,False,False,False,False,False,False,False,False,False,False,False,False,False,False,False,False,False,False,False,False,False,False,False,False,False,False,False,False,False,False,False,False,False,False,False,False,False,False,False,True,False,False,False,False,True,True,1.9443107843399048,-1.1032295227050781,2.4315218925476074,0.8829055428504944,True,4,1,True,53,56,
1203203,1,1202777813,0,2.2166666984558105,2.4771270751953125,-2.9915618896484375,22.375,999.4500122070312,-1.439582347869873,21.942474365234375,68.54810333251953,1.1724858283996582,43.599998474121094,-0.5591700077056885,-0.1863899976015091,9.83942985534668,0.20999999344348907,-0.5600000023841858,0.3499999940395355,-1.1650025844573975,3.023068904876709,-70.468505859375,0,1,7,92,455211300,2022,5,27,6,26,33,55,3,300037561,3,1,10,17,1410136698,376320748,39234,2464,858,1049,-13,21,-9,24,0,159,16852874,111,,0,,2.2166666984558105,-172.90283203125,-178.681640625,22.375,999.5048828125,0.0,21.942474365234375,68.54810333251953,1.225000023841858,43.599998474121094,-0.5591700077056885,-0.1863899976015091,9.83942985534668,0.20999999344348907,-0.5600000023841858,0.3499999940395355,-1.1650025844573975,3.023068904876709,-70.468505859375,0,1,7,92,455211300,2022,5,27,6,26,33,55,3,300037561,3,1,10,17,1410136698,376320748,39234,2464,858,1049,-13,21,-9,24,0,159,16852874,111,,0,,0.0,0.0,0.0,0,0,0,True,True,True,True,True,1,175.3799591064453,175.69007873535156,1.0,0.0,1.0,False,999.27880859375,0.0,0.05000000074505806,True,0.0,0.0,0.0,0.0,0.0,0.0,0.0,0.0,0.0,1.0,1.0,False,False,False,False,False,False,False,False,False,False,False,False,False,False,False,False,False,False,False,False,False,False,False,False,False,False,False,False,False,False,False,False,False,False,False,False,False,False,False,False,False,False,False,False,True,False,False,False,False,True,True,1.9445154666900635,-1.3038617372512817,2.5691661834716797,0.503499448299408,True,4,1,True,54,56,
1203263,1,1202777813,0,2.1500000953674316,2.4112091064453125,-3.0135345458984375,22.399999618530273,999.4497680664062,-1.439986228942871,22.025253295898438,68.62592315673828,1.1721069812774658,43.61000061035156,-0.44144999980926514,-0.19619999825954437,9.74133014678955,0.20999999344348907,-0.6299999952316284,0.9100000262260437,-1.201961874961853,2.8029205799102783,-70.43426513671875,0,1,7,92,455211300,2022,5,27,6,26,33,55,3,300037561,3,1,10,17,1410136698,376320748,39234,2464,858,1049,-13,21,-9,24,0,159,16852874,111,,0,,2.1500000953674316,-172.96875,-178.70361328125,22.399999618530273,999.478271484375,0.0,22.025253295898438,68.62592315673828,1.225000023841858,43.61000061035156,-0.44144999980926514,-0.19619999825954437,9.74133014678955,0.20999999344348907,-0.6299999952316284,0.9100000262260437,-1.201961874961853,2.8029205799102783,-70.43426513671875,0,1,7,92,455211300,2022,5,27,6,26,33,55,3,300037561,3,1,10,17,1410136698,376320748,39234,2464,858,1049,-13,21,-9,24,0,159,16852874,111,,0,,0.0,0.0,0.0,0,0,0,True,True,True,True,True,1,175.3799591064453,175.69007873535156,1.0,0.0,1.0,False,999.27880859375,0.0,0.05000000074505806,True,0.0,0.0,0.0,0.0,0.0,0.0,0.0,0.0,0.0,1.0,1.0,False,False,False,False,False,False,False,False,False,False,False,False,False,False,False,False,False,False,False,False,False,False,False,False,False,False,False,False,False,False,False,False,False,False,False,False,False,False,False,False,False,False,False,False,True,False,False,False,False,True,True,1.915360927581787,-1.4524000883102417,2.6020100116729736,0.1301288604736328,True,4,1,True,54,56,
1203323,1,1202777813,0,2.299999952316284,2.4551544189453125,-2.9695892333984375,22.395000457763672,999.4503173828125,-1.441792368888855,21.841001510620117,68.62744903564453,1.1729298830032349,43.599998474121094,-0.5591700077056885,-0.19619999825954437,9.927720069885254,-0.07000000029802322,-0.6299999952316284,0.20999999344348907,-1.117617130279541,3.0139052867889404,-70.41998291015625,0,1,7,92,455211400,2022,5,27,6,26,33,55,3,400038806,3,1,10,17,1410136698,376320748,39244,2473,858,1049,-1,12,-16,12,0,129,16852908,111,,0,,2.299999952316284,-172.9248046875,-178.65966796875,22.395000457763672,999.42919921875,0.0,21.841001510620117,68.62744903564453,1.225000023841858,43.599998474121094,-0.5591700077056885,-0.19619999825954437,9.927720069885254,-0.07000000029802322,-0.6299999952316284,0.20999999344348907,-1.117617130279541,3.0139052867889404,-70.41998291015625,0,1,7,92,455211400,2022,5,27,6,26,33,55,3,400038806,3,1,10,17,1410136698,376320748,39244,2473,858,1049,-1,12,-16,12,0,129,16852908,111,,0,,0.0,0.0,0.0,0,0,0,True,True,True,True,True,1,175.3799591064453,175.69007873535156,1.0,0.0,1.0,False,999.27880859375,0.0,0.05000000074505806,True,0.0,0.0,0.0,0.0,0.0,0.0,0.0,0.0,0.0,1.0,1.0,False,False,False,False,False,False,False,False,False,False,False,False,False,False,False,False,False,False,False,False,False,False,False,False,False,False,False,False,False,False,False,False,False,False,False,False,False,False,False,False,False,False,False,False,True,False,False,False,False,True,True,1.9803543090820312,-1.3802530765533447,2.5703864097595215,0.5946210622787476,True,4,1,True,53,56,
1203383,1,1202777813,0,2.183333396911621,2.4551544189453125,-2.9915618896484375,22.40999984741211,999.4462280273438,-1.4099441766738892,21.96917724609375,68.56336212158203,1.1723604202270508,43.61000061035156,-0.39239999651908875,-0.20600999891757965,9.800189971923828,0.14000000059604645,-0.5600000023841858,0.14000000059604645,-1.1173787117004395,2.7436673641204834,-70.39590454101562,0,1,7,92,455211500,2022,5,27,6,26,33,55,3,500040052,3,1,10,17,1410136697,376320747,39248,2478,858,1049,2,-10,-15,10,0,147,16852946,111,,0,,2.183333396911621,-172.9248046875,-178.681640625,22.40999984741211,999.45654296875,0.0,21.96917724609375,68.56336212158203,1.225000023841858,43.61000061035156,-0.39239999651908875,-0.20600999891757965,9.800189971923828,0.14000000059604645,-0.5600000023841858,0.14000000059604645,-1.1173787117004395,2.7436673641204834,-70.39590454101562,0,1,7,92,455211500,2022,5,27,6,26,33,55,3,500040052,3,1,10,17,1410136697,376320747,39248,2478,858,1049,2,-10,-15,10,0,147,16852946,111,,0,,0.0,0.0,0.0,0,0,0,True,True,True,True,True,1,175.3799591064453,175.69007873535156,1.0,0.0,1.0,False,999.27880859375,0.0,0.05000000074505806,True,0.0,0.0,0.0,0.0,0.0,0.0,0.0,0.0,0.0,1.0,1.0,False,False,False,False,False,False,False,False,False,False,False,False,False,False,False,False,False,False,False,False,False,False,False,False,False,False,False,False,False,False,False,False,False,False,False,False,False,False,False,False,False,False,False,False,True,False,False,False,False,True,True,1.9299428462982178,-1.4201101064682007,2.599050283432007,0.11631645262241364,True,4,1,True,54,56,
1203444,1,1202777813,0,2.3333332538604736,2.4771270751953125,-2.9476165771484375,22.3799991607666,999.444091796875,-1.3880305290222168,21.91309928894043,68.51148223876953,1.1726140975952148,43.61000061035156,-0.5984100103378296,-0.1863899976015091,9.8100004196167,0.3499999940395355,-0.8399999737739563,0.6299999952316284,-1.1121267080307007,3.3817408084869385,-70.377197265625,0,1,7,92,455211500,2022,5,27,6,26,33,55,3,500040052,3,1,10,17,1410136697,376320747,39248,2478,858,1049,2,-10,-15,10,0,147,16852946,111,,0,,2.3333332538604736,-172.90283203125,-178.6376953125,22.3799991607666,999.450439453125,0.0,21.91309928894043,68.51148223876953,1.225000023841858,43.61000061035156,-0.5984100103378296,-0.1863899976015091,9.8100004196167,0.3499999940395355,-0.8399999737739563,0.6299999952316284,-1.1121267080307007,3.3817408084869385,-70.377197265625,0,1,7,92,455211500,2022,5,27,6,26,33,55,3,500040052,3,1,10,17,1410136697,376320747,39248,2478,858,1049,2,-10,-15,10,0,147,16852946,111,,0,,0.0,0.0,0.0,0,0,0,True,True,True,True,True,1,175.3799591064453,175.69007873535156,1.0,0.0,1.0,False,999.27880859375,0.0,0.05000000074505806,True,0.0,0.0,0.0,0.0,0.0,0.0,0.0,0.0,0.0,1.0,1.0,False,False,False,False,False,False,False,False,False,False,False,False,False,False,False,False,False,False,False,False,False,False,False,False,False,False,False,False,False,False,False,False,False,False,False,False,False,False,False,False,False,False,False,False,True,False,False,False,False,True,True,1.9949215650558472,-1.3019212484359741,2.243929862976074,1.1642858982086182,True,4,1,True,53,56,
1203504,1,1202777813,0,2.316666603088379,2.4990997314453125,-2.9476165771484375,22.395000457763672,999.4393920898438,-1.3473838567733765,21.899747848510742,68.47943878173828,1.172671914100647,43.61000061035156,-0.5395500063896179,-0.21581999957561493,9.790379524230957,-0.20999999344348907,-0.41999998688697815,0.20999999344348907,-1.2524701356887817,3.1107728481292725,-70.35610961914062,0,1,7,92,455211600,2022,5,27,6,26,33,55,3,600041297,3,1,10,17,1410136696,376320747,39243,2472,858,1049,3,-18,-4,19,0,166,16852990,111,,0,,2.316666603088379,-172.880859375,-178.6376953125,22.395000457763672,999.36474609375,0.0,21.899747848510742,68.47943878173828,1.225000023841858,43.61000061035156,-0.5395500063896179,-0.21581999957561493,9.790379524230957,-0.20999999344348907,-0.41999998688697815,0.20999999344348907,-1.2524701356887817,3.1107728481292725,-70.35610961914062,0,1,7,92,455211600,2022,5,27,6,26,33,55,3,600041297,3,1,10,17,1410136696,376320747,39243,2472,858,1049,3,-18,-4,19,0,166,16852990,111,,0,,0.0,0.0,0.0,0,0,0,True,True,True,True,True,1,175.3799591064453,175.69007873535156,1.0,0.0,1.0,False,999.27880859375,0.0,0.05000000074505806,True,0.0,0.0,0.0,0.0,0.0,0.0,0.0,0.0,0.0,1.0,1.0,False,False,False,False,False,False,False,False,False,False,False,False,False,False,False,False,False,False,False,False,False,False,False,False,False,False,False,False,False,False,False,False,False,False,False,False,False,False,False,False,False,False,False,False,True,False,False,False,False,True,True,1.9877350330352783,-1.4742727279663086,2.5329885482788086,0.6126936078071594,True,4,1,True,53,56,
1203564,1,1202777813,0,2.25,2.4771270751953125,-2.9915618896484375,22.375,999.44970703125,-1.4361742734909058,21.798274993896484,68.54810333251953,1.1731293201446533,43.61000061035156,-0.44144999980926514,-0.1863899976015091,9.7020902633667,0.49000000953674316,-0.9100000262260437,0.699999988079071,-0.9461638331413269,3.016784429550171,-70.31942749023438,0,1,7,92,455211600,2022,5,27,6,26,33,55,3,600041297,3,1,10,17,1410136696,376320747,39243,2472,858,1049,3,-18,-4,19,0,166,16852990,111,,0,,2.25,-172.90283203125,-178.681640625,22.375,999.5595703125,0.0,21.798274993896484,68.54810333251953,1.225000023841858,43.61000061035156,-0.44144999980926514,-0.1863899976015091,9.7020902633667,0.49000000953674316,-0.9100000262260437,0.699999988079071,-0.9461638331413269,3.016784429550171,-70.31942749023438,0,1,7,92,455211600,2022,5,27,6,26,33,55,3,600041297,3,1,10,17,1410136696,376320747,39243,2472,858,1049,3,-18,-4,19,0,166,16852990,111,,0,,0.0,0.0,0.0,0,0,0,True,True,True,True,True,1,175.3799591064453,175.69007873535156,1.0,0.0,1.0,False,999.27880859375,0.0,0.05000000074505806,True,0.0,0.0,0.0,0.0,0.0,0.0,0.0,0.0,0.0,1.0,1.0,False,False,False,False,False,False,False,False,False,False,False,False,False,False,False,False,False,False,False,False,False,False,False,False,False,False,False,False,False,False,False,False,False,False,False,False,False,False,False,False,False,False,False,False,True,False,False,False,False,True,True,1.9585438966751099,-1.3629590272903442,2.38923716545105,0.6926121711730957,True,4,1,True,54,56,
1203624,1,1202777813,0,2.2166666984558105,2.4112091064453125,-2.9256439208984375,22.360000610351562,999.447998046875,-1.4232820272445679,21.929121017456055,68.52674102783203,1.1725456714630127,43.61000061035156,-0.6180300116539001,-0.19619999825954437,9.819809913635254,0.14000000059604645,-0.3499999940395355,0.3499999940395355,-1.0795457363128662,3.226402521133423,-70.299560546875,0,1,7,92,455211700,2022,5,27,6,26,33,55,3,700042543,3,1,10,17,1410136695,376320747,39256,2485,858,1049,4,-13,-8,13,0,160,16853032,111,,0,,2.2166666984558105,-172.96875,-178.61572265625,22.360000610351562,999.46630859375,0.0,21.929121017456055,68.52674102783203,1.225000023841858,43.61000061035156,-0.6180300116539001,-0.19619999825954437,9.819809913635254,0.14000000059604645,-0.3499999940395355,0.3499999940395355,-1.0795457363128662,3.226402521133423,-70.299560546875,0,1,7,92,455211700,2022,5,27,6,26,33,55,3,700042543,3,1,10,17,1410136695,376320747,39256,2485,858,1049,4,-13,-8,13,0,160,16853032,111,,0,,0.0,0.0,0.0,0,0,0,True,True,True,True,True,1,175.3799591064453,175.69007873535156,1.0,0.0,1.0,False,999.27880859375,0.0,0.05000000074505806,True,0.0,0.0,0.0,0.0,0.0,0.0,0.0,0.0,0.0,1.0,1.0,False,False,False,False,False,False,False,False,False,False,False,False,False,False,False,False,False,False,False,False,False,False,False,False,False,False,False,False,False,False,False,False,False,False,False,False,False,False,False,False,False,False,False,False,True,False,False,False,False,True,True,1.9444657564163208,-1.40663480758667,2.2302961349487305,0.9961236715316772,True,4,1,True,53,56,
1203684,1,1202777813,0,2.116666555404663,2.4112091064453125,-3.0355072021484375,22.375,999.4540405273438,-1.477532982826233,21.955825805664062,68.54962921142578,1.1724311113357544,43.61000061035156,-0.44144999980926514,-0.20600999891757965,9.721710205078125,-0.07000000029802322,-0.6299999952316284,0.49000000953674316,-1.0561695098876953,2.961437702178955,-70.27499389648438,0,1,7,92,455211800,2022,5,27,6,26,33,55,3,800043789,3,1,10,17,1410136694,376320747,39269,2499,858,1049,5,-15,-14,16,0,154,16853074,111,,0,,2.116666555404663,-172.96875,-178.7255859375,22.375,999.44970703125,0.0,21.955825805664062,68.54962921142578,1.225000023841858,43.61000061035156,-0.44144999980926514,-0.20600999891757965,9.721710205078125,-0.07000000029802322,-0.6299999952316284,0.49000000953674316,-1.0561695098876953,2.961437702178955,-70.27499389648438,0,1,7,92,455211800,2022,5,27,6,26,33,55,3,800043789,3,1,10,17,1410136694,376320747,39269,2499,858,1049,5,-15,-14,16,0,154,16853074,111,,0,,0.0,0.0,0.0,0,0,0,True,True,True,True,True,1,175.3799591064453,175.69007873535156,1.0,0.0,1.0,False,999.27880859375,0.0,0.05000000074505806,True,0.0,0.0,0.0,0.0,0.0,0.0,0.0,0.0,0.0,1.0,1.0,False,False,False,False,False,False,False,False,False,False,False,False,False,False,False,False,False,False,False,False,False,False,False,False,False,False,False,False,False,False,False,False,False,False,False,False,False,False,False,False,False,False,False,False,True,False,False,False,False,True,True,1.9444657564163208,-1.40663480758667,2.2302961349487305,0.9961236715316772,True,4,1,True,53,56,
1203744,1,1202777813,0,2.1500000953674316,2.4771270751953125,-2.9915618896484375,22.399999618530273,999.4495239257812,-1.4392175674438477,21.867704391479492,68.57251739501953,1.172816514968872,43.61000061035156,-0.5493599772453308,-0.1863899976015091,9.770759582519531,0.20999999344348907,-0.5600000023841858,0.2800000011920929,-1.1040881872177124,3.1692745685577393,-70.2601318359375,0,1,7,92,455211800,2022,5,27,6,26,33,55,3,800043789,3,1,10,17,1410136694,376320747,39269,2499,858,1049,5,-15,-14,16,0,154,16853074,111,,0,,2.1500000953674316,-172.90283203125,-178.681640625,22.399999618530273,999.48779296875,0.0,21.867704391479492,68.57251739501953,1.225000023841858,43.61000061035156,-0.5493599772453308,-0.1863899976015091,9.770759582519531,0.20999999344348907,-0.5600000023841858,0.2800000011920929,-1.1040881872177124,3.1692745685577393,-70.2601318359375,0,1,7,92,455211800,2022,5,27,6,26,33,55,3,800043789,3,1,10,17,1410136694,376320747,39269,2499,858,1049,5,-15,-14,16,0,154,16853074,111,,0,,0.0,0.0,0.0,0,0,0,True,True,True,True,True,1,175.3799591064453,175.69007873535156,1.0,0.0,1.0,False,999.27880859375,0.0,0.05000000074505806,True,0.0,0.0,0.0,0.0,0.0,0.0,0.0,0.0,0.0,1.0,1.0,False,False,False,False,False,False,False,False,False,False,False,False,False,False,False,False,False,False,False,False,False,False,False,False,False,False,False,False,False,False,False,False,False,False,False,False,False,False,False,False,False,False,False,False,True,False,False,False,False,True,True,1.9147814512252808,-1.4691916704177856,2.261300563812256,0.7814884781837463,True,4,1,True,54,56,
1203804,1,1203777827,0,2.316666603088379,2.4112091064453125,-2.9476165771484375,22.389999389648438,999.4553833007812,-1.4855167865753174,21.929121017456055,68.55725860595703,1.1725505590438843,43.61000061035156,-0.5003100037574768,-0.1863899976015091,9.74133014678955,0.0,-0.5600000023841858,0.6299999952316284,-1.1011091470718384,2.9974091053009033,-70.22824096679688,0,1,7,92,455211900,2022,5,27,6,26,33,55,3,900045034,3,1,10,16,1410136693,376320746,39275,2504,858,1049,-17,-3,-15,17,0,157,16853116,113,,0,,2.316666603088379,-172.96875,-178.6376953125,22.389999389648438,999.421875,0.0,21.929121017456055,68.55725860595703,1.225000023841858,43.61000061035156,-0.5003100037574768,-0.1863899976015091,9.74133014678955,0.0,-0.5600000023841858,0.6299999952316284,-1.1011091470718384,2.9974091053009033,-70.22824096679688,0,1,7,92,455211900,2022,5,27,6,26,33,55,3,900045034,3,1,10,16,1410136693,376320746,39275,2504,858,1049,-17,-3,-15,17,0,157,16853116,113,,0,,0.0,0.0,0.0,0,0,0,True,True,True,True,True,1,175.3799591064453,175.69007873535156,1.0,0.0,1.0,False,999.27880859375,0.0,0.05000000074505806,True,0.0,0.0,0.0,0.0,0.0,0.0,0.0,0.0,0.0,1.0,1.0,False,False,False,False,False,False,False,False,False,False,False,False,False,False,False,False,False,False,False,False,False,False,False,False,False,False,False,False,False,False,False,False,False,False,False,False,False,False,False,False,False,False,False,False,True,False,False,False,False,True,True,1.9878379106521606,-1.5969288349151611,2.385667562484741,0.6409894227981567,True,4,1,True,54,56,
1203864,1,1203777827,0,2.299999952316284,2.4771270751953125,-2.9036712646484375,22.399999618530273,999.45751953125,-1.5044578313827515,21.929121017456055,68.58625030517578,1.1725497245788574,43.61000061035156,-0.47088000178337097,-0.14714999496936798,9.800189971923828,0.07000000029802322,-0.49000000953674316,0.41999998688697815,-1.1006070375442505,3.1968021392822266,-70.2000732421875,0,1,7,92,455211900,2022,5,27,6,26,33,55,3,900045034,3,1,10,16,1410136693,376320746,39275,2504,858,1049,-17,-3,-15,17,0,157,16853116,113,,0,,2.299999952316284,-172.90283203125,-178.59375,22.399999618530273,999.48974609375,0.0,21.929121017456055,68.58625030517578,1.225000023841858,43.61000061035156,-0.47088000178337097,-0.14714999496936798,9.800189971923828,0.07000000029802322,-0.49000000953674316,0.41999998688697815,-1.1006070375442505,3.1968021392822266,-70.2000732421875,0,1,7,92,455211900,2022,5,27,6,26,33,55,3,900045034,3,1,10,16,1410136693,376320746,39275,2504,858,1049,-17,-3,-15,17,0,157,16853116,113,,0,,0.0,0.0,0.0,0,0,0,True,True,True,True,True,1,175.3799591064453,175.69007873535156,1.0,0.0,1.0,False,999.27880859375,0.0,0.05000000074505806,True,0.0,0.0,0.0,0.0,0.0,0.0,0.0,0.0,0.0,1.0,1.0,False,False,False,False,False,False,False,False,False,False,False,False,False,False,False,False,False,False,False,False,False,False,False,False,False,False,False,False,False,False,False,False,False,False,False,False,False,False,False,False,False,False,False,False,True,False,False,False,False,True,True,1.980675220489502,-1.4556257724761963,2.1567959785461426,0.9626728296279907,True,4,1,True,54,56,
1203924,1,1203777827,0,2.2166666984558105,2.4551544189453125,-2.9915618896484375,22.395000457763672,999.4546508789062,-1.4798908233642578,21.886396408081055,68.55725860595703,1.1727406978607178,43.61000061035156,-0.5885999798774719,-0.2256300002336502,9.888480186462402,0.2800000011920929,-0.41999998688697815,0.3499999940395355,-1.3224856853485107,3.1239521503448486,-70.18902587890625,0,1,7,92,455212000,2022,5,27,6,26,34,55,3,46280,3,1,10,16,1410136692,376320746,39283,2513,858,1049,18,-23,-20,29,0,161,16853158,113,,0,,2.2166666984558105,-172.9248046875,-178.681640625,22.395000457763672,999.3798828125,0.0,21.886396408081055,68.55725860595703,1.225000023841858,43.61000061035156,-0.5885999798774719,-0.2256300002336502,9.888480186462402,0.2800000011920929,-0.41999998688697815,0.3499999940395355,-1.3224856853485107,3.1239521503448486,-70.18902587890625,0,1,7,92,455212000,2022,5,27,6,26,34,55,3,46280,3,1,10,16,1410136692,376320746,39283,2513,858,1049,18,-23,-20,29,0,161,16853158,113,,0,,0.0,0.0,0.0,0,0,0,True,True,True,True,True,1,175.3799591064453,175.69007873535156,1.0,0.0,1.0,False,999.27880859375,0.0,0.05000000074505806,True,0.0,0.0,0.0,0.0,0.0,0.0,0.0,0.0,0.0,1.0,1.0,False,False,False,False,False,False,False,False,False,False,False,False,False,False,False,False,False,False,False,False,False,False,False,False,False,False,False,False,False,False,False,False,False,False,False,False,False,False,False,False,False,False,False,False,True,False,False,False,False,True,True,1.94430410861969,-1.7207083702087402,2.350036382675171,0.5110349059104919,True,4,1,True,53,56,
1203984,1,1203777827,0,2.200000047683716,2.4331817626953125,-2.9915618896484375,22.375,999.466064453125,-1.5800646543502808,21.899747848510742,68.52063751220703,1.1726988554000854,43.619998931884766,-0.4218299984931946,-0.17657999694347382,9.770759582519531,0.2800000011920929,-0.6299999952316284,0.41999998688697815,-1.13035249710083,2.828152656555176,-70.14761352539062,0,1,7,92,455212100,2022,5,27,6,26,34,55,3,100047526,3,1,10,17,1410136692,376320746,39279,2509,858,1049,31,43,-11,53,0,161,16853200,111,,0,,2.200000047683716,-172.94677734375,-178.681640625,22.375,999.53076171875,0.0,21.899747848510742,68.52063751220703,1.225000023841858,43.619998931884766,-0.4218299984931946,-0.17657999694347382,9.770759582519531,0.2800000011920929,-0.6299999952316284,0.41999998688697815,-1.13035249710083,2.828152656555176,-70.14761352539062,0,1,7,92,455212100,2022,5,27,6,26,34,55,3,100047526,3,1,10,17,1410136692,376320746,39279,2509,858,1049,31,43,-11,53,0,161,16853200,111,,0,,0.0,0.0,0.0,0,0,0,True,True,True,True,True,1,175.3799591064453,175.69007873535156,1.0,0.0,1.0,False,999.27880859375,0.0,0.05000000074505806,True,0.0,0.0,0.0,0.0,0.0,0.0,0.0,0.0,0.0,1.0,1.0,False,False,False,False,False,False,False,False,False,False,False,False,False,False,False,False,False,False,False,False,False,False,False,False,False,False,False,False,False,False,False,False,False,False,False,False,False,False,False,False,False,False,False,False,True,False,False,False,False,True,True,1.9370155334472656,-1.7429860830307007,2.258052349090576,0.25712570548057556,True,4,1,True,54,56,
1204045,1,1203777827,0,2.183333396911621,2.4331817626953125,-3.0355072021484375,22.405000686645508,999.4605102539062,-1.5309897661209106,21.82765007019043,68.58472442626953,1.1730067729949951,43.619998931884766,-0.5885999798774719,-0.17657999694347382,9.790379524230957,0.20999999344348907,-0.699999988079071,0.5600000023841858,-1.0091768503189087,3.4572551250457764,-70.119140625,0,1,7,92,455212100,2022,5,27,6,26,34,55,3,100047526,3,1,10,17,1410136692,376320746,39279,2509,858,1049,31,43,-11,53,0,161,16853200,111,,0,,2.183333396911621,-172.94677734375,-178.7255859375,22.405000686645508,999.44091796875,0.0,21.82765007019043,68.58472442626953,1.225000023841858,43.619998931884766,-0.5885999798774719,-0.17657999694347382,9.790379524230957,0.20999999344348907,-0.699999988079071,0.5600000023841858,-1.0091768503189087,3.4572551250457764,-70.119140625,0,1,7,92,455212100,2022,5,27,6,26,34,55,3,100047526,3,1,10,17,1410136692,376320746,39279,2509,858,1049,31,43,-11,53,0,161,16853200,111,,0,,0.0,0.0,0.0,0,0,0,True,True,True,True,True,1,175.3799591064453,175.69007873535156,1.0,0.0,1.0,False,999.27880859375,0.0,0.05000000074505806,True,0.0,0.0,0.0,0.0,0.0,0.0,0.0,0.0,0.0,1.0,1.0,False,False,False,False,False,False,False,False,False,False,False,False,False,False,False,False,False,False,False,False,False,False,False,False,False,False,False,False,False,False,False,False,False,False,False,False,False,False,False,False,False,False,False,False,True,False,False,False,False,True,True,1.9294110536575317,-1.4635003805160522,1.763974905014038,1.2200603485107422,True,4,1,True,53,56,
1204105,1,1203777827,0,2.316666603088379,2.4771270751953125,-2.9695892333984375,22.375,999.4580078125,-1.5072319507598877,21.942474365234375,68.56793975830078,1.1724927425384521,43.619998931884766,-0.5003100037574768,-0.14714999496936798,9.800189971923828,0.14000000059604645,-0.699999988079071,0.2800000011920929,-0.8019512295722961,2.894341468811035,-70.0850830078125,0,1,7,92,455212200,2022,5,27,6,26,34,55,3,200048772,3,1,10,17,1410136690,376320745,39286,2516,859,1049,-16,-31,-11,35,0,165,16853244,111,,0,,2.316666603088379,-172.90283203125,-178.65966796875,22.375,999.37841796875,0.0,21.942474365234375,68.56793975830078,1.225000023841858,43.619998931884766,-0.5003100037574768,-0.14714999496936798,9.800189971923828,0.14000000059604645,-0.699999988079071,0.2800000011920929,-0.8019512295722961,2.894341468811035,-70.0850830078125,0,1,7,92,455212200,2022,5,27,6,26,34,55,3,200048772,3,1,10,17,1410136690,376320745,39286,2516,859,1049,-16,-31,-11,35,0,165,16853244,111,,0,,0.0,0.0,0.0,0,0,0,True,True,True,True,True,1,175.3799591064453,175.69007873535156,1.0,0.0,1.0,False,999.27880859375,0.0,0.05000000074505806,True,0.0,0.0,0.0,0.0,0.0,0.0,0.0,0.0,0.0,1.0,1.0,False,False,False,False,False,False,False,False,False,False,False,False,False,False,False,False,False,False,False,False,False,False,False,False,False,False,False,False,False,False,False,False,False,False,False,False,False,False,False,False,False,False,False,False,True,False,False,False,False,True,True,1.987886905670166,-1.5342519283294678,2.083371162414551,0.6344965100288391,True,4,1,True,54,56,
1204105,1,1203777827,0,2.2666666507720947,2.4551544189453125,-2.9915618896484375,22.350000381469727,999.4563598632812,-1.4961912631988525,21.899747848510742,68.62134552001953,1.1726754903793335,43.630001068115234,-0.4120199978351593,-0.19619999825954437,9.780570030212402,0.14000000059604645,-0.6299999952316284,0.41999998688697815,-0.9247492551803589,3.0952985286712646,-70.05532836914062,0,1,7,92,455212200,2022,5,27,6,26,34,55,3,200048772,3,1,10,17,1410136690,376320745,39286,2516,859,1049,-16,-31,-11,35,0,165,16853244,111,,0,,2.316666603088379,-172.90283203125,-178.65966796875,22.375,999.429931640625,0.0,21.899747848510742,68.62134552001953,1.225000023841858,43.630001068115234,-0.4120199978351593,-0.19619999825954437,9.780570030212402,0.14000000059604645,-0.6299999952316284,0.41999998688697815,-0.9247492551803589,3.0952985286712646,-70.05532836914062,0,1,7,92,455212200,2022,5,27,6,26,34,55,3,200048772,3,1,10,17,1410136690,376320745,39286,2516,859,1049,-16,-31,-11,35,0,165,16853244,111,,0,,0.0,0.0,0.0,0,0,0,True,True,True,True,True,1,175.3799591064453,175.69007873535156,1.0,0.0,1.0,False,999.27880859375,0.0,0.05000000074505806,True,0.0,0.0,0.0,0.0,0.0,0.0,0.0,0.0,0.0,1.0,1.0,False,False,False,False,False,False,False,False,False,False,False,False,False,False,False,False,False,False,False,False,False,False,False,False,False,False,False,False,False,False,False,False,False,False,False,False,False,False,False,False,False,False,False,False,True,False,False,False,False,True,True,1.9661647081375122,-1.5789060592651367,1.9928182363510132,0.8637121915817261,True,4,1,True,54,56,
1204225,1,1203777827,0,2.133333444595337,2.4331817626953125,-2.9256439208984375,22.350000381469727,999.45556640625,-1.4911309480667114,21.96917724609375,68.55420684814453,1.1723726987838745,43.630001068115234,-0.5984100103378296,-0.1373399943113327,9.859049797058105,0.20999999344348907,-0.49000000953674316,0.49000000953674316,-0.7787319421768188,3.102898120880127,-70.027587890625,0,1,7,92,455212300,2022,5,27,6,26,34,55,3,300050018,3,1,10,17,1410136688,376320744,39296,2526,859,1049,-46,-39,-14,61,0,164,16853288,111,,0,,2.133333444595337,-172.94677734375,-178.61572265625,22.350000381469727,999.407958984375,0.0,21.96917724609375,68.55420684814453,1.225000023841858,43.630001068115234,-0.5984100103378296,-0.1373399943113327,9.859049797058105,0.20999999344348907,-0.49000000953674316,0.49000000953674316,-0.7787319421768188,3.102898120880127,-70.027587890625,0,1,7,92,455212300,2022,5,27,6,26,34,55,3,300050018,3,1,10,17,1410136688,376320744,39296,2526,859,1049,-46,-39,-14,61,0,164,16853288,111,,0,,0.0,0.0,0.0,0,0,0,True,True,True,True,True,1,175.3799591064453,175.69007873535156,1.0,0.0,1.0,False,999.27880859375,0.0,0.05000000074505806,True,0.0,0.0,0.0,0.0,0.0,0.0,0.0,0.0,0.0,1.0,1.0,False,False,False,False,False,False,False,False,False,False,False,False,False,False,False,False,False,False,False,False,False,False,False,False,False,False,False,False,False,False,False,False,False,False,False,False,False,False,False,False,False,False,False,False,True,False,False,False,False,True,True,1.907706379890442,-1.3434052467346191,1.7291100025177002,1.0394582748413086,True,4,1,True,53,56,
1204345,1,1203777827,0,2.116666555404663,2.4331817626953125,-2.9915618896484375,22.3799991607666,999.45166015625,-1.4583790302276611,21.91309928894043,68.62287139892578,1.1726104021072388,43.630001068115234,-0.5984100103378296,-0.15695999562740326,9.790379524230957,0.2800000011920929,-0.5600000023841858,0.5600000023841858,-1.0178375244140625,3.1100080013275146,-69.98434448242188,0,1,7,92,455212400,2022,5,27,6,26,34,55,3,400051264,3,1,10,17,1410136688,376320745,39305,2535,859,1049,15,0,-15,15,0,143,16853326,111,,0,,2.116666555404663,-172.94677734375,-178.681640625,22.3799991607666,999.3779296875,0.0,21.91309928894043,68.62287139892578,1.225000023841858,43.630001068115234,-0.5984100103378296,-0.15695999562740326,9.790379524230957,0.2800000011920929,-0.5600000023841858,0.5600000023841858,-1.0178375244140625,3.1100080013275146,-69.98434448242188,0,1,7,92,455212400,2022,5,27,6,26,34,55,3,400051264,3,1,10,17,1410136688,376320745,39305,2535,859,1049,15,0,-15,15,0,143,16853326,111,,0,,0.0,0.0,0.0,0,0,0,True,True,True,True,True,1,175.3799591064453,175.69007873535156,1.0,0.0,1.0,False,999.27880859375,0.0,0.05000000074505806,True,0.0,0.0,0.0,0.0,0.0,0.0,0.0,0.0,0.0,1.0,1.0,False,False,False,False,False,False,False,False,False,False,False,False,False,False,False,False,False,False,False,False,False,False,False,False,False,False,False,False,False,False,False,False,False,False,False,False,False,False,False,False,False,False,False,False,True,False,False,False,False,True,True,1.9000470638275146,-1.6601299047470093,1.8306572437286377,0.7950413823127747,True,4,1,True,54,56,
1204405,1,1203777827,0,2.3333332538604736,2.4551544189453125,-2.9695892333984375,22.344999313354492,999.4522094726562,-1.4583790302276611,21.91309928894043,68.60303497314453,1.1726129055023193,43.630001068115234,-0.4512600004673004,-0.1863899976015091,9.692279815673828,0.07000000029802322,-0.14000000059604645,0.07000000029802322,-1.0836881399154663,2.657524824142456,-69.96469116210938,0,1,7,92,455212500,2022,5,27,6,26,34,55,3,500052510,3,1,10,16,1410136687,376320744,39321,2551,859,1049,4,0,-21,4,0,127,16853360,113,,0,,2.3333332538604736,-172.9248046875,-178.65966796875,22.344999313354492,999.4755859375,0.0,21.91309928894043,68.60303497314453,1.225000023841858,43.630001068115234,-0.4512600004673004,-0.1863899976015091,9.692279815673828,0.07000000029802322,-0.14000000059604645,0.07000000029802322,-1.0836881399154663,2.657524824142456,-69.96469116210938,0,1,7,92,455212500,2022,5,27,6,26,34,55,3,500052510,3,1,10,16,1410136687,376320744,39321,2551,859,1049,4,0,-21,4,0,127,16853360,113,,0,,0.0,0.0,0.0,0,0,0,True,True,True,True,True,1,175.3799591064453,175.69007873535156,1.0,0.0,1.0,False,999.27880859375,0.0,0.05000000074505806,True,0.0,0.0,0.0,0.0,0.0,0.0,0.0,0.0,0.0,1.0,1.0,False,False,False,False,False,False,False,False,False,False,False,False,False,False,False,False,False,False,False,False,False,False,False,False,False,False,False,False,False,False,False,False,False,False,False,False,False,False,False,False,False,False,False,False,True,False,False,False,False,True,True,1.9949226379394531,-1.8772475719451904,2.0411722660064697,0.0361315943300724,True,4,1,True,53,56,
1204465,1,1203777827,0,2.2333333492279053,2.4112091064453125,-2.9915618896484375,22.395000457763672,999.4530639648438,-1.4660714864730835,21.82765007019043,68.59540557861328,1.1729966402053833,43.630001068115234,-0.5297399759292603,-0.21581999957561493,9.790379524230957,0.41999998688697815,-0.6299999952316284,0.5600000023841858,-1.198845624923706,3.0824577808380127,-69.94451904296875,0,1,7,92,455212500,2022,5,27,6,26,34,55,3,500052510,3,1,10,16,1410136687,376320744,39321,2551,859,1049,4,0,-21,4,0,127,16853360,113,,0,,2.2333333492279053,-172.96875,-178.681640625,22.395000457763672,999.487548828125,0.0,21.82765007019043,68.59540557861328,1.225000023841858,43.630001068115234,-0.5297399759292603,-0.21581999957561493,9.790379524230957,0.41999998688697815,-0.6299999952316284,0.5600000023841858,-1.198845624923706,3.0824577808380127,-69.94451904296875,0,1,7,92,455212500,2022,5,27,6,26,34,55,3,500052510,3,1,10,16,1410136687,376320744,39321,2551,859,1049,4,0,-21,4,0,127,16853360,113,,0,,0.0,0.0,0.0,0,0,0,True,True,True,True,True,1,175.3799591064453,175.69007873535156,1.0,0.0,1.0,False,999.27880859375,0.0,0.05000000074505806,True,0.0,0.0,0.0,0.0,0.0,0.0,0.0,0.0,0.0,1.0,1.0,False,False,False,False,False,False,False,False,False,False,False,False,False,False,False,False,False,False,False,False,False,False,False,False,False,False,False,False,False,False,False,False,False,False,False,False,False,False,False,False,False,False,False,False,True,False,False,False,False,True,True,1.9513869285583496,-1.8258860111236572,1.918694257736206,0.6051288843154907,True,4,1,True,54,56,
1204525,1,1203777827,0,2.2166666984558105,2.4990997314453125,-2.9915618896484375,22.405000686645508,999.4498291015625,-1.4393739700317383,21.899747848510742,68.58930206298828,1.1726715564727783,43.630001068115234,-0.5984100103378296,-0.17657999694347382,9.760950088500977,-0.20999999344348907,-0.49000000953674316,0.14000000059604645,-1.1121431589126587,2.838878631591797,-69.921875,0,1,7,92,455212600,2022,5,27,6,26,34,55,3,600053756,3,1,10,17,1410136686,376320744,39317,2546,858,1049,-22,13,-11,26,0,164,16853404,111,,0,,2.2166666984558105,-172.880859375,-178.681640625,22.405000686645508,999.423828125,0.0,21.899747848510742,68.58930206298828,1.225000023841858,43.630001068115234,-0.5984100103378296,-0.17657999694347382,9.760950088500977,-0.20999999344348907,-0.49000000953674316,0.14000000059604645,-1.1121431589126587,2.838878631591797,-69.921875,0,1,7,92,455212600,2022,5,27,6,26,34,55,3,600053756,3,1,10,17,1410136686,376320744,39317,2546,858,1049,-22,13,-11,26,0,164,16853404,111,,0,,0.0,0.0,0.0,0,0,0,True,True,True,True,True,1,175.3799591064453,175.69007873535156,1.0,0.0,1.0,False,999.27880859375,0.0,0.05000000074505806,True,0.0,0.0,0.0,0.0,0.0,0.0,0.0,0.0,0.0,1.0,1.0,False,False,False,False,False,False,False,False,False,False,False,False,False,False,False,False,False,False,False,False,False,False,False,False,False,False,False,False,False,False,False,False,False,False,False,False,False,False,False,False,False,False,False,False,True,False,False,False,False,True,True,1.9443614482879639,-1.8140500783920288,1.8772082328796387,0.23812222480773926,True,4,1,True,53,56,
1204585,1,1203777827,0,2.2166666984558105,2.4990997314453125,-2.9476165771484375,22.3799991607666,999.455322265625,-1.4851404428482056,21.854352951049805,68.52063751220703,1.1728888750076294,43.630001068115234,-0.39239999651908875,-0.21581999957561493,9.7020902633667,0.0,-0.6299999952316284,0.2800000011920929,-0.909368097782135,2.881558418273926,-69.886962890625,0,1,7,92,455212700,2022,5,27,6,26,34,55,3,700055002,3,1,10,17,1410136685,376320744,39329,2559,858,1049,14,-7,-20,15,0,141,16853442,111,,0,,2.2166666984558105,-172.880859375,-178.6376953125,22.3799991607666,999.54345703125,0.0,21.854352951049805,68.52063751220703,1.225000023841858,43.630001068115234,-0.39239999651908875,-0.21581999957561493,9.7020902633667,0.0,-0.6299999952316284,0.2800000011920929,-0.909368097782135,2.881558418273926,-69.886962890625,0,1,7,92,455212700,2022,5,27,6,26,34,55,3,700055002,3,1,10,17,1410136685,376320744,39329,2559,858,1049,14,-7,-20,15,0,141,16853442,111,,0,,0.0,0.0,0.0,0,0,0,True,True,True,True,True,1,175.3799591064453,175.69007873535156,1.0,0.0,1.0,False,999.27880859375,0.0,0.05000000074505806,True,0.0,0.0,0.0,0.0,0.0,0.0,0.0,0.0,0.0,1.0,1.0,False,False,False,False,False,False,False,False,False,False,False,False,False,False,False,False,False,False,False,False,False,False,False,False,False,False,False,False,False,False,False,False,False,False,False,False,False,False,False,False,False,False,False,False,True,False,False,False,False,True,True,1.9441813230514526,-1.7452586889266968,1.7020237445831299,0.5346409678459167,True,4,1,True,54,56,
1204646,1,1203777827,0,2.25,2.4331817626953125,-2.9476165771484375,22.389999389648438,999.4591064453125,-1.5179871320724487,21.929121017456055,68.63507843017578,1.1725459098815918,43.630001068115234,-0.7161300182342529,-0.1373399943113327,9.8100004196167,0.2800000011920929,-0.699999988079071,0.6299999952316284,-0.9715560078620911,3.148634672164917,-69.86581420898438,0,1,7,92,455212700,2022,5,27,6,26,34,55,3,700055002,3,1,10,17,1410136685,376320744,39329,2559,858,1049,14,-7,-20,15,0,141,16853442,111,,0,,2.25,-172.94677734375,-178.6376953125,22.389999389648438,999.42578125,0.0,21.929121017456055,68.63507843017578,1.225000023841858,43.630001068115234,-0.7161300182342529,-0.1373399943113327,9.8100004196167,0.2800000011920929,-0.699999988079071,0.6299999952316284,-0.9715560078620911,3.148634672164917,-69.86581420898438,0,1,7,92,455212700,2022,5,27,6,26,34,55,3,700055002,3,1,10,17,1410136685,376320744,39329,2559,858,1049,14,-7,-20,15,0,141,16853442,111,,0,,0.0,0.0,0.0,0,0,0,True,True,True,True,True,1,175.3799591064453,175.69007873535156,1.0,0.0,1.0,False,999.27880859375,0.0,0.05000000074505806,True,0.0,0.0,0.0,0.0,0.0,0.0,0.0,0.0,0.0,1.0,1.0,False,False,False,False,False,False,False,False,False,False,False,False,False,False,False,False,False,False,False,False,False,False,False,False,False,False,False,False,False,False,False,False,False,False,False,False,False,False,False,False,False,False,False,False,True,False,False,False,False,True,True,1.959031105041504,-1.6706833839416504,1.5846304893493652,0.9724709987640381,True,4,1,True,53,56,
1204706,1,1203777827,0,2.3333332538604736,2.4112091064453125,-3.0135345458984375,22.395000457763672,999.4620361328125,-1.5422561168670654,21.91309928894043,68.61219024658203,1.1726235151290894,43.63999938964844,-0.4120199978351593,-0.20600999891757965,9.74133014678955,0.49000000953674316,-0.699999988079071,0.20999999344348907,-1.2102528810501099,2.53195858001709,-69.85031127929688,0,1,7,92,455212800,2022,5,27,6,26,34,55,3,800056248,3,1,10,17,1410136684,376320744,39313,2543,858,1049,-11,-16,-2,19,0,163,16853486,111,,0,,2.3333332538604736,-172.96875,-178.70361328125,22.395000457763672,999.458984375,0.0,21.91309928894043,68.61219024658203,1.225000023841858,43.63999938964844,-0.4120199978351593,-0.20600999891757965,9.74133014678955,0.49000000953674316,-0.699999988079071,0.20999999344348907,-1.2102528810501099,2.53195858001709,-69.85031127929688,0,1,7,92,455212800,2022,5,27,6,26,34,55,3,800056248,3,1,10,17,1410136684,376320744,39313,2543,858,1049,-11,-16,-2,19,0,163,16853486,111,,0,,0.0,0.0,0.0,0,0,0,True,True,True,True,True,1,175.3799591064453,175.69007873535156,1.0,0.0,1.0,False,999.27880859375,0.0,0.05000000074505806,True,0.0,0.0,0.0,0.0,0.0,0.0,0.0,0.0,0.0,1.0,1.0,False,False,False,False,False,False,False,False,False,False,False,False,False,False,False,False,False,False,False,False,False,False,False,False,False,False,False,False,False,False,False,False,False,False,False,False,False,False,False,False,False,False,False,False,True,False,False,False,False,True,True,1.9949135780334473,-1.941956639289856,1.8524922132492065,-0.3145149052143097,True,4,1,True,53,56,
1204766,1,1203777827,0,2.2833333015441895,2.4551544189453125,-2.9915618896484375,22.354999542236328,999.4616088867188,-1.5394110679626465,21.886396408081055,68.53589630126953,1.1727511882781982,43.630001068115234,-0.5297399759292603,-0.15695999562740326,9.84924030303955,0.20999999344348907,-0.8399999737739563,0.7699999809265137,-0.8769279718399048,3.0974512100219727,-69.801025390625,0,1,7,92,455212900,2022,5,27,6,26,34,55,3,900057495,3,1,10,17,1410136684,376320743,39331,2561,858,1049,-29,25,-14,38,0,166,16853528,111,,0,,2.2833333015441895,-172.9248046875,-178.681640625,22.354999542236328,999.520751953125,0.0,21.886396408081055,68.53589630126953,1.225000023841858,43.630001068115234,-0.5297399759292603,-0.15695999562740326,9.84924030303955,0.20999999344348907,-0.8399999737739563,0.7699999809265137,-0.8769279718399048,3.0974512100219727,-69.801025390625,0,1,7,92,455212900,2022,5,27,6,26,34,55,3,900057495,3,1,10,17,1410136684,376320743,39331,2561,858,1049,-29,25,-14,38,0,166,16853528,111,,0,,0.0,0.0,0.0,0,0,0,True,True,True,True,True,1,175.3799591064453,175.69007873535156,1.0,0.0,1.0,False,999.27880859375,0.0,0.05000000074505806,True,0.0,0.0,0.0,0.0,0.0,0.0,0.0,0.0,0.0,1.0,1.0,False,False,False,False,False,False,False,False,False,False,False,False,False,False,False,False,False,False,False,False,False,False,False,False,False,False,False,False,False,False,False,False,False,False,False,False,False,False,False,False,False,False,False,False,True,False,False,False,False,True,True,1.9733163118362427,-1.6804633140563965,1.4463757276535034,0.9126864671707153,True,4,1,True,54,56,
1204826,1,1204777842,0,2.2666666507720947,2.4771270751953125,-2.9695892333984375,22.3799991607666,999.4583129882812,-1.5121921300888062,21.854352951049805,68.49011993408203,1.1728957891464233,43.63999938964844,-0.5003100037574768,-0.19619999825954437,9.83942985534668,0.07000000029802322,-0.699999988079071,-0.07000000029802322,-1.1131844520568848,2.9815025329589844,-69.79818725585938,0,1,7,92,455212900,2022,5,27,6,26,34,55,3,900057495,3,1,10,17,1410136684,376320743,39331,2561,858,1049,-29,25,-14,38,0,166,16853528,111,,0,,2.2666666507720947,-172.90283203125,-178.65966796875,22.3799991607666,999.4443359375,0.0,21.854352951049805,68.49011993408203,1.225000023841858,43.63999938964844,-0.5003100037574768,-0.19619999825954437,9.83942985534668,0.07000000029802322,-0.699999988079071,-0.07000000029802322,-1.1131844520568848,2.9815025329589844,-69.79818725585938,0,1,7,92,455212900,2022,5,27,6,26,34,55,3,900057495,3,1,10,17,1410136684,376320743,39331,2561,858,1049,-29,25,-14,38,0,166,16853528,111,,0,,0.0,0.0,0.0,0,0,0,True,True,True,True,True,1,175.3799591064453,175.69007873535156,1.0,0.0,1.0,False,999.27880859375,0.0,0.05000000074505806,True,0.0,0.0,0.0,0.0,0.0,0.0,0.0,0.0,0.0,1.0,1.0,False,False,False,False,False,False,False,False,False,False,False,False,False,False,False,False,False,False,False,False,False,False,False,False,False,False,False,False,False,False,False,False,False,False,False,False,False,False,False,False,False,False,False,False,True,False,False,False,False,True,True,1.965980052947998,-1.8356800079345703,1.5878735780715942,0.5264818072319031,True,4,1,True,53,56,
1204886,1,1204777842,0,2.2333333492279053,2.4331817626953125,-2.9695892333984375,22.354999542236328,999.4569702148438,-1.5014394521713257,21.867704391479492,68.67322540283203,1.1728132963180542,43.630001068115234,-0.4610700011253357,-0.20600999891757965,9.760950088500977,0.3499999940395355,-0.49000000953674316,0.5600000023841858,-0.986402690410614,3.1077425479888916,-69.7607421875,0,1,7,92,455213000,2022,5,27,6,26,35,55,3,58741,3,1,10,17,1410136683,376320744,39337,2566,858,1049,26,-2,-15,26,0,155,16853572,111,,0,,2.2333333492279053,-172.94677734375,-178.65966796875,22.354999542236328,999.462890625,0.0,21.867704391479492,68.67322540283203,1.225000023841858,43.630001068115234,-0.4610700011253357,-0.20600999891757965,9.760950088500977,0.3499999940395355,-0.49000000953674316,0.5600000023841858,-0.986402690410614,3.1077425479888916,-69.7607421875,0,1,7,92,455213000,2022,5,27,6,26,35,55,3,58741,3,1,10,17,1410136683,376320744,39337,2566,858,1049,26,-2,-15,26,0,155,16853572,111,,0,,0.0,0.0,0.0,0,0,0,True,True,True,True,True,1,175.3799591064453,175.69007873535156,1.0,0.0,1.0,False,999.27880859375,0.0,0.05000000074505806,True,0.0,0.0,0.0,0.0,0.0,0.0,0.0,0.0,0.0,1.0,1.0,False,False,False,False,False,False,False,False,False,False,False,False,False,False,False,False,False,False,False,False,False,False,False,False,False,False,False,False,False,False,False,False,False,False,False,False,False,False,False,False,False,False,False,False,True,False,False,False,False,True,True,1.951539397239685,-1.7595303058624268,1.4146078824996948,0.8667889833450317,True,4,1,True,54,56,
1204946,1,1204777842,0,2.2833333015441895,2.4112091064453125,-2.9915618896484375,22.3799991607666,999.4517211914062,-1.4558840990066528,21.955825805664062,68.59998321533203,1.1724220514297485,43.63999938964844,-0.5984100103378296,-0.17657999694347382,9.868860244750977,0.0,-0.5600000023841858,0.49000000953674316,-1.113857626914978,3.2255966663360596,-69.739013671875,0,1,7,92,455213000,2022,5,27,6,26,35,55,3,58741,3,1,10,17,1410136683,376320744,39337,2566,858,1049,26,-2,-15,26,0,155,16853572,111,,0,,2.2833333015441895,-172.96875,-178.681640625,22.3799991607666,999.388427734375,0.0,21.955825805664062,68.59998321533203,1.225000023841858,43.63999938964844,-0.5984100103378296,-0.17657999694347382,9.868860244750977,0.0,-0.5600000023841858,0.49000000953674316,-1.113857626914978,3.2255966663360596,-69.739013671875,0,1,7,92,455213000,2022,5,27,6,26,35,55,3,58741,3,1,10,17,1410136683,376320744,39337,2566,858,1049,26,-2,-15,26,0,155,16853572,111,,0,,0.0,0.0,0.0,0,0,0,True,True,True,True,True,1,175.3799591064453,175.69007873535156,1.0,0.0,1.0,False,999.27880859375,0.0,0.05000000074505806,True,0.0,0.0,0.0,0.0,0.0,0.0,0.0,0.0,0.0,1.0,1.0,False,False,False,False,False,False,False,False,False,False,False,False,False,False,False,False,False,False,False,False,False,False,False,False,False,False,False,False,False,False,False,False,False,False,False,False,False,False,False,False,False,False,False,False,True,False,False,False,False,True,True,1.9735933542251587,-1.7750004529953003,1.414434790611267,0.9058507680892944,True,4,1,True,54,56,
1205006,1,1204777842,0,2.25,2.4112091064453125,-2.9915618896484375,22.395000457763672,999.452880859375,-1.4637242555618286,21.899747848510742,68.50843048095703,1.1726845502853394,43.650001525878906,-0.4218299984931946,-0.19619999825954437,9.751139640808105,0.2800000011920929,-0.3499999940395355,0.2800000011920929,-1.0579723119735718,2.7970380783081055,-69.71868896484375,0,1,7,92,455213100,2022,5,27,6,26,35,55,3,100059987,3,1,10,17,1410136681,376320744,39346,2576,858,1049,7,-24,-19,25,0,159,16853614,111,,0,,2.25,-172.96875,-178.681640625,22.395000457763672,999.465576171875,0.0,21.899747848510742,68.50843048095703,1.225000023841858,43.650001525878906,-0.4218299984931946,-0.19619999825954437,9.751139640808105,0.2800000011920929,-0.3499999940395355,0.2800000011920929,-1.0579723119735718,2.7970380783081055,-69.71868896484375,0,1,7,92,455213100,2022,5,27,6,26,35,55,3,100059987,3,1,10,17,1410136681,376320744,39346,2576,858,1049,7,-24,-19,25,0,159,16853614,111,,0,,0.0,0.0,0.0,0,0,0,True,True,True,True,True,1,175.3799591064453,175.69007873535156,1.0,0.0,1.0,False,999.27880859375,0.0,0.05000000074505806,True,0.0,0.0,0.0,0.0,0.0,0.0,0.0,0.0,0.0,1.0,1.0,False,False,False,False,False,False,False,False,False,False,False,False,False,False,False,False,False,False,False,False,False,False,False,False,False,False,False,False,False,False,False,False,False,False,False,False,False,False,False,False,False,False,False,False,True,False,False,False,False,True,True,1.9589152336120605,-1.9326136112213135,1.5039699077606201,0.30727434158325195,True,4,1,True,53,56,
