SYS_TIME[ms],T_CNT[us],T_PPS[us],T_CAN_RSV[us],DP[Pa],AOA[deg],AOS[deg],T_DP_SENSOR[degC],PS[hPa],H_PS[m],TAT[degC],HUM[%],RHO[kg/m^3],T_PS_SENSOR[degC],AX[m/s^2],AY[m/s^2],AZ[m/s^2],GX[deg/s],GY[deg/s],GZ[deg/s],EX[deg],EY[deg],EZ[deg],MICROSECONDS_PPS[us],cls[-],id[-],len[-],iTOW[ms],year[y],month[month],day[d],hour[h],minute[min],sec[s],valid[-],tAcc[ns],nano[ns],fixType[-],flags[-],flags2[-],numSV[-],lon[10^7 deg],lat[10^7 deg],height[mm],hMSL[mm],hAcc[mm],vAcc[mm],velN[mm/s],velE[mm/s],velD[mm/s],gSpeed[mm/s],headMot[10^5 deg],sAcc[mm/s],headAcc[10^5 deg],pDOP[-],reserved1[-],headVeh[10^5 deg],reserved2[-],DP_raw[Pa],AOA_raw[deg],AOS_raw[deg],T_DP_SENSOR_raw[degC],PS_raw[hPa],H_PS_raw[m],TAT_raw[degC],HUM_raw[%],RHO_raw[kg/m^3],T_PS_SENSOR_raw[degC],AX_raw[m/s^2],AY_raw[m/s^2],AZ_raw[m/s^2],GX_raw[deg/s],GY_raw[deg/s],GZ_raw[deg/s],EX_raw[deg],EY_raw[deg],EZ_raw[deg],MICROSECONDS_PPS_raw[us],cls_raw[-],id_raw[-],len_raw[-],iTOW_raw[ms],year_raw[y],month_raw[month],day_raw[d],hour_raw[h],minute_raw[min],sec_raw[s],valid_raw[-],tAcc_raw[ns],nano_raw[ns],fixType_raw[-],flags_raw[-],flags2_raw[-],numSV_raw[-],lon_raw[10^7 deg],lat_raw[10^7 deg],height_raw[mm],hMSL_raw[mm],hAcc_raw[mm],vAcc_raw[mm],velN_raw[mm/s],velE_raw[mm/s],velD_raw[mm/s],gSpeed_raw[mm/s],headMot_raw[10^5 deg],sAcc_raw[mm/s],headAcc_raw[10^5 deg],pDOP_raw[-],reserved1_raw[-],headVeh_raw[10^5 deg],reserved2_raw[-],ROLL[deg],PITCH[deg],YAW[deg],H_US[-],ELEV[-],RUDD[-],AIR_DATA_EN[-],ENV_DATA_EN[-],IMU_DATA_EN[-],GPS_DATA_EN[-],LOGGING_EN[-],LOGGING_MODE[-],AOA_OFFSET[deg],AOS_OFFSET[deg],DP_GAIN[-],DP_OFFSET[Pa],LPF_DP[-],LPF_SW[-],PS_INIT_VAL[hPa],H_PS_OFFSET[m],LPF_PS[-],LPF_SW[-],AX_OFFSET[m/s^2],AY_OFFSET[m/s^2],AZ_OFFSET[m/s^2],GX_OFFSET[deg/s],GY_OFFSET[deg/s],GZ_OFFSET[deg/s],EX_OFFSET[deg],EY_OFFSET[deg],EZ_OFFSET[deg],LPF_ACC[-],LPF_GYR[-],LPF_ACC_SW[-],LPF_GYR_SW[-],DP_err[-],AOA_err[-],AOS_err[-],T_DP_SENSOR_err[-],DP_GAIN_err[-],DP_OFFSET_err[-],AOA_OFFSET_err[-],AOS_OFFSET_err[-],LPF_DP_err[-],DP_I2C_err[-],AOA_I2C_err[-],AOS_I2C_err[-],SETTING_DATA_READ_err[-],PS_err[-],T_PS_SENSOR_err[-],TAT_err[-],HUM_err[-],PS_INIT_VAL_err[-],H_PS_OFFSET_err[-],H_PS_err[-],RHO_err[-],LPF_PS_err[-],ENV_I2C_err[-],SETTING_DATA_READ_err[-],AX_err[-],AY_err[-],AZ_err[-],GX_err[-],GY_err[-],GZ_err[-],LPF_ACC_err[-],LPF_GYR_err[-],AX_OFFSET_err[-],AY_OFFSET_err[-],AZ_OFFSET_err[-],GX_OFFSET_err[-],GY_OFFSET_err[-],GZ_OFFSET_err[-],EX_OFFSET_err[-],EY_OFFSET_err[-],EZ_OFFSET_err[-],SETTING_DATA_READ_err[-],PPS_INTV_err[-],MEG_INTV_err[-],CHK_SUM_err[-],INIT_err[-],SET_MODE_err[-],SEND_err[-],RECEIVE_err[-],AIRSPEED[m/s],WINDN[m/s],WINDE[m/s],WINDD[m/s],SD_DETECT[-],LOG_NUMBER[-],LOGGING_MODE[-],LOGGING_EN[-],CPU_USED[%],MEMORY_USED[%],
902838,1,902279104,0,2.1666667461395264,1.064697265625,-3.9785308837890625,22.290000915527344,999.3837890625,0.5133456587791443,21.48851776123047,70.78660583496094,1.1741784811019897,43.869998931884766,-0.39239999651908875,-0.16676999628543854,9.859049797058105,0.2800000011920929,-0.6299999952316284,0.20999999344348907,-1.0255053043365479,2.37998104095459,14.919845581054688,0,1,7,92,457099400,2022,5,27,6,58,1,55,3,399794313,3,1,10,18,1410137055,376321502,31793,-4977,918,983,21,19,-2,28,27867106,186,4748497,102,,0,,2.1666667461395264,169.8486328125,-159.521484375,22.290000915527344,999.3330078125,0.0,21.48851776123047,70.78660583496094,1.225000023841858,43.869998931884766,-0.39239999651908875,-0.16676999628543854,9.859049797058105,0.2800000011920929,-0.6299999952316284,0.20999999344348907,-1.0255053043365479,2.37998104095459,14.919845581054688,0,1,7,92,457099400,2022,5,27,6,58,1,55,3,399794313,3,1,10,18,1410137055,376321502,31793,-4977,918,983,21,19,-2,28,27867106,186,4748497,102,,0,,0.0,0.0,0.0,0,0,0,True,True,True,True,True,1,-168.783935546875,155.54295349121094,1.0,0.0,1.0,False,999.4389038085938,0.0,0.05000000074505806,True,0.0,0.0,0.0,0.0,0.0,0.0,0.0,0.0,0.0,1.0,1.0,False,False,False,False,False,False,False,False,False,False,False,False,False,False,False,False,False,False,False,False,False,False,False,False,False,False,False,False,False,False,False,False,False,False,False,False,False,False,False,False,False,False,False,False,True,False,False,False,False,True,True,1.92107355594635,0.6603105068206787,-0.7030722498893738,1.2827516794204712,True,8,1,True,87,56,
902900,1,902279104,0,2.0,1.086669921875,-4.0444488525390625,22.260000228881836,999.3796997070312,0.5458465814590454,21.53124237060547,70.75608825683594,1.1739860773086548,43.869998931884766,-0.5003100037574768,-0.20600999891757965,9.73151969909668,0.14000000059604645,-0.6299999952316284,0.2800000011920929,-1.225772500038147,2.8981528282165527,14.928390502929688,0,1,7,92,457099500,2022,5,27,6,58,1,55,3,499794298,3,1,10,18,1410137055,376321503,31789,-4981,918,983,8,-9,-4,12,27867106,172,4748660,102,,0,,2.0,169.87060546875,-159.58740234375,22.260000228881836,999.391845703125,0.0,21.53124237060547,70.75608825683594,1.225000023841858,43.869998931884766,-0.5003100037574768,-0.20600999891757965,9.73151969909668,0.14000000059604645,-0.6299999952316284,0.2800000011920929,-1.225772500038147,2.8981528282165527,14.928390502929688,0,1,7,92,457099500,2022,5,27,6,58,1,55,3,499794298,3,1,10,18,1410137055,376321503,31789,-4981,918,983,8,-9,-4,12,27867106,172,4748660,102,,0,,0.0,0.0,0.0,0,0,0,True,True,True,True,True,1,-168.783935546875,155.54295349121094,1.0,0.0,1.0,False,999.4389038085938,0.0,0.05000000074505806,True,0.0,0.0,0.0,0.0,0.0,0.0,0.0,0.0,0.0,1.0,1.0,False,False,False,False,False,False,False,False,False,False,False,False,False,False,False,False,False,False,False,False,False,False,False,False,False,False,False,False,False,False,False,False,False,False,False,False,False,False,False,False,False,False,False,False,True,False,False,False,False,True,True,1.8458590507507324,0.30123937129974365,-0.3006744384765625,1.0804462432861328,True,8,1,True,61,56,
902960,1,902279104,0,2.316666603088379,0.976806640625,-4.0005035400390625,22.299999237060547,999.3829956054688,0.5242051482200623,21.51789093017578,70.78355407714844,1.1740459203720093,43.869998931884766,-0.5297399759292603,-0.1863899976015091,9.682470321655273,0.20999999344348907,-0.2800000011920929,0.07000000029802322,-1.0262901782989502,2.6942062377929688,14.94757080078125,0,1,7,92,457099500,2022,5,27,6,58,1,55,3,499794298,3,1,10,18,1410137055,376321503,31789,-4981,918,983,8,-9,-4,12,27867106,172,4748660,102,,0,,2.316666603088379,169.7607421875,-159.54345703125,22.299999237060547,999.440673828125,0.0,21.51789093017578,70.78355407714844,1.225000023841858,43.869998931884766,-0.5297399759292603,-0.1863899976015091,9.682470321655273,0.20999999344348907,-0.2800000011920929,0.07000000029802322,-1.0262901782989502,2.6942062377929688,14.94757080078125,0,1,7,92,457099500,2022,5,27,6,58,1,55,3,499794298,3,1,10,18,1410137055,376321503,31789,-4981,918,983,8,-9,-4,12,27867106,172,4748660,102,,0,,0.0,0.0,0.0,0,0,0,True,True,True,True,True,1,-168.783935546875,155.54295349121094,1.0,0.0,1.0,False,999.4389038085938,0.0,0.05000000074505806,True,0.0,0.0,0.0,0.0,0.0,0.0,0.0,0.0,0.0,1.0,1.0,False,False,False,False,False,False,False,False,False,False,False,False,False,False,False,False,False,False,False,False,False,False,False,False,False,False,False,False,False,False,False,False,False,False,False,False,False,False,False,False,False,False,False,False,True,False,False,False,False,True,True,1.9865716695785522,0.2513572871685028,-0.2385568618774414,1.469664454460144,True,8,1,True,61,56,
903020,1,902279104,0,2.6666667461395264,1.086669921875,-4.0664215087890625,22.280000686645508,999.375,0.5999777913093567,21.5739688873291,70.77745056152344,1.1737850904464722,43.869998931884766,-0.39239999651908875,-0.12752999365329742,9.711899757385254,0.49000000953674316,-0.6299999952316284,0.3499999940395355,-0.79786616563797,2.4920804500579834,14.976364135742188,0,1,7,92,457099600,2022,5,27,6,58,1,55,3,599794284,3,1,10,18,1410137056,376321502,31781,-4990,918,984,-38,21,-8,44,27867106,172,4748824,102,,0,,2.6666667461395264,169.87060546875,-159.609375,22.280000686645508,999.396728515625,0.0,21.5739688873291,70.77745056152344,1.225000023841858,43.869998931884766,-0.39239999651908875,-0.12752999365329742,9.711899757385254,0.49000000953674316,-0.6299999952316284,0.3499999940395355,-0.79786616563797,2.4920804500579834,14.976364135742188,0,1,7,92,457099600,2022,5,27,6,58,1,55,3,599794284,3,1,10,18,1410137056,376321502,31781,-4990,918,984,-38,21,-8,44,27867106,172,4748824,102,,0,,0.0,0.0,0.0,0,0,0,True,True,True,True,True,1,-168.783935546875,155.54295349121094,1.0,0.0,1.0,False,999.4389038085938,0.0,0.05000000074505806,True,0.0,0.0,0.0,0.0,0.0,0.0,0.0,0.0,0.0,1.0,1.0,False,False,False,False,False,False,False,False,False,False,False,False,False,False,False,False,False,False,False,False,False,False,False,False,False,False,False,False,False,False,False,False,False,False,False,False,False,False,False,False,False,False,False,False,True,False,False,False,False,True,True,2.131596803665161,0.4697839915752411,-0.38433173298835754,1.4523704051971436,True,8,1,True,61,56,
903080,1,902279104,0,2.7166666984558105,1.020751953125,-4.1323394775390625,22.30500030517578,999.3826293945312,0.5350620150566101,21.544593811035156,70.75914001464844,1.173927664756775,43.869998931884766,-0.48069000244140625,-0.1373399943113327,9.74133014678955,0.20999999344348907,-0.49000000953674316,0.41999998688697815,-0.7144111394882202,2.8862979412078857,15.001968383789062,0,1,7,92,457099700,2022,5,27,6,58,1,55,3,699794269,3,1,10,18,1410137057,376321504,31755,-5015,919,984,46,-29,12,54,27867106,169,4748984,102,,0,,2.7166666984558105,169.8046875,-159.67529296875,22.30500030517578,999.3837890625,0.0,21.544593811035156,70.75914001464844,1.225000023841858,43.869998931884766,-0.48069000244140625,-0.1373399943113327,9.74133014678955,0.20999999344348907,-0.49000000953674316,0.41999998688697815,-0.7144111394882202,2.8862979412078857,15.001968383789062,0,1,7,92,457099700,2022,5,27,6,58,1,55,3,699794269,3,1,10,18,1410137057,376321504,31755,-5015,919,984,46,-29,12,54,27867106,169,4748984,102,,0,,0.0,0.0,0.0,0,0,0,True,True,True,True,True,1,-168.783935546875,155.54295349121094,1.0,0.0,1.0,False,999.4389038085938,0.0,0.05000000074505806,True,0.0,0.0,0.0,0.0,0.0,0.0,0.0,0.0,0.0,1.0,1.0,False,False,False,False,False,False,False,False,False,False,False,False,False,False,False,False,False,False,False,False,False,False,False,False,False,False,False,False,False,False,False,False,False,False,False,False,False,False,False,False,False,False,False,False,True,False,False,False,False,True,True,2.1513571739196777,-0.26923298835754395,0.30401983857154846,1.4747172594070435,True,8,1,True,61,56,
903140,1,902279104,0,2.299999952316284,1.042724609375,-4.0883941650390625,22.30500030517578,999.392578125,0.4376946985721588,21.48851776123047,70.84764099121094,1.174181580543518,43.869998931884766,-0.4512600004673004,-0.17657999694347382,9.721710205078125,0.41999998688697815,-0.14000000059604645,0.20999999344348907,-0.7310383915901184,2.6877148151397705,15.021286010742188,0,1,7,92,457099700,2022,5,27,6,58,1,55,3,699794269,3,1,10,18,1410137057,376321504,31755,-5015,919,984,46,-29,12,54,27867106,169,4748984,102,,0,,2.299999952316284,169.82666015625,-159.63134765625,22.30500030517578,999.46435546875,0.0,21.48851776123047,70.84764099121094,1.225000023841858,43.869998931884766,-0.4512600004673004,-0.17657999694347382,9.721710205078125,0.41999998688697815,-0.14000000059604645,0.20999999344348907,-0.7310383915901184,2.6877148151397705,15.021286010742188,0,1,7,92,457099700,2022,5,27,6,58,1,55,3,699794269,3,1,10,18,1410137057,376321504,31755,-5015,919,984,46,-29,12,54,27867106,169,4748984,102,,0,,0.0,0.0,0.0,0,0,0,True,True,True,True,True,1,-168.783935546875,155.54295349121094,1.0,0.0,1.0,False,999.4389038085938,0.0,0.05000000074505806,True,0.0,0.0,0.0,0.0,0.0,0.0,0.0,0.0,0.0,1.0,1.0,False,False,False,False,False,False,False,False,False,False,False,False,False,False,False,False,False,False,False,False,False,False,False,False,False,False,False,False,False,False,False,False,False,False,False,False,False,False,False,False,False,False,False,False,True,False,False,False,False,True,True,1.97929847240448,0.025195244699716568,0.047268763184547424,1.397539734840393,True,8,1,True,61,56,
903200,1,902279104,0,2.299999952316284,1.130615234375,-4.0883941650390625,22.299999237060547,999.392578125,0.4376946985721588,21.48851776123047,70.84764099121094,1.174181580543518,43.869998931884766,-0.4512600004673004,-0.17657999694347382,9.721710205078125,0.41999998688697815,-0.14000000059604645,0.20999999344348907,-0.7310383915901184,2.6877148151397705,15.021286010742188,0,1,7,92,457099800,2022,5,27,6,58,1,55,3,799794255,3,1,10,18,1410137057,376321503,31755,-5015,919,984,-10,-22,5,24,27867106,170,4749145,102,,0,,2.299999952316284,169.91455078125,-159.63134765625,22.299999237060547,999.274169921875,0.0,21.51789093017578,70.84306335449219,1.225000023841858,43.869998931884766,-0.4218299984931946,-0.14714999496936798,9.7020902633667,0.49000000953674316,-0.6299999952316284,0.6299999952316284,-0.9577327370643616,2.4323647022247314,15.028121948242188,0,1,7,92,457099800,2022,5,27,6,58,1,55,3,799794255,3,1,10,18,1410137057,376321503,31755,-5015,919,984,-10,-22,5,24,27867106,170,4749145,102,,0,,0.0,0.0,0.0,0,0,0,True,True,True,True,True,1,-168.783935546875,155.54295349121094,1.0,0.0,1.0,False,999.4389038085938,0.0,0.05000000074505806,True,0.0,0.0,0.0,0.0,0.0,0.0,0.0,0.0,0.0,1.0,1.0,False,False,False,False,False,False,False,False,False,False,False,False,False,False,False,False,False,False,False,False,False,False,False,False,False,False,False,False,False,False,False,False,False,False,False,False,False,False,False,False,False,False,False,False,True,False,False,False,False,True,True,1.979417085647583,0.5979876518249512,-0.45028406381607056,1.1976234912872314,True,8,1,True,61,56,
903260,1,902279104,0,2.183333396911621,1.042724609375,-4.0883941650390625,22.309999465942383,999.3870239257812,0.4863274395465851,21.48851776123047,70.79576110839844,1.1741812229156494,43.869998931884766,-0.47088000178337097,-0.17657999694347382,9.760950088500977,0.41999998688697815,-0.49000000953674316,0.20999999344348907,-0.9989361763000488,2.752000331878662,15.051864624023438,0,1,7,92,457099800,2022,5,27,6,58,1,55,3,799794255,3,1,10,18,1410137057,376321503,31755,-5015,919,984,-10,-22,5,24,27867106,170,4749145,102,,0,,2.183333396911621,169.82666015625,-159.63134765625,22.309999465942383,999.4150390625,0.0,21.48851776123047,70.79576110839844,1.225000023841858,43.869998931884766,-0.47088000178337097,-0.17657999694347382,9.760950088500977,0.41999998688697815,-0.49000000953674316,0.20999999344348907,-0.9989361763000488,2.752000331878662,15.051864624023438,0,1,7,92,457099800,2022,5,27,6,58,1,55,3,799794255,3,1,10,18,1410137057,376321503,31755,-5015,919,984,-10,-22,5,24,27867106,170,4749145,102,,0,,0.0,0.0,0.0,0,0,0,True,True,True,True,True,1,-168.783935546875,155.54295349121094,1.0,0.0,1.0,False,999.4389038085938,0.0,0.05000000074505806,True,0.0,0.0,0.0,0.0,0.0,0.0,0.0,0.0,0.0,1.0,1.0,False,False,False,False,False,False,False,False,False,False,False,False,False,False,False,False,False,False,False,False,False,False,False,False,False,False,False,False,False,False,False,False,False,False,False,False,False,False,False,False,False,False,False,False,True,False,False,False,False,True,True,1.9284459352493286,0.19085060060024261,-0.09439195692539215,1.3113075494766235,True,8,1,True,61,56,
903320,1,903279124,0,2.183333396911621,1.020751953125,-4.1323394775390625,22.325000762939453,999.386474609375,0.49168652296066284,21.461814880371094,70.85069274902344,1.1742939949035645,43.880001068115234,-0.43163999915122986,-0.21581999957561493,9.819809913635254,0.3499999940395355,-0.20999999344348907,0.2800000011920929,-1.1063202619552612,2.5979163646698,15.06024169921875,0,1,7,92,457099900,2022,5,27,6,58,1,55,3,899794240,3,1,10,18,1410137058,376321504,31766,-5004,919,985,39,31,-15,50,27867106,174,4749311,102,,0,,2.183333396911621,169.8046875,-159.67529296875,22.325000762939453,999.440185546875,0.0,21.461814880371094,70.85069274902344,1.225000023841858,43.880001068115234,-0.43163999915122986,-0.21581999957561493,9.819809913635254,0.3499999940395355,-0.20999999344348907,0.2800000011920929,-1.1063202619552612,2.5979163646698,15.06024169921875,0,1,7,92,457099900,2022,5,27,6,58,1,55,3,899794240,3,1,10,18,1410137058,376321504,31766,-5004,919,985,39,31,-15,50,27867106,174,4749311,102,,0,,0.0,0.0,0.0,0,0,0,True,True,True,True,True,1,-168.783935546875,155.54295349121094,1.0,0.0,1.0,False,999.4389038085938,0.0,0.05000000074505806,True,0.0,0.0,0.0,0.0,0.0,0.0,0.0,0.0,0.0,1.0,1.0,False,False,False,False,False,False,False,False,False,False,False,False,False,False,False,False,False,False,False,False,False,False,False,False,False,False,False,False,False,False,False,False,False,False,False,False,False,False,False,False,False,False,False,False,True,False,False,False,False,True,True,1.9283533096313477,0.31955862045288086,-0.2918160855770111,1.2912908792495728,True,8,1,True,61,56,
903381,1,903279124,0,2.3333332538604736,0.976806640625,-4.1982574462890625,22.270000457763672,999.39306640625,0.4377185106277466,21.504539489746094,70.7316665649414,1.1741236448287964,43.880001068115234,-0.4610700011253357,-0.19619999825954437,9.800189971923828,0.699999988079071,-0.49000000953674316,0.20999999344348907,-0.9559361338615417,2.8015894889831543,15.081253051757812,0,1,7,92,457100000,2022,5,27,6,58,2,55,3,-205773,3,1,10,18,1410137059,376321504,31743,-5027,919,985,-2,-18,-3,18,27867106,175,4749476,102,,0,,2.3333332538604736,169.7607421875,-159.7412109375,22.270000457763672,999.52001953125,0.0,21.504539489746094,70.7316665649414,1.225000023841858,43.880001068115234,-0.4610700011253357,-0.19619999825954437,9.800189971923828,0.699999988079071,-0.49000000953674316,0.20999999344348907,-0.9559361338615417,2.8015894889831543,15.081253051757812,0,1,7,92,457100000,2022,5,27,6,58,2,55,3,-205773,3,1,10,18,1410137059,376321504,31743,-5027,919,985,-2,-18,-3,18,27867106,175,4749476,102,,0,,0.0,0.0,0.0,0,0,0,True,True,True,True,True,1,-168.783935546875,155.54295349121094,1.0,0.0,1.0,False,999.4389038085938,0.0,0.05000000074505806,True,0.0,0.0,0.0,0.0,0.0,0.0,0.0,0.0,0.0,1.0,1.0,False,False,False,False,False,False,False,False,False,False,False,False,False,False,False,False,False,False,False,False,False,False,False,False,False,False,False,False,False,False,False,False,False,False,False,False,False,False,False,False,False,False,False,False,True,False,False,False,False,True,True,1.9936387538909912,-0.01547316089272499,0.13918429613113403,1.3760169744491577,True,8,1,True,61,56,
903441,1,903279124,0,2.433333396911621,0.998779296875,-4.1103668212890625,22.274999618530273,999.3951416015625,0.4214455783367157,21.461814880371094,70.80033874511719,1.1743093729019165,43.880001068115234,-0.38258999586105347,-0.20600999891757965,9.721710205078125,0.41999998688697815,-0.3499999940395355,0.14000000059604645,-1.1783071756362915,2.3493993282318115,15.08123779296875,0,1,7,92,457100000,2022,5,27,6,58,2,55,3,-205773,3,1,10,18,1410137059,376321504,31743,-5027,919,985,-2,-18,-3,18,27867106,175,4749476,102,,0,,2.433333396911621,169.78271484375,-159.6533203125,22.274999618530273,999.340576171875,0.0,21.461814880371094,70.80033874511719,1.225000023841858,43.880001068115234,-0.38258999586105347,-0.20600999891757965,9.721710205078125,0.41999998688697815,-0.3499999940395355,0.14000000059604645,-1.1783071756362915,2.3493993282318115,15.08123779296875,0,1,7,92,457100000,2022,5,27,6,58,2,55,3,-205773,3,1,10,18,1410137059,376321504,31743,-5027,919,985,-2,-18,-3,18,27867106,175,4749476,102,,0,,0.0,0.0,0.0,0,0,0,True,True,True,True,True,1,-168.783935546875,155.54295349121094,1.0,0.0,1.0,False,999.4389038085938,0.0,0.05000000074505806,True,0.0,0.0,0.0,0.0,0.0,0.0,0.0,0.0,0.0,1.0,1.0,False,False,False,False,False,False,False,False,False,False,False,False,False,False,False,False,False,False,False,False,False,False,False,False,False,False,False,False,False,False,False,False,False,False,False,False,False,False,False,False,False,False,False,False,True,False,False,False,False,True,True,2.035750389099121,0.6662154793739319,-0.47404423356056213,1.2970221042633057,True,8,1,True,61,56,
903501,1,903279124,0,2.316666603088379,0.954833984375,-4.1323394775390625,22.290000915527344,999.3954467773438,0.4161027669906616,21.504539489746094,70.7499771118164,1.1741242408752441,43.880001068115234,-0.5199300050735474,-0.14714999496936798,9.662850379943848,0.9800000190734863,-0.6299999952316284,0.07000000029802322,-0.8819988369941711,2.9612462520599365,15.099746704101562,0,1,7,92,457100100,2022,5,27,6,58,2,55,3,99794211,3,1,10,17,1410137059,376321504,31731,-5040,919,985,-26,-18,4,31,27867106,185,4749651,104,,0,,2.316666603088379,169.73876953125,-159.67529296875,22.290000915527344,999.419677734375,0.0,21.504539489746094,70.7499771118164,1.225000023841858,43.880001068115234,-0.5199300050735474,-0.14714999496936798,9.662850379943848,0.9800000190734863,-0.6299999952316284,0.07000000029802322,-0.8819988369941711,2.9612462520599365,15.099746704101562,0,1,7,92,457100100,2022,5,27,6,58,2,55,3,99794211,3,1,10,17,1410137059,376321504,31731,-5040,919,985,-26,-18,4,31,27867106,185,4749651,104,,0,,0.0,0.0,0.0,0,0,0,True,True,True,True,True,1,-168.783935546875,155.54295349121094,1.0,0.0,1.0,False,999.4389038085938,0.0,0.05000000074505806,True,0.0,0.0,0.0,0.0,0.0,0.0,0.0,0.0,0.0,1.0,1.0,False,False,False,False,False,False,False,False,False,False,False,False,False,False,False,False,False,False,False,False,False,False,False,False,False,False,False,False,False,False,False,False,False,False,False,False,False,False,False,False,False,False,False,False,True,False,False,False,False,True,True,1.986505389213562,-0.2462412416934967,0.34647613763809204,1.3935842514038086,True,8,1,True,61,56,
903561,1,903279124,0,2.200000047683716,0.822998046875,-4.1103668212890625,22.270000457763672,999.383056640625,0.5189749598503113,21.6166934967041,70.81559753417969,1.1735998392105103,43.880001068115234,-0.47088000178337097,-0.15695999562740326,9.711899757385254,0.2800000011920929,-0.14000000059604645,0.41999998688697815,-0.9220761656761169,2.700098752975464,15.119400024414062,0,1,7,92,457100100,2022,5,27,6,58,2,55,3,99794211,3,1,10,17,1410137059,376321504,31731,-5040,919,985,-26,-18,4,31,27867106,185,4749651,104,,0,,2.200000047683716,169.60693359375,-159.6533203125,22.270000457763672,999.294677734375,0.0,21.6166934967041,70.81559753417969,1.225000023841858,43.880001068115234,-0.47088000178337097,-0.15695999562740326,9.711899757385254,0.2800000011920929,-0.14000000059604645,0.41999998688697815,-0.9220761656761169,2.700098752975464,15.119400024414062,0,1,7,92,457100100,2022,5,27,6,58,2,55,3,99794211,3,1,10,17,1410137059,376321504,31731,-5040,919,985,-26,-18,4,31,27867106,185,4749651,104,,0,,0.0,0.0,0.0,0,0,0,True,True,True,True,True,1,-168.783935546875,155.54295349121094,1.0,0.0,1.0,False,999.4389038085938,0.0,0.05000000074505806,True,0.0,0.0,0.0,0.0,0.0,0.0,0.0,0.0,0.0,1.0,1.0,False,False,False,False,False,False,False,False,False,False,False,False,False,False,False,False,False,False,False,False,False,False,False,False,False,False,False,False,False,False,False,False,False,False,False,False,False,False,False,False,False,False,False,False,True,False,False,False,False,True,True,1.9362717866897583,-0.06310953944921494,0.2615872919559479,1.5356230735778809,True,8,1,True,61,56,
903621,1,903279124,0,2.299999952316284,0.779052734375,-4.1323394775390625,22.295000076293945,999.3809814453125,0.5405694842338562,21.600671768188477,70.75151062011719,1.1736763715744019,43.880001068115234,-0.38258999586105347,-0.17657999694347382,9.74133014678955,0.6299999952316284,-0.41999998688697815,0.41999998688697815,-0.9754845499992371,2.467463493347168,15.139724731445312,0,1,7,92,457100200,2022,5,27,6,58,2,55,3,199794197,3,1,10,18,1410137060,376321505,31727,-5043,920,985,32,-6,-1,32,27867106,186,4749828,102,,0,,2.299999952316284,169.56298828125,-159.67529296875,22.295000076293945,999.347412109375,0.0,21.600671768188477,70.75151062011719,1.225000023841858,43.880001068115234,-0.38258999586105347,-0.17657999694347382,9.74133014678955,0.6299999952316284,-0.41999998688697815,0.41999998688697815,-0.9754845499992371,2.467463493347168,15.139724731445312,0,1,7,92,457100200,2022,5,27,6,58,2,55,3,199794197,3,1,10,18,1410137060,376321505,31727,-5043,920,985,32,-6,-1,32,27867106,186,4749828,102,,0,,0.0,0.0,0.0,0,0,0,True,True,True,True,True,1,-168.783935546875,155.54295349121094,1.0,0.0,1.0,False,999.4389038085938,0.0,0.05000000074505806,True,0.0,0.0,0.0,0.0,0.0,0.0,0.0,0.0,0.0,1.0,1.0,False,False,False,False,False,False,False,False,False,False,False,False,False,False,False,False,False,False,False,False,False,False,False,False,False,False,False,False,False,False,False,False,False,False,False,False,False,False,False,False,False,False,False,False,True,False,False,False,False,True,True,1.979724407196045,0.18190151453018188,0.07651247084140778,1.5791221857070923,True,8,1,True,61,56,
903681,1,903279124,0,1.9833333492279053,0.779052734375,-4.0664215087890625,22.309999465942383,999.3807373046875,0.5351638197898865,21.600671768188477,70.81101989746094,1.1736699342727661,43.88999938964844,-0.4512600004673004,-0.16676999628543854,9.770759582519531,0.49000000953674316,-0.5600000023841858,0.2800000011920929,-0.9528523683547974,2.602411985397339,15.157135009765625,0,1,7,92,457100300,2022,5,27,6,58,2,55,3,299794182,3,1,10,18,1410137061,376321506,31713,-5057,920,986,3,29,6,29,27867106,180,4749998,102,,0,,1.9833333492279053,169.56298828125,-159.609375,22.309999465942383,999.378662109375,0.0,21.600671768188477,70.81101989746094,1.225000023841858,43.88999938964844,-0.4512600004673004,-0.16676999628543854,9.770759582519531,0.49000000953674316,-0.5600000023841858,0.2800000011920929,-0.9528523683547974,2.602411985397339,15.157135009765625,0,1,7,92,457100300,2022,5,27,6,58,2,55,3,299794182,3,1,10,18,1410137061,376321506,31713,-5057,920,986,3,29,6,29,27867106,180,4749998,102,,0,,0.0,0.0,0.0,0,0,0,True,True,True,True,True,1,-168.783935546875,155.54295349121094,1.0,0.0,1.0,False,999.4389038085938,0.0,0.05000000074505806,True,0.0,0.0,0.0,0.0,0.0,0.0,0.0,0.0,0.0,1.0,1.0,False,False,False,False,False,False,False,False,False,False,False,False,False,False,False,False,False,False,False,False,False,False,False,False,False,False,False,False,False,False,False,False,False,False,False,False,False,False,False,False,False,False,False,False,True,False,False,False,False,True,True,1.8383994102478027,0.005710443947464228,0.15881039202213287,1.5155165195465088,True,8,1,True,61,56,
903741,1,903279124,0,2.25,0.888916015625,-4.0883941650390625,22.290000915527344,999.3931884765625,0.4323968291282654,21.56061553955078,70.73319244384766,1.173872470855713,43.88999938964844,-0.47088000178337097,-0.21581999957561493,9.7020902633667,0.49000000953674316,-0.7699999809265137,0.3499999940395355,-1.2488179206848145,2.747365951538086,15.164093017578125,0,1,7,92,457100300,2022,5,27,6,58,2,55,3,299794182,3,1,10,18,1410137061,376321506,31713,-5057,920,986,3,29,6,29,27867106,180,4749998,102,,0,,2.25,169.6728515625,-159.63134765625,22.290000915527344,999.457763671875,0.0,21.56061553955078,70.73319244384766,1.225000023841858,43.88999938964844,-0.47088000178337097,-0.21581999957561493,9.7020902633667,0.49000000953674316,-0.7699999809265137,0.3499999940395355,-1.2488179206848145,2.747365951538086,15.164093017578125,0,1,7,92,457100300,2022,5,27,6,58,2,55,3,299794182,3,1,10,18,1410137061,376321506,31713,-5057,920,986,3,29,6,29,27867106,180,4749998,102,,0,,0.0,0.0,0.0,0,0,0,True,True,True,True,True,1,-168.783935546875,155.54295349121094,1.0,0.0,1.0,False,999.4389038085938,0.0,0.05000000074505806,True,0.0,0.0,0.0,0.0,0.0,0.0,0.0,0.0,0.0,1.0,1.0,False,False,False,False,False,False,False,False,False,False,False,False,False,False,False,False,False,False,False,False,False,False,False,False,False,False,False,False,False,False,False,False,False,False,False,False,False,False,False,False,False,False,False,False,True,False,False,False,False,True,True,1.9579238891601562,0.10395743697881699,-0.0939982682466507,1.4075417518615723,True,8,1,True,61,56,
903801,1,903279124,0,2.3499999046325684,0.888916015625,-4.1762847900390625,22.309999465942383,999.3969116210938,0.4052177667617798,21.448463439941406,70.77897644042969,1.174373984336853,43.88999938964844,-0.48069000244140625,-0.17657999694347382,9.711899757385254,0.5600000023841858,-0.5600000023841858,0.49000000953674316,-1.07033371925354,2.8959734439849854,15.185409545898438,0,1,7,92,457100400,2022,5,27,6,58,2,55,3,399794168,3,1,10,18,1410137060,376321506,31719,-5051,920,985,-11,-17,-6,21,27867106,173,4750162,102,,0,,2.3499999046325684,169.6728515625,-159.71923828125,22.309999465942383,999.47412109375,0.0,21.448463439941406,70.77897644042969,1.225000023841858,43.88999938964844,-0.48069000244140625,-0.17657999694347382,9.711899757385254,0.5600000023841858,-0.5600000023841858,0.49000000953674316,-1.07033371925354,2.8959734439849854,15.185409545898438,0,1,7,92,457100400,2022,5,27,6,58,2,55,3,399794168,3,1,10,18,1410137060,376321506,31719,-5051,920,985,-11,-17,-6,21,27867106,173,4750162,102,,0,,0.0,0.0,0.0,0,0,0,True,True,True,True,True,1,-168.783935546875,155.54295349121094,1.0,0.0,1.0,False,999.4389038085938,0.0,0.05000000074505806,True,0.0,0.0,0.0,0.0,0.0,0.0,0.0,0.0,0.0,1.0,1.0,False,False,False,False,False,False,False,False,False,False,False,False,False,False,False,False,False,False,False,False,False,False,False,False,False,False,False,False,False,False,False,False,False,False,False,False,False,False,False,False,False,False,False,False,True,False,False,False,False,True,True,2.000532865524292,-0.16192001104354858,0.2704760730266571,1.45432710647583,True,8,1,True,61,56,
903861,1,903279124,0,2.2333333492279053,0.998779296875,-4.0883941650390625,22.309999465942383,999.39501953125,0.4160424470901489,21.461814880371094,70.7103042602539,1.1743199825286865,43.880001068115234,-0.4610700011253357,-0.16676999628543854,9.711899757385254,0.49000000953674316,-0.41999998688697815,0.07000000029802322,-1.1057090759277344,2.719496250152588,15.198593139648438,0,1,7,92,457100400,2022,5,27,6,58,2,55,3,399794168,3,1,10,18,1410137060,376321506,31719,-5051,920,985,-11,-17,-6,21,27867106,173,4750162,102,,0,,2.2333333492279053,169.78271484375,-159.63134765625,22.309999465942383,999.385986328125,0.0,21.461814880371094,70.7103042602539,1.225000023841858,43.880001068115234,-0.4610700011253357,-0.16676999628543854,9.711899757385254,0.49000000953674316,-0.41999998688697815,0.07000000029802322,-1.1057090759277344,2.719496250152588,15.198593139648438,0,1,7,92,457100400,2022,5,27,6,58,2,55,3,399794168,3,1,10,18,1410137060,376321506,31719,-5051,920,985,-11,-17,-6,21,27867106,173,4750162,102,,0,,0.0,0.0,0.0,0,0,0,True,True,True,True,True,1,-168.783935546875,155.54295349121094,1.0,0.0,1.0,False,999.4389038085938,0.0,0.05000000074505806,True,0.0,0.0,0.0,0.0,0.0,0.0,0.0,0.0,0.0,1.0,1.0,False,False,False,False,False,False,False,False,False,False,False,False,False,False,False,False,False,False,False,False,False,False,False,False,False,False,False,False,False,False,False,False,False,False,False,False,False,False,False,False,False,False,False,False,True,False,False,False,False,True,True,1.950287103652954,0.1775108277797699,-0.02951868250966072,1.3492850065231323,True,8,1,True,61,56,
903921,1,903279124,0,2.1666667461395264,1.064697265625,-4.1103668212890625,22.274999618530273,999.39599609375,0.4106988310813904,21.504539489746094,70.87052917480469,1.1741114854812622,43.88999938964844,-0.4610700011253357,-0.1863899976015091,9.770759582519531,0.41999998688697815,-0.41999998688697815,0.49000000953674316,-1.0984774827957153,2.6264750957489014,15.213088989257812,0,1,7,92,457100500,2022,5,27,6,58,2,55,3,499794153,3,1,10,18,1410137061,376321506,31698,-5072,920,985,16,5,7,17,27867106,175,4750328,102,,0,,2.1666667461395264,169.8486328125,-159.6533203125,22.274999618530273,999.363037109375,0.0,21.504539489746094,70.87052917480469,1.225000023841858,43.88999938964844,-0.4610700011253357,-0.1863899976015091,9.770759582519531,0.41999998688697815,-0.41999998688697815,0.49000000953674316,-1.0984774827957153,2.6264750957489014,15.213088989257812,0,1,7,92,457100500,2022,5,27,6,58,2,55,3,499794153,3,1,10,18,1410137061,376321506,31698,-5072,920,985,16,5,7,17,27867106,175,4750328,102,,0,,0.0,0.0,0.0,0,0,0,True,True,True,True,True,1,-168.783935546875,155.54295349121094,1.0,0.0,1.0,False,999.4389038085938,0.0,0.05000000074505806,True,0.0,0.0,0.0,0.0,0.0,0.0,0.0,0.0,0.0,1.0,1.0,False,False,False,False,False,False,False,False,False,False,False,False,False,False,False,False,False,False,False,False,False,False,False,False,False,False,False,False,False,False,False,False,False,False,False,False,False,False,False,False,False,False,False,False,True,False,False,False,False,True,True,1.9211283922195435,0.3007136881351471,-0.14336556196212769,1.2243986129760742,True,8,1,True,61,56,
903982,1,903279124,0,2.3499999046325684,1.042724609375,-4.1323394775390625,22.31999969482422,999.392333984375,0.44312241673469543,21.504539489746094,70.76982116699219,1.1741182804107666,43.88999938964844,-0.49050000309944153,-0.11772000044584274,9.790379524230957,0.3499999940395355,-0.41999998688697815,0.2800000011920929,-0.7390199303627014,2.830864429473877,15.2457275390625,0,1,7,92,457100600,2022,5,27,6,58,2,55,3,599794139,3,1,10,18,1410137061,376321507,31705,-5065,920,985,19,11,-7,22,27867106,172,4750491,102,,0,,2.3499999046325684,169.82666015625,-159.67529296875,22.31999969482422,999.366455078125,0.0,21.504539489746094,70.76982116699219,1.225000023841858,43.88999938964844,-0.49050000309944153,-0.11772000044584274,9.790379524230957,0.3499999940395355,-0.41999998688697815,0.2800000011920929,-0.7390199303627014,2.830864429473877,15.2457275390625,0,1,7,92,457100600,2022,5,27,6,58,2,55,3,599794139,3,1,10,18,1410137061,376321507,31705,-5065,920,985,19,11,-7,22,27867106,172,4750491,102,,0,,0.0,0.0,0.0,0,0,0,True,True,True,True,True,1,-168.783935546875,155.54295349121094,1.0,0.0,1.0,False,999.4389038085938,0.0,0.05000000074505806,True,0.0,0.0,0.0,0.0,0.0,0.0,0.0,0.0,0.0,1.0,1.0,False,False,False,False,False,False,False,False,False,False,False,False,False,False,False,False,False,False,False,False,False,False,False,False,False,False,False,False,False,False,False,False,False,False,False,False,False,False,False,False,False,False,False,False,True,False,False,False,False,True,True,2.000750780105591,-0.13625910878181458,0.32403355836868286,1.3832536935806274,True,8,1,True,61,56,
904042,1,903279124,0,2.1500000953674316,0.998779296875,-4.1323394775390625,22.290000915527344,999.3917846679688,0.44312241673469543,21.504539489746094,70.76982116699219,1.174118161201477,43.88999938964844,-0.39239999651908875,-0.16676999628543854,9.672659873962402,0.49000000953674316,-0.6299999952316284,0.07000000029802322,-0.9179468154907227,2.537933826446533,15.252899169921875,0,1,7,92,457100600,2022,5,27,6,58,2,55,3,599794139,3,1,10,18,1410137061,376321507,31705,-5065,920,985,19,11,-7,22,27867106,172,4750491,102,,0,,2.1500000953674316,169.78271484375,-159.67529296875,22.290000915527344,999.387451171875,0.0,21.504539489746094,70.76982116699219,1.225000023841858,43.88999938964844,-0.39239999651908875,-0.16676999628543854,9.672659873962402,0.49000000953674316,-0.6299999952316284,0.07000000029802322,-0.9179468154907227,2.537933826446533,15.252899169921875,0,1,7,92,457100600,2022,5,27,6,58,2,55,3,599794139,3,1,10,18,1410137061,376321507,31705,-5065,920,985,19,11,-7,22,27867106,172,4750491,102,,0,,0.0,0.0,0.0,0,0,0,True,True,True,True,True,1,-168.783935546875,155.54295349121094,1.0,0.0,1.0,False,999.4389038085938,0.0,0.05000000074505806,True,0.0,0.0,0.0,0.0,0.0,0.0,0.0,0.0,0.0,1.0,1.0,False,False,False,False,False,False,False,False,False,False,False,False,False,False,False,False,False,False,False,False,False,False,False,False,False,False,False,False,False,False,False,False,False,False,False,False,False,False,False,False,False,False,False,False,True,False,False,False,False,True,True,1.9137197732925415,0.2618049383163452,0.05395451933145523,1.3369866609573364,True,8,1,True,61,56,
904102,1,903279124,0,2.2833333015441895,1.042724609375,-4.2202301025390625,22.290000915527344,999.3876953125,0.48106327652931213,21.5739688873291,70.84306335449219,1.1737934350967407,43.900001525878906,-0.44144999980926514,-0.09809999912977219,9.692279815673828,0.7699999809265137,-0.49000000953674316,0.14000000059604645,-0.5931351780891418,2.657287120819092,15.270431518554688,0,1,7,92,457100700,2022,5,27,6,58,2,55,3,699794124,3,1,10,18,1410137062,376321507,31688,-5082,920,985,1,-1,0,1,27867106,180,4750662,102,,0,,2.2833333015441895,169.82666015625,-159.76318359375,22.290000915527344,999.3916015625,0.0,21.5739688873291,70.84306335449219,1.225000023841858,43.900001525878906,-0.44144999980926514,-0.09809999912977219,9.692279815673828,0.7699999809265137,-0.49000000953674316,0.14000000059604645,-0.5931351780891418,2.657287120819092,15.270431518554688,0,1,7,92,457100700,2022,5,27,6,58,2,55,3,699794124,3,1,10,18,1410137062,376321507,31688,-5082,920,985,1,-1,0,1,27867106,180,4750662,102,,0,,0.0,0.0,0.0,0,0,0,True,True,True,True,True,1,-168.783935546875,155.54295349121094,1.0,0.0,1.0,False,999.4389038085938,0.0,0.05000000074505806,True,0.0,0.0,0.0,0.0,0.0,0.0,0.0,0.0,0.0,1.0,1.0,False,False,False,False,False,False,False,False,False,False,False,False,False,False,False,False,False,False,False,False,False,False,False,False,False,False,False,False,False,False,False,False,False,False,False,False,False,False,False,False,False,False,False,False,True,False,False,False,False,True,True,1.9724400043487549,-0.006513161584734917,0.416020929813385,1.242734432220459,True,8,1,True,61,56,
904162,1,903279124,0,2.116666555404663,1.064697265625,-4.1762847900390625,22.260000228881836,999.3897094726562,0.45942163467407227,21.56061553955078,70.77287292480469,1.1738641262054443,43.88999938964844,-0.48069000244140625,-0.1373399943113327,9.74133014678955,0.6299999952316284,-0.07000000029802322,0.2800000011920929,-0.8463952541351318,2.66222882270813,15.269515991210938,0,1,7,92,457100700,2022,5,27,6,58,2,55,3,699794124,3,1,10,18,1410137062,376321507,31688,-5082,920,985,1,-1,0,1,27867106,180,4750662,102,,0,,2.116666555404663,169.8486328125,-159.71923828125,22.260000228881836,999.409912109375,0.0,21.56061553955078,70.77287292480469,1.225000023841858,43.88999938964844,-0.48069000244140625,-0.1373399943113327,9.74133014678955,0.6299999952316284,-0.07000000029802322,0.2800000011920929,-0.8463952541351318,2.66222882270813,15.269515991210938,0,1,7,92,457100700,2022,5,27,6,58,2,55,3,699794124,3,1,10,18,1410137062,376321507,31688,-5082,920,985,1,-1,0,1,27867106,180,4750662,102,,0,,0.0,0.0,0.0,0,0,0,True,True,True,True,True,1,-168.783935546875,155.54295349121094,1.0,0.0,1.0,False,999.4389038085938,0.0,0.05000000074505806,True,0.0,0.0,0.0,0.0,0.0,0.0,0.0,0.0,0.0,1.0,1.0,False,False,False,False,False,False,False,False,False,False,False,False,False,False,False,False,False,False,False,False,False,False,False,False,False,False,False,False,False,False,False,False,False,False,False,False,False,False,False,False,False,False,False,False,True,False,False,False,False,True,True,1.8990321159362793,0.1506030410528183,0.15711985528469086,1.2416374683380127,True,8,1,True,61,56,
904222,1,903279124,0,2.1500000953674316,1.020751953125,-4.2202301025390625,22.290000915527344,999.3931884765625,0.43229106068611145,21.48851776123047,70.72708892822266,1.174196481704712,43.88999938964844,-0.43163999915122986,-0.19619999825954437,9.790379524230957,0.41999998688697815,-0.6299999952316284,0.14000000059604645,-1.1106632947921753,2.5271670818328857,15.277557373046875,0,1,7,92,457100800,2022,5,27,6,58,2,55,3,799794110,3,1,10,18,1410137062,376321508,31684,-5087,920,985,13,-16,-5,20,27867106,165,4750818,102,,0,,2.1500000953674316,169.8046875,-159.76318359375,22.290000915527344,999.373291015625,0.0,21.48851776123047,70.72708892822266,1.225000023841858,43.88999938964844,-0.43163999915122986,-0.19619999825954437,9.790379524230957,0.41999998688697815,-0.6299999952316284,0.14000000059604645,-1.1106632947921753,2.5271670818328857,15.277557373046875,0,1,7,92,457100800,2022,5,27,6,58,2,55,3,799794110,3,1,10,18,1410137062,376321508,31684,-5087,920,985,13,-16,-5,20,27867106,165,4750818,102,,0,,0.0,0.0,0.0,0,0,0,True,True,True,True,True,1,-168.783935546875,155.54295349121094,1.0,0.0,1.0,False,999.4389038085938,0.0,0.05000000074505806,True,0.0,0.0,0.0,0.0,0.0,0.0,0.0,0.0,0.0,1.0,1.0,False,False,False,False,False,False,False,False,False,False,False,False,False,False,False,False,False,False,False,False,False,False,False,False,False,False,False,False,False,False,False,False,False,False,False,False,False,False,False,False,False,False,False,False,True,False,False,False,False,True,True,1.9136558771133423,0.35402876138687134,-0.027597161009907722,1.2026408910751343,True,8,1,True,61,56,
904282,1,904279144,0,2.2333333492279053,1.064697265625,-4.1982574462890625,22.270000457763672,999.3929443359375,0.43227148056030273,21.47516632080078,70.82322692871094,1.17424476146698,43.88999938964844,-0.48069000244140625,-0.15695999562740326,9.751139640808105,0.5600000023841858,-0.49000000953674316,0.07000000029802322,-0.8791448473930359,2.812511682510376,15.2989501953125,0,1,7,92,457100900,2022,5,27,6,58,2,55,3,899794096,3,1,10,18,1410137063,376321508,31673,-5097,920,985,17,11,0,20,27867106,179,4750988,102,,0,,2.2333333492279053,169.8486328125,-159.7412109375,22.270000457763672,999.373291015625,0.0,21.47516632080078,70.82322692871094,1.225000023841858,43.88999938964844,-0.48069000244140625,-0.15695999562740326,9.751139640808105,0.5600000023841858,-0.49000000953674316,0.07000000029802322,-0.8791448473930359,2.812511682510376,15.2989501953125,0,1,7,92,457100900,2022,5,27,6,58,2,55,3,899794096,3,1,10,18,1410137063,376321508,31673,-5097,920,985,17,11,0,20,27867106,179,4750988,102,,0,,0.0,0.0,0.0,0,0,0,True,True,True,True,True,1,-168.783935546875,155.54295349121094,1.0,0.0,1.0,False,999.4389038085938,0.0,0.05000000074505806,True,0.0,0.0,0.0,0.0,0.0,0.0,0.0,0.0,0.0,1.0,1.0,False,False,False,False,False,False,False,False,False,False,False,False,False,False,False,False,False,False,False,False,False,False,False,False,False,False,False,False,False,False,False,False,False,False,False,False,False,False,False,False,False,False,False,False,True,False,False,False,False,True,True,1.9503495693206787,-0.025913488119840622,0.23852583765983582,1.256643533706665,True,8,1,True,61,56,
904342,1,904279144,0,2.2833333015441895,1.020751953125,-4.1543121337890625,22.325000762939453,999.389892578125,0.46471288800239563,21.48851776123047,70.84764099121094,1.1741784811019897,43.900001525878906,-0.47088000178337097,-0.20600999891757965,9.672659873962402,0.7699999809265137,-0.5600000023841858,0.07000000029802322,-1.1415916681289673,2.5916171073913574,15.289596557617188,0,1,7,92,457100900,2022,5,27,6,58,2,55,3,899794096,3,1,10,18,1410137063,376321508,31673,-5097,920,985,17,11,0,20,27867106,179,4750988,102,,0,,2.2833333015441895,169.8046875,-159.697265625,22.325000762939453,999.350341796875,0.0,21.48851776123047,70.84764099121094,1.225000023841858,43.900001525878906,-0.47088000178337097,-0.20600999891757965,9.672659873962402,0.7699999809265137,-0.5600000023841858,0.07000000029802322,-1.1415916681289673,2.5916171073913574,15.289596557617188,0,1,7,92,457100900,2022,5,27,6,58,2,55,3,899794096,3,1,10,18,1410137063,376321508,31673,-5097,920,985,17,11,0,20,27867106,179,4750988,102,,0,,0.0,0.0,0.0,0,0,0,True,True,True,True,True,1,-168.783935546875,155.54295349121094,1.0,0.0,1.0,False,999.4389038085938,0.0,0.05000000074505806,True,0.0,0.0,0.0,0.0,0.0,0.0,0.0,0.0,0.0,1.0,1.0,False,False,False,False,False,False,False,False,False,False,False,False,False,False,False,False,False,False,False,False,False,False,False,False,False,False,False,False,False,False,False,False,False,False,False,False,False,False,False,False,False,False,False,False,True,False,False,False,False,True,True,1.9721165895462036,0.29548612236976624,-0.06581222265958786,1.2790846824645996,True,8,1,True,61,56,
904402,1,904279144,0,2.450000047683716,1.042724609375,-4.1323394775390625,22.309999465942383,999.392333984375,0.44326698780059814,21.600671768188477,70.86137390136719,1.1736767292022705,43.900001525878906,-0.5101199746131897,-0.15695999562740326,9.780570030212402,0.2800000011920929,-0.20999999344348907,0.49000000953674316,-1.01339852809906,2.748112201690674,15.322891235351562,0,1,7,92,457101000,2022,5,27,6,58,3,55,3,-205918,3,1,10,18,1410137063,376321508,31664,-5106,920,985,-13,3,0,13,27867106,179,4751157,102,,0,,2.450000047683716,169.82666015625,-159.67529296875,22.309999465942383,999.432861328125,0.0,21.600671768188477,70.86137390136719,1.225000023841858,43.900001525878906,-0.5101199746131897,-0.15695999562740326,9.780570030212402,0.2800000011920929,-0.20999999344348907,0.49000000953674316,-1.01339852809906,2.748112201690674,15.322891235351562,0,1,7,92,457101000,2022,5,27,6,58,3,55,3,-205918,3,1,10,18,1410137063,376321508,31664,-5106,920,985,-13,3,0,13,27867106,179,4751157,102,,0,,0.0,0.0,0.0,0,0,0,True,True,True,True,True,1,-168.783935546875,155.54295349121094,1.0,0.0,1.0,False,999.4389038085938,0.0,0.05000000074505806,True,0.0,0.0,0.0,0.0,0.0,0.0,0.0,0.0,0.0,1.0,1.0,False,False,False,False,False,False,False,False,False,False,False,False,False,False,False,False,False,False,False,False,False,False,False,False,False,False,False,False,False,False,False,False,False,False,False,False,False,False,False,False,False,False,False,False,True,False,False,False,False,True,True,2.0432608127593994,0.10875295102596283,0.12763752043247223,1.3638606071472168,True,8,1,True,61,56,
904463,1,904279144,0,2.200000047683716,1.042724609375,-4.1982574462890625,22.309999465942383,999.3915405273438,0.4485873281955719,21.544593811035156,70.7194595336914,1.1739439964294434,43.900001525878906,-0.3727799952030182,-0.14714999496936798,9.829620361328125,0.0,-0.20999999344348907,0.07000000029802322,-0.9127242565155029,2.4610555171966553,15.338607788085938,0,1,7,92,457101000,2022,5,27,6,58,3,55,3,-205918,3,1,10,18,1410137063,376321508,31664,-5106,920,985,-13,3,0,13,27867106,179,4751157,102,,0,,2.200000047683716,169.82666015625,-159.7412109375,22.309999465942383,999.40234375,0.0,21.544593811035156,70.7194595336914,1.225000023841858,43.900001525878906,-0.3727799952030182,-0.14714999496936798,9.829620361328125,0.0,-0.20999999344348907,0.07000000029802322,-0.9127242565155029,2.4610555171966553,15.338607788085938,0,1,7,92,457101000,2022,5,27,6,58,3,55,3,-205918,3,1,10,18,1410137063,376321508,31664,-5106,920,985,-13,3,0,13,27867106,179,4751157,102,,0,,0.0,0.0,0.0,0,0,0,True,True,True,True,True,1,-168.783935546875,155.54295349121094,1.0,0.0,1.0,False,999.4389038085938,0.0,0.05000000074505806,True,0.0,0.0,0.0,0.0,0.0,0.0,0.0,0.0,0.0,1.0,1.0,False,False,False,False,False,False,False,False,False,False,False,False,False,False,False,False,False,False,False,False,False,False,False,False,False,False,False,False,False,False,False,False,False,False,False,False,False,False,False,False,False,False,False,False,True,False,False,False,False,True,True,1.935987949371338,0.40208908915519714,0.11425181478261948,1.2150710821151733,True,8,1,True,61,56,
904523,1,904279144,0,2.316666603088379,1.020751953125,-4.0883941650390625,22.274999618530273,999.3916625976562,0.4485670030117035,21.53124237060547,70.88731384277344,1.173984408378601,43.900001525878906,-0.44144999980926514,-0.20600999891757965,9.74133014678955,0.49000000953674316,-0.699999988079071,0.14000000059604645,-1.178934097290039,2.633223295211792,15.347885131835938,0,1,7,92,457101100,2022,5,27,6,58,3,55,3,99794067,3,1,10,18,1410137064,376321508,31662,-5108,920,985,-51,-18,-10,54,27867106,181,4751328,102,,0,,2.316666603088379,169.8046875,-159.63134765625,22.274999618530273,999.376708984375,0.0,21.53124237060547,70.88731384277344,1.225000023841858,43.900001525878906,-0.44144999980926514,-0.20600999891757965,9.74133014678955,0.49000000953674316,-0.699999988079071,0.14000000059604645,-1.178934097290039,2.633223295211792,15.347885131835938,0,1,7,92,457101100,2022,5,27,6,58,3,55,3,99794067,3,1,10,18,1410137064,376321508,31662,-5108,920,985,-51,-18,-10,54,27867106,181,4751328,102,,0,,0.0,0.0,0.0,0,0,0,True,True,True,True,True,1,-168.783935546875,155.54295349121094,1.0,0.0,1.0,False,999.4389038085938,0.0,0.05000000074505806,True,0.0,0.0,0.0,0.0,0.0,0.0,0.0,0.0,0.0,1.0,1.0,False,False,False,False,False,False,False,False,False,False,False,False,False,False,False,False,False,False,False,False,False,False,False,False,False,False,False,False,False,False,False,False,False,False,False,False,False,False,False,False,False,False,False,False,True,False,False,False,False,True,True,1.9866236448287964,0.29075896739959717,-0.014660543762147427,1.3158444166183472,True,8,1,True,61,56,
904583,1,904279144,0,2.2333333492279053,0.976806640625,-4.1762847900390625,22.309999465942383,999.3994750976562,0.3782375454902649,21.47516632080078,70.80491638183594,1.1742546558380127,43.900001525878906,-0.5003100037574768,-0.14714999496936798,9.653039932250977,0.07000000029802322,-0.2800000011920929,0.5600000023841858,-0.8472297787666321,2.737715721130371,15.380615234375,0,1,7,92,457101200,2022,5,27,6,58,3,55,3,199794052,3,1,10,18,1410137065,376321509,31644,-5126,920,985,54,9,0,54,27867106,182,4751501,102,,0,,2.2333333492279053,169.7607421875,-159.71923828125,22.309999465942383,999.408447265625,0.0,21.47516632080078,70.80491638183594,1.225000023841858,43.900001525878906,-0.5003100037574768,-0.14714999496936798,9.653039932250977,0.07000000029802322,-0.2800000011920929,0.5600000023841858,-0.8472297787666321,2.737715721130371,15.380615234375,0,1,7,92,457101200,2022,5,27,6,58,3,55,3,199794052,3,1,10,18,1410137065,376321509,31644,-5126,920,985,54,9,0,54,27867106,182,4751501,102,,0,,0.0,0.0,0.0,0,0,0,True,True,True,True,True,1,-168.783935546875,155.54295349121094,1.0,0.0,1.0,False,999.4389038085938,0.0,0.05000000074505806,True,0.0,0.0,0.0,0.0,0.0,0.0,0.0,0.0,0.0,1.0,1.0,False,False,False,False,False,False,False,False,False,False,False,False,False,False,False,False,False,False,False,False,False,False,False,False,False,False,False,False,False,False,False,False,False,False,False,False,False,False,False,False,False,False,False,False,True,False,False,False,False,True,True,1.9503413438796997,-0.07519141584634781,0.3872700333595276,1.3684277534484863,True,8,1,True,61,56,
904643,1,904279144,0,2.366666555404663,1.020751953125,-4.1762847900390625,22.309999465942383,999.3961791992188,0.41081422567367554,21.58732032775879,70.75914001464844,1.173753023147583,43.900001525878906,-0.43163999915122986,-0.14714999496936798,9.554940223693848,0.6299999952316284,-0.2800000011920929,0.14000000059604645,-0.9288329482078552,2.5606374740600586,15.39642333984375,0,1,7,92,457101200,2022,5,27,6,58,3,55,3,199794052,3,1,10,18,1410137065,376321509,31644,-5126,920,985,54,9,0,54,27867106,182,4751501,102,,0,,2.366666555404663,169.8046875,-159.71923828125,22.309999465942383,999.303466796875,0.0,21.58732032775879,70.75914001464844,1.225000023841858,43.900001525878906,-0.43163999915122986,-0.14714999496936798,9.554940223693848,0.6299999952316284,-0.2800000011920929,0.14000000059604645,-0.9288329482078552,2.5606374740600586,15.39642333984375,0,1,7,92,457101200,2022,5,27,6,58,3,55,3,199794052,3,1,10,18,1410137065,376321509,31644,-5126,920,985,54,9,0,54,27867106,182,4751501,102,,0,,0.0,0.0,0.0,0,0,0,True,True,True,True,True,1,-168.783935546875,155.54295349121094,1.0,0.0,1.0,False,999.4389038085938,0.0,0.05000000074505806,True,0.0,0.0,0.0,0.0,0.0,0.0,0.0,0.0,0.0,1.0,1.0,False,False,False,False,False,False,False,False,False,False,False,False,False,False,False,False,False,False,False,False,False,False,False,False,False,False,False,False,False,False,False,False,False,False,False,False,False,False,False,False,False,False,False,False,True,False,False,False,False,True,True,2.008145570755005,0.21951933205127716,0.21837711334228516,1.3361613750457764,True,8,1,True,60,56,
904703,1,904279144,0,2.25,1.020751953125,-4.1543121337890625,22.290000915527344,999.3988647460938,0.38367918133735657,21.504539489746094,70.76982116699219,1.1741262674331665,43.90999984741211,-0.49050000309944153,-0.1373399943113327,9.692279815673828,0.6299999952316284,-0.6299999952316284,0.14000000059604645,-0.899420976638794,2.896378755569458,15.408660888671875,0,1,7,92,457101300,2022,5,27,6,58,3,55,3,299794038,3,1,10,18,1410137065,376321509,31637,-5133,920,985,21,-6,1,22,27867106,178,4751669,102,,0,,2.25,169.8046875,-159.697265625,22.290000915527344,999.406982421875,0.0,21.504539489746094,70.76982116699219,1.225000023841858,43.90999984741211,-0.49050000309944153,-0.1373399943113327,9.692279815673828,0.6299999952316284,-0.6299999952316284,0.14000000059604645,-0.899420976638794,2.896378755569458,15.408660888671875,0,1,7,92,457101300,2022,5,27,6,58,3,55,3,299794038,3,1,10,18,1410137065,376321509,31637,-5133,920,985,21,-6,1,22,27867106,178,4751669,102,,0,,0.0,0.0,0.0,0,0,0,True,True,True,True,True,1,-168.783935546875,155.54295349121094,1.0,0.0,1.0,False,999.4389038085938,0.0,0.05000000074505806,True,0.0,0.0,0.0,0.0,0.0,0.0,0.0,0.0,0.0,1.0,1.0,False,False,False,False,False,False,False,False,False,False,False,False,False,False,False,False,False,False,False,False,False,False,False,False,False,False,False,False,False,False,False,False,False,False,False,False,False,False,False,False,False,False,False,False,True,False,False,False,False,True,True,1.9577122926712036,-0.19332212209701538,0.3849595785140991,1.3232377767562866,True,8,1,True,61,56,
904763,1,904279144,0,2.133333444595337,1.042724609375,-4.1762847900390625,22.299999237060547,999.396484375,0.405349999666214,21.544593811035156,70.81864929199219,1.1739386320114136,43.90999984741211,-0.4610700011253357,-0.16676999628543854,9.751139640808105,0.41999998688697815,-0.6299999952316284,0.6299999952316284,-0.9419661164283752,2.6642580032348633,15.432266235351562,0,1,7,92,457101300,2022,5,27,6,58,3,55,3,299794038,3,1,10,18,1410137065,376321509,31637,-5133,920,985,21,-6,1,22,27867106,178,4751669,102,,0,,2.133333444595337,169.82666015625,-159.71923828125,22.299999237060547,999.422119140625,0.0,21.544593811035156,70.81864929199219,1.225000023841858,43.90999984741211,-0.4610700011253357,-0.16676999628543854,9.751139640808105,0.41999998688697815,-0.6299999952316284,0.6299999952316284,-0.9419661164283752,2.6642580032348633,15.432266235351562,0,1,7,92,457101300,2022,5,27,6,58,3,55,3,299794038,3,1,10,18,1410137065,376321509,31637,-5133,920,985,21,-6,1,22,27867106,178,4751669,102,,0,,0.0,0.0,0.0,0,0,0,True,True,True,True,True,1,-168.783935546875,155.54295349121094,1.0,0.0,1.0,False,999.4389038085938,0.0,0.05000000074505806,True,0.0,0.0,0.0,0.0,0.0,0.0,0.0,0.0,0.0,1.0,1.0,False,False,False,False,False,False,False,False,False,False,False,False,False,False,False,False,False,False,False,False,False,False,False,False,False,False,False,False,False,False,False,False,False,False,False,False,False,False,False,False,False,False,False,False,True,False,False,False,False,True,True,1.9064335823059082,0.12653684616088867,0.2614716589450836,1.2570782899856567,True,8,1,True,61,56,
904823,1,904279144,0,2.116666555404663,1.020751953125,-4.1762847900390625,22.270000457763672,999.3934936523438,0.4270112216472626,21.5739688873291,70.85527038574219,1.1737992763519287,43.90999984741211,-0.4218299984931946,-0.17657999694347382,9.790379524230957,0.41999998688697815,-0.41999998688697815,0.3499999940395355,-1.0290024280548096,2.3992843627929688,15.444015502929688,0,1,7,92,457101400,2022,5,27,6,58,3,55,3,399794023,3,1,10,18,1410137066,376321509,31636,-5134,920,985,-19,4,-8,19,27867106,171,4751831,102,,0,,2.116666555404663,169.8046875,-159.71923828125,22.270000457763672,999.470703125,0.0,21.5739688873291,70.85527038574219,1.225000023841858,43.90999984741211,-0.4218299984931946,-0.17657999694347382,9.790379524230957,0.41999998688697815,-0.41999998688697815,0.3499999940395355,-1.0290024280548096,2.3992843627929688,15.444015502929688,0,1,7,92,457101400,2022,5,27,6,58,3,55,3,399794023,3,1,10,18,1410137066,376321509,31636,-5134,920,985,-19,4,-8,19,27867106,171,4751831,102,,0,,0.0,0.0,0.0,0,0,0,True,True,True,True,True,1,-168.783935546875,155.54295349121094,1.0,0.0,1.0,False,999.4389038085938,0.0,0.05000000074505806,True,0.0,0.0,0.0,0.0,0.0,0.0,0.0,0.0,0.0,1.0,1.0,False,False,False,False,False,False,False,False,False,False,False,False,False,False,False,False,False,False,False,False,False,False,False,False,False,False,False,False,False,False,False,False,False,False,False,False,False,False,False,False,False,False,False,False,True,False,False,False,False,True,True,1.8990845680236816,0.4837692677974701,0.12932123243808746,1.2038487195968628,True,8,1,True,61,56,
904883,1,904279144,0,2.116666555404663,1.020751953125,-4.1103668212890625,22.31999969482422,999.394287109375,0.42160603404045105,21.5739688873291,70.78355407714844,1.1738084554672241,43.90999984741211,-0.47088000178337097,-0.19619999825954437,9.760950088500977,0.6299999952316284,-0.6299999952316284,0.49000000953674316,-1.2976198196411133,2.783301591873169,15.448455810546875,0,1,7,92,457101500,2022,5,27,6,58,3,55,3,499794009,3,1,10,18,1410137067,376321510,31619,-5151,920,985,16,-10,0,18,27867106,172,4751993,102,,0,,2.116666555404663,169.8046875,-159.6533203125,22.31999969482422,999.4130859375,0.0,21.5739688873291,70.78355407714844,1.225000023841858,43.90999984741211,-0.47088000178337097,-0.19619999825954437,9.760950088500977,0.6299999952316284,-0.6299999952316284,0.49000000953674316,-1.2976198196411133,2.783301591873169,15.448455810546875,0,1,7,92,457101500,2022,5,27,6,58,3,55,3,499794009,3,1,10,18,1410137067,376321510,31619,-5151,920,985,16,-10,0,18,27867106,172,4751993,102,,0,,0.0,0.0,0.0,0,0,0,True,True,True,True,True,1,-168.783935546875,155.54295349121094,1.0,0.0,1.0,False,999.4389038085938,0.0,0.05000000074505806,True,0.0,0.0,0.0,0.0,0.0,0.0,0.0,0.0,0.0,1.0,1.0,False,False,False,False,False,False,False,False,False,False,False,False,False,False,False,False,False,False,False,False,False,False,False,False,False,False,False,False,False,False,False,False,False,False,False,False,False,False,False,False,False,False,False,False,True,False,False,False,False,True,True,1.8990771770477295,-0.004088220186531544,0.03874878212809563,1.1665903329849243,True,8,1,True,61,56,
