SYS_TIME[ms],T_CNT[us],T_PPS[us],T_CAN_RSV[us],DP[Pa],AOA[deg],AOS[deg],T_DP_SENSOR[degC],PS[hPa],H_PS[m],TAT[degC],HUM[%],RHO[kg/m^3],T_PS_SENSOR[degC],AX[m/s^2],AY[m/s^2],AZ[m/s^2],GX[deg/s],GY[deg/s],GZ[deg/s],EX[deg],EY[deg],EZ[deg],MICROSECONDS_PPS[us],cls[-],id[-],len[-],iTOW[ms],year[y],month[month],day[d],hour[h],minute[min],sec[s],valid[-],tAcc[ns],nano[ns],fixType[-],flags[-],flags2[-],numSV[-],lon[10^7 deg],lat[10^7 deg],height[mm],hMSL[mm],hAcc[mm],vAcc[mm],velN[mm/s],velE[mm/s],velD[mm/s],gSpeed[mm/s],headMot[10^5 deg],sAcc[mm/s],headAcc[10^5 deg],pDOP[-],reserved1[-],headVeh[10^5 deg],reserved2[-],DP_raw[Pa],AOA_raw[deg],AOS_raw[deg],T_DP_SENSOR_raw[degC],PS_raw[hPa],H_PS_raw[m],TAT_raw[degC],HUM_raw[%],RHO_raw[kg/m^3],T_PS_SENSOR_raw[degC],AX_raw[m/s^2],AY_raw[m/s^2],AZ_raw[m/s^2],GX_raw[deg/s],GY_raw[deg/s],GZ_raw[deg/s],EX_raw[deg],EY_raw[deg],EZ_raw[deg],MICROSECONDS_PPS_raw[us],cls_raw[-],id_raw[-],len_raw[-],iTOW_raw[ms],year_raw[y],month_raw[month],day_raw[d],hour_raw[h],minute_raw[min],sec_raw[s],valid_raw[-],tAcc_raw[ns],nano_raw[ns],fixType_raw[-],flags_raw[-],flags2_raw[-],numSV_raw[-],lon_raw[10^7 deg],lat_raw[10^7 deg],height_raw[mm],hMSL_raw[mm],hAcc_raw[mm],vAcc_raw[mm],velN_raw[mm/s],velE_raw[mm/s],velD_raw[mm/s],gSpeed_raw[mm/s],headMot_raw[10^5 deg],sAcc_raw[mm/s],headAcc_raw[10^5 deg],pDOP_raw[-],reserved1_raw[-],headVeh_raw[10^5 deg],reserved2_raw[-],ROLL[deg],PITCH[deg],YAW[deg],H_US[-],ELEV[-],RUDD[-],AIR_DATA_EN[-],ENV_DATA_EN[-],IMU_DATA_EN[-],GPS_DATA_EN[-],LOGGING_EN[-],LOGGING_MODE[-],AOA_OFFSET[deg],AOS_OFFSET[deg],DP_GAIN[-],DP_OFFSET[Pa],LPF_DP[-],LPF_SW[-],PS_INIT_VAL[hPa],H_PS_OFFSET[m],LPF_PS[-],LPF_SW[-],AX_OFFSET[m/s^2],AY_OFFSET[m/s^2],AZ_OFFSET[m/s^2],GX_OFFSET[deg/s],GY_OFFSET[deg/s],GZ_OFFSET[deg/s],EX_OFFSET[deg],EY_OFFSET[deg],EZ_OFFSET[deg],LPF_ACC[-],LPF_GYR[-],LPF_ACC_SW[-],LPF_GYR_SW[-],DP_err[-],AOA_err[-],AOS_err[-],T_DP_SENSOR_err[-],DP_GAIN_err[-],DP_OFFSET_err[-],AOA_OFFSET_err[-],AOS_OFFSET_err[-],LPF_DP_err[-],DP_I2C_err[-],AOA_I2C_err[-],AOS_I2C_err[-],SETTING_DATA_READ_err[-],PS_err[-],T_PS_SENSOR_err[-],TAT_err[-],HUM_err[-],PS_INIT_VAL_err[-],H_PS_OFFSET_err[-],H_PS_err[-],RHO_err[-],LPF_PS_err[-],ENV_I2C_err[-],SETTING_DATA_READ_err[-],AX_err[-],AY_err[-],AZ_err[-],GX_err[-],GY_err[-],GZ_err[-],LPF_ACC_err[-],LPF_GYR_err[-],AX_OFFSET_err[-],AY_OFFSET_err[-],AZ_OFFSET_err[-],GX_OFFSET_err[-],GY_OFFSET_err[-],GZ_OFFSET_err[-],EX_OFFSET_err[-],EY_OFFSET_err[-],EZ_OFFSET_err[-],SETTING_DATA_READ_err[-],PPS_INTV_err[-],MEG_INTV_err[-],CHK_SUM_err[-],INIT_err[-],SET_MODE_err[-],SEND_err[-],RECEIVE_err[-],AIRSPEED[m/s],WINDN[m/s],WINDE[m/s],WINDD[m/s],SD_DETECT[-],LOG_NUMBER[-],LOGGING_MODE[-],LOGGING_EN[-],CPU_USED[%],MEMORY_USED[%],
3557,1,0,1017399,-0.01666666753590107,3.965087890625,-8.702651977539062,24.165000915527344,991.9874877929688,-0.02994384430348873,23.707561492919922,62.603187561035156,1.156626582145691,28.270000457763672,0.9025200009346008,-0.12752999365329742,9.770759582519531,0.41999998688697815,-0.07000000029802322,0.20999999344348907,-0.640806257724762,-5.384458065032959,-179.19546508789062,0,1,7,92,47200,2015,10,18,0,0,47,240,4294967295,200000000,0,0,4,0,0,0,0,-17000,4294967295,3750000128,0,0,0,0,0,20000,18000000,9999,,0,,-0.01666666753590107,172.7490234375,-164.24560546875,24.165000915527344,992.047119140625,0.0,23.707561492919922,62.603187561035156,1.225000023841858,28.270000457763672,0.9025200009346008,-0.12752999365329742,9.770759582519531,0.41999998688697815,-0.07000000029802322,0.20999999344348907,-0.640806257724762,-5.384458065032959,-179.19546508789062,0,1,7,92,47200,2015,10,18,0,0,47,240,4294967295,200000000,0,0,4,0,0,0,0,-17000,4294967295,3750000128,0,0,0,0,0,20000,18000000,9999,,0,,0.0,0.0,0.0,120,1133,3726,True,True,True,True,True,1,-168.783935546875,155.54295349121094,1.0,0.0,1.0,False,991.9840698242188,0.0,0.05000000074505806,True,0.0,0.0,0.0,0.0,0.0,0.0,0.0,0.0,0.0,1.0,1.0,False,False,False,False,False,False,False,False,False,False,False,False,False,False,False,False,False,False,False,False,False,False,False,False,False,False,False,False,False,False,False,False,False,False,False,False,False,False,False,False,False,False,False,False,False,False,False,False,False,False,False,0.16976290941238403,-0.09079796075820923,0.07716428488492966,-0.04950403794646263,True,1,1,True,56,56,
3620,1,0,3615319,-0.01666666753590107,4.031005859375,-8.592788696289062,24.15999984741211,991.989990234375,-0.051740724593400955,23.81971549987793,62.542152404785156,1.1561455726623535,28.280000686645508,0.9123299717903137,-0.1373399943113327,9.74133014678955,0.3499999940395355,-0.20999999344348907,0.20999999344348907,-0.8406227827072144,-5.415849685668945,-179.1615447998047,0,1,7,92,47300,2015,10,18,0,0,47,240,4294967295,300000000,0,0,4,0,0,0,0,-17000,4294967295,3750000128,0,0,0,0,0,20000,18000000,9999,,0,,-0.01666666753590107,172.81494140625,-164.1357421875,24.15999984741211,991.9716796875,0.0,23.81971549987793,62.542152404785156,1.225000023841858,28.280000686645508,0.9123299717903137,-0.1373399943113327,9.74133014678955,0.3499999940395355,-0.20999999344348907,0.20999999344348907,-0.8406227827072144,-5.415849685668945,-179.1615447998047,0,1,7,92,47300,2015,10,18,0,0,47,240,4294967295,300000000,0,0,4,0,0,0,0,-17000,4294967295,3750000128,0,0,0,0,0,20000,18000000,9999,,0,,0.0,0.0,0.0,77,1133,3726,True,True,True,True,True,1,-168.783935546875,155.54295349121094,1.0,0.0,1.0,False,991.9840698242188,0.0,0.05000000074505806,True,0.0,0.0,0.0,0.0,0.0,0.0,0.0,0.0,0.0,1.0,1.0,False,False,False,False,False,False,False,False,False,False,False,False,False,False,False,False,False,False,False,False,False,False,False,False,False,False,False,False,False,False,False,False,False,False,False,False,False,False,False,False,False,False,False,False,False,False,False,False,False,False,False,0.16979821026325226,-0.05742258578538895,0.06276237964630127,-0.054711636155843735,True,1,1,True,53,56,
3681,1,0,3656790,-0.01666666753590107,3.987060546875,-8.636734008789062,24.219999313354492,991.9871215820312,-0.027229512110352516,23.793010711669922,62.589454650878906,1.1562532186508179,28.280000686645508,0.9123299717903137,-0.1373399943113327,9.770759582519531,0.2800000011920929,-0.3499999940395355,0.14000000059604645,-0.910040020942688,-5.338061332702637,-179.1468505859375,0,1,7,92,47400,2015,10,18,0,0,47,240,4294967295,399999999,0,0,4,0,0,0,0,-17000,4294967295,3750000128,0,0,0,0,0,20000,18000000,9999,,0,,-0.01666666753590107,172.77099609375,-164.1796875,24.219999313354492,992.009033203125,0.0,23.793010711669922,62.589454650878906,1.225000023841858,28.280000686645508,0.9123299717903137,-0.1373399943113327,9.770759582519531,0.2800000011920929,-0.3499999940395355,0.14000000059604645,-0.910040020942688,-5.338061332702637,-179.1468505859375,0,1,7,92,47400,2015,10,18,0,0,47,240,4294967295,399999999,0,0,4,0,0,0,0,-17000,4294967295,3750000128,0,0,0,0,0,20000,18000000,9999,,0,,0.0,0.0,0.0,76,1135,3725,True,True,True,True,True,1,-168.783935546875,155.54295349121094,1.0,0.0,1.0,False,991.9840698242188,0.0,0.05000000074505806,True,0.0,0.0,0.0,0.0,0.0,0.0,0.0,0.0,0.0,1.0,1.0,False,False,False,False,False,False,False,False,False,False,False,False,False,False,False,False,False,False,False,False,False,False,False,False,False,False,False,False,False,False,False,False,False,False,False,False,False,False,False,False,False,False,False,False,False,False,False,False,False,False,False,0.16979031264781952,-0.0489724762737751,0.05728199705481529,-0.0691070482134819,True,1,1,True,55,56,
3741,1,0,3739952,-0.01666666753590107,3.965087890625,-8.680679321289062,24.204999923706055,991.9908447265625,-0.05989038199186325,23.72091293334961,62.566566467285156,1.1565767526626587,28.280000686645508,0.9123299717903137,-0.14714999496936798,9.760950088500977,0.5600000023841858,-0.6299999952316284,0.41999998688697815,-0.8672122955322266,-5.4409027099609375,-179.12701416015625,0,1,7,92,47400,2015,10,18,0,0,47,240,4294967295,399999999,0,0,4,0,0,0,0,-17000,4294967295,3750000128,0,0,0,0,0,20000,18000000,9999,,0,,-0.01666666753590107,172.7490234375,-164.2236328125,24.204999923706055,992.037353515625,0.0,23.72091293334961,62.566566467285156,1.225000023841858,28.280000686645508,0.9123299717903137,-0.14714999496936798,9.760950088500977,0.5600000023841858,-0.6299999952316284,0.41999998688697815,-0.8672122955322266,-5.4409027099609375,-179.12701416015625,0,1,7,92,47400,2015,10,18,0,0,47,240,4294967295,399999999,0,0,4,0,0,0,0,-17000,4294967295,3750000128,0,0,0,0,0,20000,18000000,9999,,0,,0.0,0.0,0.0,76,1134,3727,True,True,True,True,True,1,-168.783935546875,155.54295349121094,1.0,0.0,1.0,False,991.9840698242188,0.0,0.05000000074505806,True,0.0,0.0,0.0,0.0,0.0,0.0,0.0,0.0,0.0,1.0,1.0,False,False,False,False,False,False,False,False,False,False,False,False,False,False,False,False,False,False,False,False,False,False,False,False,False,False,False,False,False,False,False,False,False,False,False,False,False,False,False,False,False,False,False,False,False,False,False,False,False,False,False,0.16976656019687653,-0.062954381108284,0.05756908282637596,-0.06355395913124084,True,1,1,True,54,56,
3801,1,0,3781453,-0.01666666753590107,4.009033203125,-8.702651977539062,24.165000915527344,991.9860229492188,-0.016325954347848892,23.57938575744629,62.529945373535156,1.1571965217590332,28.290000915527344,0.9123299717903137,-0.1373399943113327,9.751139640808105,1.1200000047683716,-0.49000000953674316,0.14000000059604645,-0.7532557249069214,-5.360535621643066,-179.12448120117188,0,1,7,92,47500,2015,10,18,0,0,47,240,4294967295,500000000,0,0,4,0,0,0,0,-17000,4294967295,3750000128,0,0,0,0,0,20000,18000000,9999,,0,,-0.01666666753590107,172.79296875,-164.24560546875,24.165000915527344,991.98291015625,0.0,23.57938575744629,62.529945373535156,1.225000023841858,28.290000915527344,0.9123299717903137,-0.1373399943113327,9.751139640808105,1.1200000047683716,-0.49000000953674316,0.14000000059604645,-0.7532557249069214,-5.360535621643066,-179.12448120117188,0,1,7,92,47500,2015,10,18,0,0,47,240,4294967295,500000000,0,0,4,0,0,0,0,-17000,4294967295,3750000128,0,0,0,0,0,20000,18000000,9999,,0,,0.0,0.0,0.0,77,1133,3727,True,True,True,True,True,1,-168.783935546875,155.54295349121094,1.0,0.0,1.0,False,991.9840698242188,0.0,0.05000000074505806,True,0.0,0.0,0.0,0.0,0.0,0.0,0.0,0.0,0.0,1.0,1.0,False,False,False,False,False,False,False,False,False,False,False,False,False,False,False,False,False,False,False,False,False,False,False,False,False,False,False,False,False,False,False,False,False,False,False,False,False,False,False,False,False,False,False,False,False,False,False,False,False,False,False,0.1697210967540741,-0.07296139001846313,0.05999547988176346,-0.05285456404089928,True,1,1,True,54,56,
3861,1,0,3822987,-0.01666666753590107,4.031005859375,-8.658706665039062,24.184999465942383,991.9838256835938,0.0,23.707561492919922,62.488746643066406,1.156637191772461,28.290000915527344,0.8927099704742432,-0.15695999562740326,9.751139640808105,0.6299999952316284,-0.5600000023841858,-0.07000000029802322,-0.9097838997840881,-5.241157531738281,-179.10018920898438,0,1,7,92,47500,2015,10,18,0,0,47,240,4294967295,500000000,0,0,4,0,0,0,0,-17000,4294967295,3750000128,0,0,0,0,0,20000,18000000,9999,,0,,-0.01666666753590107,172.81494140625,-164.20166015625,24.184999465942383,991.99169921875,0.0,23.707561492919922,62.488746643066406,1.225000023841858,28.290000915527344,0.8927099704742432,-0.15695999562740326,9.751139640808105,0.6299999952316284,-0.5600000023841858,-0.07000000029802322,-0.9097838997840881,-5.241157531738281,-179.10018920898438,0,1,7,92,47500,2015,10,18,0,0,47,240,4294967295,500000000,0,0,4,0,0,0,0,-17000,4294967295,3750000128,0,0,0,0,0,20000,18000000,9999,,0,,0.0,0.0,0.0,74,1133,3725,True,True,True,True,True,1,-168.783935546875,155.54295349121094,1.0,0.0,1.0,False,991.9840698242188,0.0,0.05000000074505806,True,0.0,0.0,0.0,0.0,0.0,0.0,0.0,0.0,0.0,1.0,1.0,False,False,False,False,False,False,False,False,False,False,False,False,False,False,False,False,False,False,False,False,False,False,False,False,False,False,False,False,False,False,False,False,False,False,False,False,False,False,False,False,False,False,False,False,False,False,False,False,False,False,False,0.16976211965084076,-0.04223981872200966,0.04883614555001259,-0.06662608683109283,True,1,1,True,55,56,
3921,1,0,3905894,0.0,4.009033203125,-8.680679321289062,24.170000076293945,991.9786987304688,0.048987116664648056,23.635461807250977,62.519264221191406,1.1569433212280273,28.299999237060547,0.8730900287628174,-0.05886000022292137,9.986579895019531,0.49000000953674316,-0.3499999940395355,0.3499999940395355,-0.6788849830627441,-5.1875200271606445,-179.1042022705078,0,1,7,92,47600,2015,10,18,0,0,47,240,4294967295,600000000,0,0,4,0,0,0,0,-17000,4294967295,3750000128,0,0,0,0,0,20000,18000000,9999,,0,,0.0,172.79296875,-164.2236328125,24.170000076293945,992.013916015625,0.0,23.635461807250977,62.519264221191406,1.225000023841858,28.299999237060547,0.8730900287628174,-0.05886000022292137,9.986579895019531,0.49000000953674316,-0.3499999940395355,0.3499999940395355,-0.6788849830627441,-5.1875200271606445,-179.1042022705078,0,1,7,92,47600,2015,10,18,0,0,47,240,4294967295,600000000,0,0,4,0,0,0,0,-17000,4294967295,3750000128,0,0,0,0,0,20000,18000000,9999,,0,,0.0,0.0,0.0,75,1135,3726,True,True,True,True,True,1,-168.783935546875,155.54295349121094,1.0,0.0,1.0,False,991.9840698242188,0.0,0.05000000074505806,True,0.0,0.0,0.0,0.0,0.0,0.0,0.0,0.0,0.0,1.0,1.0,False,False,False,False,False,False,False,False,False,False,False,False,False,False,False,False,False,False,False,False,False,False,False,False,False,False,False,False,False,False,False,False,False,False,False,False,False,False,False,False,False,False,False,False,False,False,False,False,False,False,False,-0.0,0.0,-0.0,0.0,True,1,1,True,53,56,
3981,1,0,3947547,0.0,4.009033203125,-8.636734008789062,24.15999984741211,991.9811401367188,0.027222899720072746,23.72091293334961,62.587928771972656,1.1565625667572021,28.309999465942383,0.9417600035667419,-0.15695999562740326,9.760950088500977,0.3499999940395355,-0.41999998688697815,0.07000000029802322,-0.8702043294906616,-5.37252140045166,-179.0800323486328,0,1,7,92,47700,2015,10,18,0,0,47,240,4294967295,700000000,0,0,4,0,0,0,0,-17000,4294967295,3750000128,0,0,0,0,0,20000,18000000,9999,,0,,0.0,172.79296875,-164.1796875,24.15999984741211,991.99560546875,0.0,23.72091293334961,62.587928771972656,1.225000023841858,28.309999465942383,0.9417600035667419,-0.15695999562740326,9.760950088500977,0.3499999940395355,-0.41999998688697815,0.07000000029802322,-0.8702043294906616,-5.37252140045166,-179.0800323486328,0,1,7,92,47700,2015,10,18,0,0,47,240,4294967295,700000000,0,0,4,0,0,0,0,-17000,4294967295,3750000128,0,0,0,0,0,20000,18000000,9999,,0,,0.0,0.0,0.0,74,1133,3727,True,True,True,True,True,1,-168.783935546875,155.54295349121094,1.0,0.0,1.0,False,991.9840698242188,0.0,0.05000000074505806,True,0.0,0.0,0.0,0.0,0.0,0.0,0.0,0.0,0.0,1.0,1.0,False,False,False,False,False,False,False,False,False,False,False,False,False,False,False,False,False,False,False,False,False,False,False,False,False,False,False,False,False,False,False,False,False,False,False,False,False,False,False,False,False,False,False,False,False,False,False,False,False,False,False,-0.0,0.0,-0.0,0.0,True,1,1,True,55,56,
4042,1,0,4031353,0.0,3.987060546875,-8.680679321289062,24.209999084472656,991.9837646484375,0.005444041453301907,23.691539764404297,62.571144104003906,1.1566965579986572,28.309999465942383,0.9123299717903137,-0.14714999496936798,9.721710205078125,0.41999998688697815,-0.49000000953674316,0.14000000059604645,-0.7878212332725525,-5.239200592041016,-179.08587646484375,0,1,7,92,47700,2015,10,18,0,0,47,240,4294967295,700000000,0,0,4,0,0,0,0,-17000,4294967295,3750000128,0,0,0,0,0,20000,18000000,9999,,0,,0.0,172.77099609375,-164.2236328125,24.209999084472656,992.04296875,0.0,23.691539764404297,62.571144104003906,1.225000023841858,28.309999465942383,0.9123299717903137,-0.14714999496936798,9.721710205078125,0.41999998688697815,-0.49000000953674316,0.14000000059604645,-0.7878212332725525,-5.239200592041016,-179.08587646484375,0,1,7,92,47700,2015,10,18,0,0,47,240,4294967295,700000000,0,0,4,0,0,0,0,-17000,4294967295,3750000128,0,0,0,0,0,20000,18000000,9999,,0,,0.0,0.0,0.0,74,1133,3725,True,True,True,True,True,1,-168.783935546875,155.54295349121094,1.0,0.0,1.0,False,991.9840698242188,0.0,0.05000000074505806,True,0.0,0.0,0.0,0.0,0.0,0.0,0.0,0.0,0.0,1.0,1.0,False,False,False,False,False,False,False,False,False,False,False,False,False,False,False,False,False,False,False,False,False,False,False,False,False,False,False,False,False,False,False,False,False,False,False,False,False,False,False,False,False,False,False,False,False,False,False,False,False,False,False,-0.0,0.0,-0.0,0.0,True,1,1,True,54,56,
4102,1,0,4072189,-0.01666666753590107,4.009033203125,-8.658706665039062,24.170000076293945,991.9896240234375,-0.048994168639183044,23.678186416625977,62.569618225097656,1.1567622423171997,28.309999465942383,0.8730900287628174,-0.17657999694347382,9.711899757385254,0.2800000011920929,-0.49000000953674316,0.2800000011920929,-0.9155569076538086,-5.231342792510986,-179.06275939941406,0,1,7,92,47800,2015,10,18,0,0,47,240,4294967295,800000000,0,0,4,0,0,0,0,-17000,4294967295,3750000128,0,0,0,0,0,20000,18000000,9999,,0,,-0.01666666753590107,172.79296875,-164.20166015625,24.170000076293945,991.98583984375,0.0,23.678186416625977,62.569618225097656,1.225000023841858,28.309999465942383,0.8730900287628174,-0.17657999694347382,9.711899757385254,0.2800000011920929,-0.49000000953674316,0.2800000011920929,-0.9155569076538086,-5.231342792510986,-179.06275939941406,0,1,7,92,47800,2015,10,18,0,0,47,240,4294967295,800000000,0,0,4,0,0,0,0,-17000,4294967295,3750000128,0,0,0,0,0,20000,18000000,9999,,0,,0.0,0.0,0.0,74,1134,3725,True,True,True,True,True,1,-168.783935546875,155.54295349121094,1.0,0.0,1.0,False,991.9840698242188,0.0,0.05000000074505806,True,0.0,0.0,0.0,0.0,0.0,0.0,0.0,0.0,0.0,1.0,1.0,False,False,False,False,False,False,False,False,False,False,False,False,False,False,False,False,False,False,False,False,False,False,False,False,False,False,False,False,False,False,False,False,False,False,False,False,False,False,False,False,False,False,False,False,False,False,False,False,False,False,False,0.16975295543670654,-0.0352320671081543,0.045498643070459366,-0.07044213265180588,True,1,1,True,55,56,
4162,1,0,4155592,-0.01666666753590107,3.987060546875,-8.724624633789062,24.184999465942383,991.9869384765625,-0.027213839814066887,23.62211036682129,62.621498107910156,1.1569983959197998,28.31999969482422,0.8927099704742432,-0.12752999365329742,9.760950088500977,0.41999998688697815,-0.699999988079071,-0.07000000029802322,-0.8069422245025635,-5.156238555908203,-179.06344604492188,0,1,7,92,47800,2015,10,18,0,0,47,240,4294967295,800000000,0,0,4,0,0,0,0,-17000,4294967295,3750000128,0,0,0,0,0,20000,18000000,9999,,0,,-0.01666666753590107,172.77099609375,-164.267578125,24.184999465942383,991.983154296875,0.0,23.62211036682129,62.621498107910156,1.225000023841858,28.31999969482422,0.8927099704742432,-0.12752999365329742,9.760950088500977,0.41999998688697815,-0.699999988079071,-0.07000000029802322,-0.8069422245025635,-5.156238555908203,-179.06344604492188,0,1,7,92,47800,2015,10,18,0,0,47,240,4294967295,800000000,0,0,4,0,0,0,0,-17000,4294967295,3750000128,0,0,0,0,0,20000,18000000,9999,,0,,0.0,0.0,0.0,74,1134,3726,True,True,True,True,True,1,-168.783935546875,155.54295349121094,1.0,0.0,1.0,False,991.9840698242188,0.0,0.05000000074505806,True,0.0,0.0,0.0,0.0,0.0,0.0,0.0,0.0,0.0,1.0,1.0,False,False,False,False,False,False,False,False,False,False,False,False,False,False,False,False,False,False,False,False,False,False,False,False,False,False,False,False,False,False,False,False,False,False,False,False,False,False,False,False,False,False,False,False,False,False,False,False,False,False,False,0.1697356253862381,-0.04945077747106552,0.049299683421850204,-0.07141464948654175,True,1,1,True,54,56,
4222,1,0,4197179,-0.01666666753590107,3.987060546875,-8.680679321289062,24.219999313354492,991.9833984375,0.005444874055683613,23.736934661865234,62.578773498535156,1.1564961671829224,28.31999969482422,0.9123299717903137,-0.15695999562740326,9.751139640808105,0.41999998688697815,-0.5600000023841858,-0.14000000059604645,-0.9160428047180176,-5.358270645141602,-179.05270385742188,0,1,7,92,47900,2015,10,18,0,0,47,240,4294967295,899999999,0,0,4,0,0,0,0,-17000,4294967295,3750000128,0,0,0,0,0,20000,18000000,9999,,0,,-0.01666666753590107,172.77099609375,-164.2236328125,24.219999313354492,991.939697265625,0.0,23.736934661865234,62.578773498535156,1.225000023841858,28.31999969482422,0.9123299717903137,-0.15695999562740326,9.751139640808105,0.41999998688697815,-0.5600000023841858,-0.14000000059604645,-0.9160428047180176,-5.358270645141602,-179.05270385742188,0,1,7,92,47900,2015,10,18,0,0,47,240,4294967295,899999999,0,0,4,0,0,0,0,-17000,4294967295,3750000128,0,0,0,0,0,20000,18000000,9999,,0,,0.0,0.0,0.0,76,1134,3725,True,True,True,True,True,1,-168.783935546875,155.54295349121094,1.0,0.0,1.0,False,991.9840698242188,0.0,0.05000000074505806,True,0.0,0.0,0.0,0.0,0.0,0.0,0.0,0.0,0.0,1.0,1.0,False,False,False,False,False,False,False,False,False,False,False,False,False,False,False,False,False,False,False,False,False,False,False,False,False,False,False,False,False,False,False,False,False,False,False,False,False,False,False,False,False,False,False,False,False,False,False,False,False,False,False,0.16977247595787048,-0.0448165237903595,0.04425514489412308,-0.06832896173000336,True,1,1,True,54,56,
4282,1,0,4279976,-0.01666666753590107,3.965087890625,-8.724624633789062,24.184999465942383,991.982421875,0.01088553573936224,23.62211036682129,62.484169006347656,1.1570109128952026,28.31999969482422,0.8927099704742432,-0.1373399943113327,9.760950088500977,0.41999998688697815,-0.2800000011920929,0.14000000059604645,-0.8133547902107239,-5.239330291748047,-179.05262756347656,0,1,7,92,48000,2015,10,18,0,0,48,240,4294967295,0,0,0,4,0,0,0,0,-17000,4294967295,3750000128,0,0,0,0,0,20000,18000000,9999,,0,,-0.01666666753590107,172.7490234375,-164.267578125,24.184999465942383,991.9521484375,0.0,23.62211036682129,62.484169006347656,1.225000023841858,28.31999969482422,0.8927099704742432,-0.1373399943113327,9.760950088500977,0.41999998688697815,-0.2800000011920929,0.14000000059604645,-0.8133547902107239,-5.239330291748047,-179.05262756347656,0,1,7,92,48000,2015,10,18,0,0,48,240,4294967295,0,0,0,4,0,0,0,0,-17000,4294967295,3750000128,0,0,0,0,0,20000,18000000,9999,,0,,0.0,0.0,0.0,78,1134,3724,True,True,True,True,True,1,-168.783935546875,155.54295349121094,1.0,0.0,1.0,False,991.9840698242188,0.0,0.05000000074505806,True,0.0,0.0,0.0,0.0,0.0,0.0,0.0,0.0,0.0,1.0,1.0,False,False,False,False,False,False,False,False,False,False,False,False,False,False,False,False,False,False,False,False,False,False,False,False,False,False,False,False,False,False,False,False,False,False,False,False,False,False,False,False,False,False,False,False,False,False,False,False,False,False,False,0.16973470151424408,-0.05203592777252197,0.048822157084941864,-0.07051746547222137,True,1,1,True,53,56,
4342,1,0,4321413,-0.01666666753590107,3.943115234375,-8.636734008789062,24.225000381469727,991.9854736328125,-0.013612796552479267,23.750286102294922,62.571144104003906,1.1564409732818604,28.329999923706055,0.9221400022506714,-0.12752999365329742,9.770759582519531,0.8399999737739563,-0.41999998688697815,0.14000000059604645,-0.7333994507789612,-5.52510404586792,-179.0508270263672,0,1,7,92,48000,2015,10,18,0,0,48,240,4294967295,0,0,0,4,0,0,0,0,-17000,4294967295,3750000128,0,0,0,0,0,20000,18000000,9999,,0,,-0.01666666753590107,172.72705078125,-164.1796875,24.225000381469727,991.96875,0.0,23.750286102294922,62.571144104003906,1.225000023841858,28.329999923706055,0.9221400022506714,-0.12752999365329742,9.770759582519531,0.8399999737739563,-0.41999998688697815,0.14000000059604645,-0.7333994507789612,-5.52510404586792,-179.0508270263672,0,1,7,92,48000,2015,10,18,0,0,48,240,4294967295,0,0,0,4,0,0,0,0,-17000,4294967295,3750000128,0,0,0,0,0,20000,18000000,9999,,0,,0.0,0.0,0.0,73,1131,3726,True,True,True,True,True,1,-168.783935546875,155.54295349121094,1.0,0.0,1.0,False,991.9840698242188,0.0,0.05000000074505806,True,0.0,0.0,0.0,0.0,0.0,0.0,0.0,0.0,0.0,1.0,1.0,False,False,False,False,False,False,False,False,False,False,False,False,False,False,False,False,False,False,False,False,False,False,False,False,False,False,False,False,False,False,False,False,False,False,False,False,False,False,False,False,False,False,False,False,False,False,False,False,False,False,False,0.1697765290737152,-0.06347660720348358,0.05972689390182495,-0.05155891552567482,True,1,1,True,54,56,
4402,1,0,4362853,-0.01666666753590107,4.052978515625,-8.768569946289062,24.225000381469727,991.9813232421875,0.021780475974082947,23.750286102294922,62.603187561035156,1.1564319133758545,28.329999923706055,0.8828999996185303,-0.14714999496936798,9.770759582519531,0.49000000953674316,-0.6299999952316284,0.20999999344348907,-0.8329358100891113,-5.192104816436768,-179.0228729248047,0,1,7,92,48100,2015,10,18,0,0,48,240,4294967295,100000000,0,0,4,0,0,0,0,-17000,4294967295,3750000128,0,0,0,0,0,20000,18000000,9999,,0,,-0.01666666753590107,172.8369140625,-164.3115234375,24.225000381469727,991.994384765625,0.0,23.750286102294922,62.603187561035156,1.225000023841858,28.329999923706055,0.8828999996185303,-0.14714999496936798,9.770759582519531,0.49000000953674316,-0.6299999952316284,0.20999999344348907,-0.8329358100891113,-5.192104816436768,-179.0228729248047,0,1,7,92,48100,2015,10,18,0,0,48,240,4294967295,100000000,0,0,4,0,0,0,0,-17000,4294967295,3750000128,0,0,0,0,0,20000,18000000,9999,,0,,0.0,0.0,0.0,75,1133,3726,True,True,True,True,True,1,-168.783935546875,155.54295349121094,1.0,0.0,1.0,False,991.9840698242188,0.0,0.05000000074505806,True,0.0,0.0,0.0,0.0,0.0,0.0,0.0,0.0,0.0,1.0,1.0,False,False,False,False,False,False,False,False,False,False,False,False,False,False,False,False,False,False,False,False,False,False,False,False,False,False,False,False,False,False,False,False,False,False,False,False,False,False,False,False,False,False,False,False,False,False,False,False,False,False,False,0.16977719962596893,-0.05394617095589638,0.03600919619202614,-0.06177259609103203,True,1,1,True,55,56,
4463,1,0,4445977,-0.01666666753590107,4.009033203125,-8.724624633789062,24.184999465942383,991.9852294921875,-0.010890237987041473,23.750286102294922,62.612342834472656,1.1564353704452515,28.329999923706055,0.9123299717903137,-0.1373399943113327,9.760950088500977,0.3499999940395355,-0.14000000059604645,-0.07000000029802322,-0.7936877012252808,-5.445303440093994,-179.01797485351562,0,1,7,92,48100,2015,10,18,0,0,48,240,4294967295,100000000,0,0,4,0,0,0,0,-17000,4294967295,3750000128,0,0,0,0,0,20000,18000000,9999,,0,,-0.01666666753590107,172.79296875,-164.267578125,24.184999465942383,991.9951171875,0.0,23.750286102294922,62.612342834472656,1.225000023841858,28.329999923706055,0.9123299717903137,-0.1373399943113327,9.760950088500977,0.3499999940395355,-0.14000000059604645,-0.07000000029802322,-0.7936877012252808,-5.445303440093994,-179.01797485351562,0,1,7,92,48100,2015,10,18,0,0,48,240,4294967295,100000000,0,0,4,0,0,0,0,-17000,4294967295,3750000128,0,0,0,0,0,20000,18000000,9999,,0,,0.0,0.0,0.0,75,1135,3727,True,True,True,True,True,1,-168.783935546875,155.54295349121094,1.0,0.0,1.0,False,991.9840698242188,0.0,0.05000000074505806,True,0.0,0.0,0.0,0.0,0.0,0.0,0.0,0.0,0.0,1.0,1.0,False,False,False,False,False,False,False,False,False,False,False,False,False,False,False,False,False,False,False,False,False,False,False,False,False,False,False,False,False,False,False,False,False,False,False,False,False,False,False,False,False,False,False,False,False,False,False,False,False,False,False,0.16977694630622864,-0.06385625898838043,0.042107827961444855,-0.04970534145832062,True,1,1,True,54,56,
4523,1,0,4487503,-0.01666666753590107,4.009033203125,-8.658706665039062,24.2450008392334,991.9907836914062,-0.0598844550549984,23.691539764404297,62.539100646972656,1.15670907497406,28.329999923706055,0.8927099704742432,-0.1373399943113327,9.760950088500977,0.3499999940395355,-0.14000000059604645,0.2800000011920929,-0.8655580282211304,-5.264738082885742,-178.99969482421875,0,1,7,92,48200,2015,10,18,0,0,48,240,4294967295,200000000,0,0,4,0,0,0,0,-17000,4294967295,3750000128,0,0,0,0,0,20000,18000000,9999,,0,,-0.01666666753590107,172.79296875,-164.20166015625,24.2450008392334,992.058349609375,0.0,23.691539764404297,62.539100646972656,1.225000023841858,28.329999923706055,0.8927099704742432,-0.1373399943113327,9.760950088500977,0.3499999940395355,-0.14000000059604645,0.2800000011920929,-0.8655580282211304,-5.264738082885742,-178.99969482421875,0,1,7,92,48200,2015,10,18,0,0,48,240,4294967295,200000000,0,0,4,0,0,0,0,-17000,4294967295,3750000128,0,0,0,0,0,20000,18000000,9999,,0,,0.0,0.0,0.0,77,1132,3726,True,True,True,True,True,1,-168.783935546875,155.54295349121094,1.0,0.0,1.0,False,991.9840698242188,0.0,0.05000000074505806,True,0.0,0.0,0.0,0.0,0.0,0.0,0.0,0.0,0.0,1.0,1.0,False,False,False,False,False,False,False,False,False,False,False,False,False,False,False,False,False,False,False,False,False,False,False,False,False,False,False,False,False,False,False,False,False,False,False,False,False,False,False,False,False,False,False,False,False,False,False,False,False,False,False,0.16975684463977814,-0.034995123744010925,0.04107216000556946,-0.06603722274303436,True,1,1,True,54,56,
4583,1,0,4570540,-0.01666666753590107,3.987060546875,-8.702651977539062,24.225000381469727,991.9899291992188,-0.05172862857580185,23.750286102294922,62.539100646972656,1.1564503908157349,28.34000015258789,0.8730900287628174,-0.07847999781370163,9.721710205078125,0.3499999940395355,-0.3499999940395355,0.3499999940395355,-0.39083513617515564,-5.280779838562012,-179.01983642578125,0,1,7,92,48300,2015,10,18,0,0,48,240,4294967295,300000000,0,0,4,0,0,0,0,-17000,4294967295,3750000128,0,0,0,0,0,20000,18000000,9999,,0,,-0.01666666753590107,172.77099609375,-164.24560546875,24.225000381469727,991.927978515625,0.0,23.750286102294922,62.539100646972656,1.225000023841858,28.34000015258789,0.8730900287628174,-0.07847999781370163,9.721710205078125,0.3499999940395355,-0.3499999940395355,0.3499999940395355,-0.39083513617515564,-5.280779838562012,-179.01983642578125,0,1,7,92,48300,2015,10,18,0,0,48,240,4294967295,300000000,0,0,4,0,0,0,0,-17000,4294967295,3750000128,0,0,0,0,0,20000,18000000,9999,,0,,0.0,0.0,0.0,72,1134,3725,True,True,True,True,True,1,-168.783935546875,155.54295349121094,1.0,0.0,1.0,False,991.9840698242188,0.0,0.05000000074505806,True,0.0,0.0,0.0,0.0,0.0,0.0,0.0,0.0,0.0,1.0,1.0,False,False,False,False,False,False,False,False,False,False,False,False,False,False,False,False,False,False,False,False,False,False,False,False,False,False,False,False,False,False,False,False,False,False,False,False,False,False,False,False,False,False,False,False,False,False,False,False,False,False,False,0.1697758436203003,-0.09039615839719772,0.06200915947556496,-0.03904707357287407,True,1,1,True,54,56,
4643,1,0,4612200,-0.01666666753590107,3.965087890625,-8.746597290039062,24.18000030517578,991.9913330078125,-0.06533496081829071,23.72091293334961,62.616920471191406,1.1565706729888916,28.350000381469727,0.9221400022506714,-0.16676999628543854,9.770759582519531,0.41999998688697815,-0.3499999940395355,0.20999999344348907,-1.0040794610977173,-5.392483711242676,-178.94940185546875,0,1,7,92,48300,2015,10,18,0,0,48,240,4294967295,300000000,0,0,4,0,0,0,0,-17000,4294967295,3750000128,0,0,0,0,0,20000,18000000,9999,,0,,-0.01666666753590107,172.7490234375,-164.28955078125,24.18000030517578,991.9951171875,0.0,23.72091293334961,62.616920471191406,1.225000023841858,28.350000381469727,0.9221400022506714,-0.16676999628543854,9.770759582519531,0.41999998688697815,-0.3499999940395355,0.20999999344348907,-1.0040794610977173,-5.392483711242676,-178.94940185546875,0,1,7,92,48300,2015,10,18,0,0,48,240,4294967295,300000000,0,0,4,0,0,0,0,-17000,4294967295,3750000128,0,0,0,0,0,20000,18000000,9999,,0,,0.0,0.0,0.0,71,1133,3726,True,True,True,True,True,1,-168.783935546875,155.54295349121094,1.0,0.0,1.0,False,991.9840698242188,0.0,0.05000000074505806,True,0.0,0.0,0.0,0.0,0.0,0.0,0.0,0.0,0.0,1.0,1.0,False,False,False,False,False,False,False,False,False,False,False,False,False,False,False,False,False,False,False,False,False,False,False,False,False,False,False,False,False,False,False,False,False,False,False,False,False,False,False,False,False,False,False,False,False,False,False,False,False,False,False,0.16976700723171234,-0.034522127360105515,0.022678131237626076,-0.07552772015333176,True,1,1,True,54,56,
4703,1,0,4695600,-0.01666666753590107,4.009033203125,-8.702651977539062,24.225000381469727,991.991943359375,-0.0680670440196991,23.76363754272461,62.574195861816406,1.156389594078064,28.360000610351562,0.9123299717903137,-0.16676999628543854,9.751139640808105,0.3499999940395355,-0.6299999952316284,0.20999999344348907,-0.9280332922935486,-5.44116735458374,-178.9405517578125,0,1,7,92,48400,2015,10,18,0,0,48,240,4294967295,399999999,0,0,4,0,0,0,0,-17000,4294967295,3750000128,0,0,0,0,0,20000,18000000,9999,,0,,-0.01666666753590107,172.79296875,-164.24560546875,24.225000381469727,992.00048828125,0.0,23.76363754272461,62.574195861816406,1.225000023841858,28.360000610351562,0.9123299717903137,-0.16676999628543854,9.751139640808105,0.3499999940395355,-0.6299999952316284,0.20999999344348907,-0.9280332922935486,-5.44116735458374,-178.9405517578125,0,1,7,92,48400,2015,10,18,0,0,48,240,4294967295,399999999,0,0,4,0,0,0,0,-17000,4294967295,3750000128,0,0,0,0,0,20000,18000000,9999,,0,,0.0,0.0,0.0,76,1134,3725,True,True,True,True,True,1,-168.783935546875,155.54295349121094,1.0,0.0,1.0,False,991.9840698242188,0.0,0.05000000074505806,True,0.0,0.0,0.0,0.0,0.0,0.0,0.0,0.0,0.0,1.0,1.0,False,False,False,False,False,False,False,False,False,False,False,False,False,False,False,False,False,False,False,False,False,False,False,False,False,False,False,False,False,False,False,False,False,False,False,False,False,False,False,False,False,False,False,False,False,False,False,False,False,False,False,0.16978029906749725,-0.038768719881772995,0.02589775249361992,-0.06137459725141525,True,1,1,True,54,56,
4763,1,0,4736979,-0.01666666753590107,3.987060546875,-8.702651977539062,24.174999237060547,991.9945678710938,-0.09252705425024033,23.62211036682129,62.516212463378906,1.1570210456848145,28.360000610351562,0.9123299717903137,-0.10790999978780746,9.751139640808105,0.41999998688697815,-0.2800000011920929,0.14000000059604645,-0.5895442366600037,-5.380774021148682,-178.9607696533203,0,1,7,92,48400,2015,10,18,0,0,48,240,4294967295,399999999,0,0,4,0,0,0,0,-17000,4294967295,3750000128,0,0,0,0,0,20000,18000000,9999,,0,,-0.01666666753590107,172.77099609375,-164.24560546875,24.174999237060547,992.061767578125,0.0,23.62211036682129,62.516212463378906,1.225000023841858,28.360000610351562,0.9123299717903137,-0.10790999978780746,9.751139640808105,0.41999998688697815,-0.2800000011920929,0.14000000059604645,-0.5895442366600037,-5.380774021148682,-178.9607696533203,0,1,7,92,48400,2015,10,18,0,0,48,240,4294967295,399999999,0,0,4,0,0,0,0,-17000,4294967295,3750000128,0,0,0,0,0,20000,18000000,9999,,0,,0.0,0.0,0.0,76,1134,3725,True,True,True,True,True,1,-168.783935546875,155.54295349121094,1.0,0.0,1.0,False,991.9840698242188,0.0,0.05000000074505806,True,0.0,0.0,0.0,0.0,0.0,0.0,0.0,0.0,0.0,1.0,1.0,False,False,False,False,False,False,False,False,False,False,False,False,False,False,False,False,False,False,False,False,False,False,False,False,False,False,False,False,False,False,False,False,False,False,False,False,False,False,False,False,False,False,False,False,False,False,False,False,False,False,False,0.16973397135734558,-0.06895472854375839,0.04666092246770859,-0.04286273941397667,True,1,1,True,55,56,
4824,1,0,4820109,-0.01666666753590107,3.965087890625,-8.636734008789062,24.184999465942383,991.9935302734375,-0.08438263833522797,23.691539764404297,62.612342834472656,1.1567027568817139,28.360000610351562,0.8828999996185303,-0.14714999496936798,9.74133014678955,0.0,-0.41999998688697815,0.14000000059604645,-0.8458584547042847,-5.309521198272705,-178.93496704101562,0,1,7,92,48500,2015,10,18,0,0,48,240,4294967295,500000000,0,0,4,0,0,0,0,-17000,4294967295,3750000128,0,0,0,0,0,20000,18000000,9999,,0,,-0.01666666753590107,172.7490234375,-164.1796875,24.184999465942383,991.995361328125,0.0,23.691539764404297,62.612342834472656,1.225000023841858,28.360000610351562,0.8828999996185303,-0.14714999496936798,9.74133014678955,0.0,-0.41999998688697815,0.14000000059604645,-0.8458584547042847,-5.309521198272705,-178.93496704101562,0,1,7,92,48500,2015,10,18,0,0,48,240,4294967295,500000000,0,0,4,0,0,0,0,-17000,4294967295,3750000128,0,0,0,0,0,20000,18000000,9999,,0,,0.0,0.0,0.0,76,1134,3725,True,True,True,True,True,1,-168.783935546875,155.54295349121094,1.0,0.0,1.0,False,991.9840698242188,0.0,0.05000000074505806,True,0.0,0.0,0.0,0.0,0.0,0.0,0.0,0.0,0.0,1.0,1.0,False,False,False,False,False,False,False,False,False,False,False,False,False,False,False,False,False,False,False,False,False,False,False,False,False,False,False,False,False,False,False,False,False,False,False,False,False,False,False,False,False,False,False,False,False,False,False,False,False,False,False,0.16975732147693634,-0.02662735804915428,0.03898218274116516,-0.06897440552711487,True,1,1,True,54,56,
4884,1,0,4861499,-0.01666666753590107,3.987060546875,-8.702651977539062,24.235000610351562,991.9905395507812,-0.05714597925543785,23.606088638305664,62.62913131713867,1.1570719480514526,28.360000610351562,0.9025200009346008,-0.12752999365329742,9.760950088500977,0.3499999940395355,-0.699999988079071,0.07000000029802322,-0.5982361435890198,-5.242062091827393,-178.95431518554688,0,1,7,92,48600,2015,10,18,0,0,48,240,4294967295,600000000,0,0,4,0,0,0,0,-17000,4294967295,3750000128,0,0,0,0,0,20000,18000000,9999,,0,,-0.01666666753590107,172.77099609375,-164.24560546875,24.235000610351562,991.9697265625,0.0,23.606088638305664,62.62913131713867,1.225000023841858,28.360000610351562,0.9025200009346008,-0.12752999365329742,9.760950088500977,0.3499999940395355,-0.699999988079071,0.07000000029802322,-0.5982361435890198,-5.242062091827393,-178.95431518554688,0,1,7,92,48600,2015,10,18,0,0,48,240,4294967295,600000000,0,0,4,0,0,0,0,-17000,4294967295,3750000128,0,0,0,0,0,20000,18000000,9999,,0,,0.0,0.0,0.0,78,1134,3725,True,True,True,True,True,1,-168.783935546875,155.54295349121094,1.0,0.0,1.0,False,991.9840698242188,0.0,0.05000000074505806,True,0.0,0.0,0.0,0.0,0.0,0.0,0.0,0.0,0.0,1.0,1.0,False,False,False,False,False,False,False,False,False,False,False,False,False,False,False,False,False,False,False,False,False,False,False,False,False,False,False,False,False,False,False,False,False,False,False,False,False,False,False,False,False,False,False,False,False,False,False,False,False,False,False,0.16973023116588593,-0.060593169182538986,0.04618989676237106,-0.05430120974779129,True,1,1,True,55,56,
4944,1,0,4903104,-0.01666666753590107,4.031005859375,-8.702651977539062,24.18000030517578,991.9907836914062,-0.05988176167011261,23.678186416625977,62.69474411010742,1.1567473411560059,28.3700008392334,0.9025200009346008,-0.12752999365329742,9.751139640808105,0.41999998688697815,-0.699999988079071,0.14000000059604645,-0.7639155387878418,-5.393540382385254,-178.9347686767578,0,1,7,92,48600,2015,10,18,0,0,48,240,4294967295,600000000,0,0,4,0,0,0,0,-17000,4294967295,3750000128,0,0,0,0,0,20000,18000000,9999,,0,,-0.01666666753590107,172.81494140625,-164.24560546875,24.18000030517578,992.013671875,0.0,23.678186416625977,62.69474411010742,1.225000023841858,28.3700008392334,0.9025200009346008,-0.12752999365329742,9.751139640808105,0.41999998688697815,-0.699999988079071,0.14000000059604645,-0.7639155387878418,-5.393540382385254,-178.9347686767578,0,1,7,92,48600,2015,10,18,0,0,48,240,4294967295,600000000,0,0,4,0,0,0,0,-17000,4294967295,3750000128,0,0,0,0,0,20000,18000000,9999,,0,,0.0,0.0,0.0,76,1132,3727,True,True,True,True,True,1,-168.783935546875,155.54295349121094,1.0,0.0,1.0,False,991.9840698242188,0.0,0.05000000074505806,True,0.0,0.0,0.0,0.0,0.0,0.0,0.0,0.0,0.0,1.0,1.0,False,False,False,False,False,False,False,False,False,False,False,False,False,False,False,False,False,False,False,False,False,False,False,False,False,False,False,False,False,False,False,False,False,False,False,False,False,False,False,False,False,False,False,False,False,False,False,False,False,False,False,0.1697540432214737,-0.05121857300400734,0.03205754980444908,-0.04812566190958023,True,1,1,True,53,56,
5004,1,0,4986206,-0.01666666753590107,3.987060546875,-8.702651977539062,24.239999771118164,991.9921875,-0.07076235115528107,23.648813247680664,62.64744186401367,1.1568840742111206,28.3700008392334,0.9123299717903137,-0.1373399943113327,9.760950088500977,0.5600000023841858,-0.49000000953674316,0.20999999344348907,-0.8457030653953552,-5.223943710327148,-178.9087371826172,0,1,7,92,48700,2015,10,18,0,0,48,240,4294967295,700000000,0,0,4,0,0,0,0,-17000,4294967295,3750000128,0,0,0,0,0,20000,18000000,9999,,0,,-0.01666666753590107,172.77099609375,-164.24560546875,24.239999771118164,992.016357421875,0.0,23.648813247680664,62.64744186401367,1.225000023841858,28.3700008392334,0.9123299717903137,-0.1373399943113327,9.760950088500977,0.5600000023841858,-0.49000000953674316,0.20999999344348907,-0.8457030653953552,-5.223943710327148,-178.9087371826172,0,1,7,92,48700,2015,10,18,0,0,48,240,4294967295,700000000,0,0,4,0,0,0,0,-17000,4294967295,3750000128,0,0,0,0,0,20000,18000000,9999,,0,,0.0,0.0,0.0,78,1133,3726,True,True,True,True,True,1,-168.783935546875,155.54295349121094,1.0,0.0,1.0,False,991.9840698242188,0.0,0.05000000074505806,True,0.0,0.0,0.0,0.0,0.0,0.0,0.0,0.0,0.0,1.0,1.0,False,False,False,False,False,False,False,False,False,False,False,False,False,False,False,False,False,False,False,False,False,False,False,False,False,False,False,False,False,False,False,False,False,False,False,False,False,False,False,False,False,False,False,False,False,False,False,False,False,False,False,0.16974401473999023,-0.027809809893369675,0.029476847499608994,-0.07000729441642761,True,1,1,True,54,56,
5064,1,0,5027652,0.0,3.965087890625,-8.658706665039062,24.2450008392334,991.9906005859375,-0.05717117711901665,23.736934661865234,62.537574768066406,1.1565098762512207,28.3799991607666,0.9025200009346008,-0.1373399943113327,9.770759582519531,0.41999998688697815,-0.49000000953674316,0.41999998688697815,-0.755163311958313,-5.251915454864502,-178.89952087402344,0,1,7,92,48700,2015,10,18,0,0,48,240,4294967295,700000000,0,0,4,0,0,0,0,-17000,4294967295,3750000128,0,0,0,0,0,20000,18000000,9999,,0,,0.0,172.7490234375,-164.20166015625,24.2450008392334,991.997314453125,0.0,23.736934661865234,62.537574768066406,1.225000023841858,28.3799991607666,0.9025200009346008,-0.1373399943113327,9.770759582519531,0.41999998688697815,-0.49000000953674316,0.41999998688697815,-0.755163311958313,-5.251915454864502,-178.89952087402344,0,1,7,92,48700,2015,10,18,0,0,48,240,4294967295,700000000,0,0,4,0,0,0,0,-17000,4294967295,3750000128,0,0,0,0,0,20000,18000000,9999,,0,,0.0,0.0,0.0,76,1133,3726,True,True,True,True,True,1,-168.783935546875,155.54295349121094,1.0,0.0,1.0,False,991.9840698242188,0.0,0.05000000074505806,True,0.0,0.0,0.0,0.0,0.0,0.0,0.0,0.0,0.0,1.0,1.0,False,False,False,False,False,False,False,False,False,False,False,False,False,False,False,False,False,False,False,False,False,False,False,False,False,False,False,False,False,False,False,False,False,False,False,False,False,False,False,False,False,False,False,False,False,False,False,False,False,False,False,-0.0,0.0,0.0,0.0,True,1,1,True,55,56,
5124,1,0,5110637,0.0,3.921142578125,-8.702651977539062,24.21500015258789,991.987060546875,-0.027225593104958534,23.750286102294922,62.624549865722656,1.1564358472824097,28.3799991607666,0.8828999996185303,-0.05886000022292137,9.73151969909668,0.5600000023841858,-0.49000000953674316,0.20999999344348907,-0.4925110638141632,-5.232218265533447,-178.9163818359375,0,1,7,92,48800,2015,10,18,0,0,48,240,4294967295,800000000,0,0,4,0,0,0,0,-17000,4294967295,3750000128,0,0,0,0,0,20000,18000000,9999,,0,,0.0,172.705078125,-164.24560546875,24.21500015258789,991.94677734375,0.0,23.750286102294922,62.624549865722656,1.225000023841858,28.3799991607666,0.8828999996185303,-0.05886000022292137,9.73151969909668,0.5600000023841858,-0.49000000953674316,0.20999999344348907,-0.4925110638141632,-5.232218265533447,-178.9163818359375,0,1,7,92,48800,2015,10,18,0,0,48,240,4294967295,800000000,0,0,4,0,0,0,0,-17000,4294967295,3750000128,0,0,0,0,0,20000,18000000,9999,,0,,0.0,0.0,0.0,79,1134,3726,True,True,True,True,True,1,-168.783935546875,155.54295349121094,1.0,0.0,1.0,False,991.9840698242188,0.0,0.05000000074505806,True,0.0,0.0,0.0,0.0,0.0,0.0,0.0,0.0,0.0,1.0,1.0,False,False,False,False,False,False,False,False,False,False,False,False,False,False,False,False,False,False,False,False,False,False,False,False,False,False,False,False,False,False,False,False,False,False,False,False,False,False,False,False,False,False,False,False,False,False,False,False,False,False,False,-0.0,0.0,0.0,0.0,True,1,1,True,53,56,
5184,1,0,5152042,-0.01666666753590107,4.009033203125,-8.658706665039062,24.225000381469727,991.9910888671875,-0.06259746104478836,23.648813247680664,62.542152404785156,1.1568963527679443,28.3799991607666,0.9123299717903137,-0.1373399943113327,9.74133014678955,0.49000000953674316,-0.2800000011920929,0.14000000059604645,-0.8015746474266052,-5.355518341064453,-178.87371826171875,0,1,7,92,48900,2015,10,18,0,0,48,240,4294967295,899999999,0,0,4,0,0,0,0,-17000,4294967295,3750000128,0,0,0,0,0,20000,18000000,9999,,0,,-0.01666666753590107,172.79296875,-164.20166015625,24.225000381469727,992.004638671875,0.0,23.648813247680664,62.542152404785156,1.225000023841858,28.3799991607666,0.9123299717903137,-0.1373399943113327,9.74133014678955,0.49000000953674316,-0.2800000011920929,0.14000000059604645,-0.8015746474266052,-5.355518341064453,-178.87371826171875,0,1,7,92,48900,2015,10,18,0,0,48,240,4294967295,899999999,0,0,4,0,0,0,0,-17000,4294967295,3750000128,0,0,0,0,0,20000,18000000,9999,,0,,0.0,0.0,0.0,77,1134,3725,True,True,True,True,True,1,-168.783935546875,155.54295349121094,1.0,0.0,1.0,False,991.9840698242188,0.0,0.05000000074505806,True,0.0,0.0,0.0,0.0,0.0,0.0,0.0,0.0,0.0,1.0,1.0,False,False,False,False,False,False,False,False,False,False,False,False,False,False,False,False,False,False,False,False,False,False,False,False,False,False,False,False,False,False,False,False,False,False,False,False,False,False,False,False,False,False,False,False,False,False,False,False,False,False,False,0.1697431057691574,-0.031048644334077835,0.02790793590247631,-0.05718982219696045,True,1,1,True,55,56,
5245,1,0,5235650,-0.01666666753590107,3.987060546875,-8.768569946289062,24.200000762939453,991.9883422851562,-0.03811583295464516,23.750286102294922,62.580299377441406,1.1564432382583618,28.389999389648438,0.9417600035667419,-0.14714999496936798,9.770759582519531,0.49000000953674316,-0.2800000011920929,0.14000000059604645,-0.860251247882843,-5.539947032928467,-178.8601531982422,0,1,7,92,48900,2015,10,18,0,0,48,240,4294967295,899999999,0,0,4,0,0,0,0,-17000,4294967295,3750000128,0,0,0,0,0,20000,18000000,9999,,0,,-0.01666666753590107,172.77099609375,-164.3115234375,24.200000762939453,991.934326171875,0.0,23.750286102294922,62.580299377441406,1.225000023841858,28.389999389648438,0.9417600035667419,-0.14714999496936798,9.770759582519531,0.49000000953674316,-0.2800000011920929,0.14000000059604645,-0.860251247882843,-5.539947032928467,-178.8601531982422,0,1,7,92,48900,2015,10,18,0,0,48,240,4294967295,899999999,0,0,4,0,0,0,0,-17000,4294967295,3750000128,0,0,0,0,0,20000,18000000,9999,,0,,0.0,0.0,0.0,77,1136,3727,True,True,True,True,True,1,-168.783935546875,155.54295349121094,1.0,0.0,1.0,False,991.9840698242188,0.0,0.05000000074505806,True,0.0,0.0,0.0,0.0,0.0,0.0,0.0,0.0,0.0,1.0,1.0,False,False,False,False,False,False,False,False,False,False,False,False,False,False,False,False,False,False,False,False,False,False,False,False,False,False,False,False,False,False,False,False,False,False,False,False,False,False,False,False,False,False,False,False,False,False,False,False,False,False,False,0.16977636516094208,-0.04790448024868965,0.012221114709973335,-0.05039512366056442,True,1,1,True,55,56,
5305,1,0,5276509,-0.01666666753590107,4.052978515625,-8.768569946289062,24.235000610351562,991.98291015625,0.010886025615036488,23.635461807250977,62.583351135253906,1.15693998336792,28.399999618530273,0.8927099704742432,-0.1373399943113327,9.760950088500977,0.20999999344348907,-0.49000000953674316,0.07000000029802322,-0.8187667727470398,-5.359127998352051,-178.86138916015625,0,1,7,92,49000,2015,10,18,0,0,49,240,4294967295,0,0,0,4,0,0,0,0,-17000,4294967295,3750000128,0,0,0,0,0,20000,18000000,9999,,0,,-0.01666666753590107,172.8369140625,-164.3115234375,24.235000610351562,991.9013671875,0.0,23.635461807250977,62.583351135253906,1.225000023841858,28.399999618530273,0.8927099704742432,-0.1373399943113327,9.760950088500977,0.20999999344348907,-0.49000000953674316,0.07000000029802322,-0.8187667727470398,-5.359127998352051,-178.86138916015625,0,1,7,92,49000,2015,10,18,0,0,49,240,4294967295,0,0,0,4,0,0,0,0,-17000,4294967295,3750000128,0,0,0,0,0,20000,18000000,9999,,0,,0.0,0.0,0.0,80,1134,3727,True,True,True,True,True,1,-168.783935546875,155.54295349121094,1.0,0.0,1.0,False,991.9840698242188,0.0,0.05000000074505806,True,0.0,0.0,0.0,0.0,0.0,0.0,0.0,0.0,0.0,1.0,1.0,False,False,False,False,False,False,False,False,False,False,False,False,False,False,False,False,False,False,False,False,False,False,False,False,False,False,False,False,False,False,False,False,False,False,False,False,False,False,False,False,False,False,False,False,False,False,False,False,False,False,False,0.16973991692066193,-0.04393073543906212,0.011580534279346466,-0.04992138594388962,True,1,1,True,55,56,
5365,1,0,5360047,-0.01666666753590107,3.987060546875,-8.592788696289062,24.219999313354492,991.9812622070312,0.021782629191875458,23.779659271240234,62.534523010253906,1.1563119888305664,28.399999618530273,0.8927099704742432,-0.11772000044584274,9.770759582519531,0.3499999940395355,-0.5600000023841858,0.07000000029802322,-0.6604623794555664,-5.197294235229492,-178.86643981933594,0,1,7,92,49000,2015,10,18,0,0,49,240,4294967295,0,0,0,4,0,0,0,0,-17000,4294967295,3750000128,0,0,0,0,0,20000,18000000,9999,,0,,-0.01666666753590107,172.77099609375,-164.1357421875,24.219999313354492,992.0126953125,0.0,23.779659271240234,62.534523010253906,1.225000023841858,28.399999618530273,0.8927099704742432,-0.11772000044584274,9.770759582519531,0.3499999940395355,-0.5600000023841858,0.07000000029802322,-0.6604623794555664,-5.197294235229492,-178.86643981933594,0,1,7,92,49000,2015,10,18,0,0,49,240,4294967295,0,0,0,4,0,0,0,0,-17000,4294967295,3750000128,0,0,0,0,0,20000,18000000,9999,,0,,0.0,0.0,0.0,83,1133,3727,True,True,True,True,True,1,-168.783935546875,155.54295349121094,1.0,0.0,1.0,False,991.9840698242188,0.0,0.05000000074505806,True,0.0,0.0,0.0,0.0,0.0,0.0,0.0,0.0,0.0,1.0,1.0,False,False,False,False,False,False,False,False,False,False,False,False,False,False,False,False,False,False,False,False,False,False,False,False,False,False,False,False,False,False,False,False,False,False,False,False,False,False,False,False,False,False,False,False,False,False,False,False,False,False,False,0.1697859913110733,-0.024902500212192535,0.04360443353652954,-0.059421736747026443,True,1,1,True,54,56,
5425,1,0,5401421,-0.01666666753590107,4.009033203125,-8.724624633789062,24.239999771118164,991.9797973632812,0.038112059235572815,23.72091293334961,62.606239318847656,1.1565585136413574,28.399999618530273,0.9221400022506714,-0.12752999365329742,9.721710205078125,0.3499999940395355,-0.14000000059604645,0.3499999940395355,-0.7325769066810608,-5.383251190185547,-178.8414306640625,0,1,7,92,49100,2015,10,18,0,0,49,240,4294967295,100000000,0,0,4,0,0,0,0,-17000,4294967295,3750000128,0,0,0,0,0,20000,18000000,9999,,0,,-0.01666666753590107,172.79296875,-164.267578125,24.239999771118164,991.96923828125,0.0,23.72091293334961,62.606239318847656,1.225000023841858,28.399999618530273,0.9221400022506714,-0.12752999365329742,9.721710205078125,0.3499999940395355,-0.14000000059604645,0.3499999940395355,-0.7325769066810608,-5.383251190185547,-178.8414306640625,0,1,7,92,49100,2015,10,18,0,0,49,240,4294967295,100000000,0,0,4,0,0,0,0,-17000,4294967295,3750000128,0,0,0,0,0,20000,18000000,9999,,0,,0.0,0.0,0.0,80,1133,3727,True,True,True,True,True,1,-168.783935546875,155.54295349121094,1.0,0.0,1.0,False,991.9840698242188,0.0,0.05000000074505806,True,0.0,0.0,0.0,0.0,0.0,0.0,0.0,0.0,0.0,1.0,1.0,False,False,False,False,False,False,False,False,False,False,False,False,False,False,False,False,False,False,False,False,False,False,False,False,False,False,False,False,False,False,False,False,False,False,False,False,False,False,False,False,False,False,False,False,False,False,False,False,False,False,False,0.16976790130138397,-0.0438808910548687,0.019615715369582176,-0.04942450299859047,True,1,1,True,54,56,
5485,1,0,5484434,-0.01666666753590107,3.987060546875,-8.746597290039062,24.229999542236328,991.9818725585938,0.016333740204572678,23.72091293334961,62.566566467285156,1.1565662622451782,28.40999984741211,0.9025200009346008,-0.1373399943113327,9.751139640808105,0.7699999809265137,-0.6299999952316284,0.2800000011920929,-0.7923517823219299,-5.306863307952881,-178.8221435546875,0,1,7,92,49200,2015,10,18,0,0,49,240,4294967295,200000000,0,0,4,0,0,0,0,-17000,4294967295,3750000128,0,0,0,0,0,20000,18000000,9999,,0,,-0.01666666753590107,172.77099609375,-164.28955078125,24.229999542236328,991.99755859375,0.0,23.72091293334961,62.566566467285156,1.225000023841858,28.40999984741211,0.9025200009346008,-0.1373399943113327,9.751139640808105,0.7699999809265137,-0.6299999952316284,0.2800000011920929,-0.7923517823219299,-5.306863307952881,-178.8221435546875,0,1,7,92,49200,2015,10,18,0,0,49,240,4294967295,200000000,0,0,4,0,0,0,0,-17000,4294967295,3750000128,0,0,0,0,0,20000,18000000,9999,,0,,0.0,0.0,0.0,80,1133,3726,True,True,True,True,True,1,-168.783935546875,155.54295349121094,1.0,0.0,1.0,False,991.9840698242188,0.0,0.05000000074505806,True,0.0,0.0,0.0,0.0,0.0,0.0,0.0,0.0,0.0,1.0,1.0,False,False,False,False,False,False,False,False,False,False,False,False,False,False,False,False,False,False,False,False,False,False,False,False,False,False,False,False,False,False,False,False,False,False,False,False,False,False,False,False,False,False,False,False,False,False,False,False,False,False,False,0.1697673350572586,-0.033446118235588074,0.014762084931135178,-0.06192625313997269,True,1,1,True,54,56,
5545,1,0,5526007,-0.01666666753590107,3.987060546875,-8.658706665039062,24.25,991.976806640625,0.06532849371433258,23.691539764404297,62.561988830566406,1.1566896438598633,28.40999984741211,0.8927099704742432,-0.1373399943113327,9.74133014678955,0.14000000059604645,-0.5600000023841858,0.3499999940395355,-0.8507215976715088,-5.098415374755859,-178.80572509765625,0,1,7,92,49200,2015,10,18,0,0,49,240,4294967295,200000000,0,0,4,0,0,0,0,-17000,4294967295,3750000128,0,0,0,0,0,20000,18000000,9999,,0,,-0.01666666753590107,172.77099609375,-164.20166015625,24.25,991.923828125,0.0,23.691539764404297,62.561988830566406,1.225000023841858,28.40999984741211,0.8927099704742432,-0.1373399943113327,9.74133014678955,0.14000000059604645,-0.5600000023841858,0.3499999940395355,-0.8507215976715088,-5.098415374755859,-178.80572509765625,0,1,7,92,49200,2015,10,18,0,0,49,240,4294967295,200000000,0,0,4,0,0,0,0,-17000,4294967295,3750000128,0,0,0,0,0,20000,18000000,9999,,0,,0.0,0.0,0.0,80,1132,3727,True,True,True,True,True,1,-168.783935546875,155.54295349121094,1.0,0.0,1.0,False,991.9840698242188,0.0,0.05000000074505806,True,0.0,0.0,0.0,0.0,0.0,0.0,0.0,0.0,0.0,1.0,1.0,False,False,False,False,False,False,False,False,False,False,False,False,False,False,False,False,False,False,False,False,False,False,False,False,False,False,False,False,False,False,False,False,False,False,False,False,False,False,False,False,False,False,False,False,False,False,False,False,False,False,False,0.16975827515125275,0.0005326084792613983,0.023251574486494064,-0.07455334812402725,True,1,1,True,54,56,
5606,1,0,5567649,-0.01666666753590107,3.965087890625,-8.724624633789062,24.229999542236328,991.9783935546875,0.04899901524186134,23.707561492919922,62.603187561035156,1.1566158533096313,28.420000076293945,0.8632799983024597,-0.11772000044584274,9.770759582519531,0.49000000953674316,-0.14000000059604645,0.3499999940395355,-0.6145578622817993,-4.949771881103516,-178.80775451660156,0,1,7,92,49300,2015,10,18,0,0,49,240,4294967295,300000000,0,0,4,0,0,0,0,-17000,4294967295,3750000128,0,0,0,0,0,20000,18000000,9999,,0,,-0.01666666753590107,172.7490234375,-164.267578125,24.229999542236328,992.026611328125,0.0,23.707561492919922,62.603187561035156,1.225000023841858,28.420000076293945,0.8632799983024597,-0.11772000044584274,9.770759582519531,0.49000000953674316,-0.14000000059604645,0.3499999940395355,-0.6145578622817993,-4.949771881103516,-178.80775451660156,0,1,7,92,49300,2015,10,18,0,0,49,240,4294967295,300000000,0,0,4,0,0,0,0,-17000,4294967295,3750000128,0,0,0,0,0,20000,18000000,9999,,0,,0.0,0.0,0.0,80,1132,3726,True,True,True,True,True,1,-168.783935546875,155.54295349121094,1.0,0.0,1.0,False,991.9840698242188,0.0,0.05000000074505806,True,0.0,0.0,0.0,0.0,0.0,0.0,0.0,0.0,0.0,1.0,1.0,False,False,False,False,False,False,False,False,False,False,False,False,False,False,False,False,False,False,False,False,False,False,False,False,False,False,False,False,False,False,False,False,False,False,False,False,False,False,False,False,False,False,False,False,False,False,False,False,False,False,False,0.1697636991739273,-0.022757817059755325,0.03015116974711418,-0.07754675298929214,True,1,1,True,55,56,
5666,1,0,5650672,-0.01666666753590107,4.031005859375,-8.680679321289062,24.239999771118164,991.9777221679688,0.0544433519244194,23.707561492919922,62.584877014160156,1.156617522239685,28.420000076293945,0.8828999996185303,-0.1373399943113327,9.760950088500977,0.5600000023841858,-0.2800000011920929,-0.14000000059604645,-0.7693203687667847,-5.172435760498047,-178.78720092773438,0,1,7,92,49300,2015,10,18,0,0,49,240,4294967295,300000000,0,0,4,0,0,0,0,-17000,4294967295,3750000128,0,0,0,0,0,20000,18000000,9999,,0,,-0.01666666753590107,172.81494140625,-164.2236328125,24.239999771118164,991.971923828125,0.0,23.707561492919922,62.584877014160156,1.225000023841858,28.420000076293945,0.8828999996185303,-0.1373399943113327,9.760950088500977,0.5600000023841858,-0.2800000011920929,-0.14000000059604645,-0.7693203687667847,-5.172435760498047,-178.78720092773438,0,1,7,92,49300,2015,10,18,0,0,49,240,4294967295,300000000,0,0,4,0,0,0,0,-17000,4294967295,3750000128,0,0,0,0,0,20000,18000000,9999,,0,,0.0,0.0,0.0,80,1131,3727,True,True,True,True,True,1,-168.783935546875,155.54295349121094,1.0,0.0,1.0,False,991.9840698242188,0.0,0.05000000074505806,True,0.0,0.0,0.0,0.0,0.0,0.0,0.0,0.0,0.0,1.0,1.0,False,False,False,False,False,False,False,False,False,False,False,False,False,False,False,False,False,False,False,False,False,False,False,False,False,False,False,False,False,False,False,False,False,False,False,False,False,False,False,False,False,False,False,False,False,False,False,False,False,False,False,0.16976356506347656,-0.016702264547348022,0.01645619422197342,-0.06191657483577728,True,1,1,True,54,56,
