SYS_TIME[ms],T_CNT[us],T_PPS[us],T_CAN_RSV[us],DP[Pa],AOA[deg],AOS[deg],T_DP_SENSOR[degC],PS[hPa],H_PS[m],TAT[degC],HUM[%],RHO[kg/m^3],T_PS_SENSOR[degC],AX[m/s^2],AY[m/s^2],AZ[m/s^2],GX[deg/s],GY[deg/s],GZ[deg/s],EX[deg],EY[deg],EZ[deg],MICROSECONDS_PPS[us],cls[-],id[-],len[-],iTOW[ms],year[y],month[month],day[d],hour[h],minute[min],sec[s],valid[-],tAcc[ns],nano[ns],fixType[-],flags[-],flags2[-],numSV[-],lon[10^7 deg],lat[10^7 deg],height[mm],hMSL[mm],hAcc[mm],vAcc[mm],velN[mm/s],velE[mm/s],velD[mm/s],gSpeed[mm/s],headMot[10^5 deg],sAcc[mm/s],headAcc[10^5 deg],pDOP[-],reserved1[-],headVeh[10^5 deg],reserved2[-],DP_raw[Pa],AOA_raw[deg],AOS_raw[deg],T_DP_SENSOR_raw[degC],PS_raw[hPa],H_PS_raw[m],TAT_raw[degC],HUM_raw[%],RHO_raw[kg/m^3],T_PS_SENSOR_raw[degC],AX_raw[m/s^2],AY_raw[m/s^2],AZ_raw[m/s^2],GX_raw[deg/s],GY_raw[deg/s],GZ_raw[deg/s],EX_raw[deg],EY_raw[deg],EZ_raw[deg],MICROSECONDS_PPS_raw[us],cls_raw[-],id_raw[-],len_raw[-],iTOW_raw[ms],year_raw[y],month_raw[month],day_raw[d],hour_raw[h],minute_raw[min],sec_raw[s],valid_raw[-],tAcc_raw[ns],nano_raw[ns],fixType_raw[-],flags_raw[-],flags2_raw[-],numSV_raw[-],lon_raw[10^7 deg],lat_raw[10^7 deg],height_raw[mm],hMSL_raw[mm],hAcc_raw[mm],vAcc_raw[mm],velN_raw[mm/s],velE_raw[mm/s],velD_raw[mm/s],gSpeed_raw[mm/s],headMot_raw[10^5 deg],sAcc_raw[mm/s],headAcc_raw[10^5 deg],pDOP_raw[-],reserved1_raw[-],headVeh_raw[10^5 deg],reserved2_raw[-],ROLL[deg],PITCH[deg],YAW[deg],H_US[-],ELEV[-],RUDD[-],AIR_DATA_EN[-],ENV_DATA_EN[-],IMU_DATA_EN[-],GPS_DATA_EN[-],LOGGING_EN[-],LOGGING_MODE[-],AOA_OFFSET[deg],AOS_OFFSET[deg],DP_GAIN[-],DP_OFFSET[Pa],LPF_DP[-],LPF_SW[-],PS_INIT_VAL[hPa],H_PS_OFFSET[m],LPF_PS[-],LPF_SW[-],AX_OFFSET[m/s^2],AY_OFFSET[m/s^2],AZ_OFFSET[m/s^2],GX_OFFSET[deg/s],GY_OFFSET[deg/s],GZ_OFFSET[deg/s],EX_OFFSET[deg],EY_OFFSET[deg],EZ_OFFSET[deg],LPF_ACC[-],LPF_GYR[-],LPF_ACC_SW[-],LPF_GYR_SW[-],DP_err[-],AOA_err[-],AOS_err[-],T_DP_SENSOR_err[-],DP_GAIN_err[-],DP_OFFSET_err[-],AOA_OFFSET_err[-],AOS_OFFSET_err[-],LPF_DP_err[-],DP_I2C_err[-],AOA_I2C_err[-],AOS_I2C_err[-],SETTING_DATA_READ_err[-],PS_err[-],T_PS_SENSOR_err[-],TAT_err[-],HUM_err[-],PS_INIT_VAL_err[-],H_PS_OFFSET_err[-],H_PS_err[-],RHO_err[-],LPF_PS_err[-],ENV_I2C_err[-],SETTING_DATA_READ_err[-],AX_err[-],AY_err[-],AZ_err[-],GX_err[-],GY_err[-],GZ_err[-],LPF_ACC_err[-],LPF_GYR_err[-],AX_OFFSET_err[-],AY_OFFSET_err[-],AZ_OFFSET_err[-],GX_OFFSET_err[-],GY_OFFSET_err[-],GZ_OFFSET_err[-],EX_OFFSET_err[-],EY_OFFSET_err[-],EZ_OFFSET_err[-],SETTING_DATA_READ_err[-],PPS_INTV_err[-],MEG_INTV_err[-],CHK_SUM_err[-],INIT_err[-],SET_MODE_err[-],SEND_err[-],RECEIVE_err[-],AIRSPEED[m/s],WINDN[m/s],WINDE[m/s],WINDD[m/s],SD_DETECT[-],LOG_NUMBER[-],LOGGING_MODE[-],LOGGING_EN[-],CPU_USED[%],MEMORY_USED[%],
1504652,1,1504142484,1504635120,0.0,3.679443359375,-14.085952758789062,32.529998779296875,991.6448364257812,0.14586414396762848,32.74929428100586,67.30754852294922,1.1155763864517212,48.099998474121094,-0.627839982509613,-0.6180300116539001,9.751139640808105,0.20999999344348907,-0.7699999809265137,0.5600000023841858,-3.7184979915618896,3.672632932662964,-143.24612426757812,0,1,7,92,456754400,2022,7,22,6,52,16,55,8,399603414,3,1,10,15,1362544402,352913990,123494,88699,2125,3190,25,16,-66,30,17772277,277,5211496,137,,0,,0.0,172.46337890625,-169.62890625,32.529998779296875,991.560302734375,0.0,32.74929428100586,67.30754852294922,1.225000023841858,48.099998474121094,-0.627839982509613,-0.6180300116539001,9.751139640808105,0.20999999344348907,-0.7699999809265137,0.5600000023841858,-3.7184979915618896,3.672632932662964,-143.24612426757812,0,1,7,92,456754400,2022,7,22,6,52,16,55,8,399603414,3,1,10,15,1362544402,352913990,123494,88699,2125,3190,25,16,-66,30,17772277,277,5211496,137,,0,,0.0,0.0,0.0,221,2129,2121,True,True,True,True,True,1,-168.783935546875,155.54295349121094,1.0,0.0,1.0,False,991.6611938476562,0.0,0.05000000074505806,True,0.0,0.0,0.0,0.0,0.0,0.0,0.0,0.0,0.0,1.0,1.0,False,False,False,False,False,False,False,False,False,False,False,False,False,False,False,False,False,False,False,False,False,False,False,False,False,False,False,False,False,False,False,False,False,False,False,False,False,False,False,False,False,False,False,False,True,False,False,False,False,False,False,-0.0,-0.02500000037252903,-0.01600000075995922,0.06599999964237213,True,7,1,True,89,56,
1504713,1,1504142484,1504676635,0.0,3.679443359375,-13.954116821289062,32.540000915527344,991.6461791992188,0.13464970886707306,32.76264572143555,67.30907440185547,1.1155180931091309,48.099998474121094,-0.5984100103378296,-0.6474599838256836,9.790379524230957,0.14000000059604645,-0.3499999940395355,0.2800000011920929,-3.777872085571289,3.4682865142822266,-143.2250213623047,0,1,7,92,456754400,2022,7,22,6,52,16,55,8,399603414,3,1,10,15,1362544402,352913990,123494,88699,2125,3190,25,16,-66,30,17772277,277,5211496,137,,0,,0.0,172.46337890625,-169.4970703125,32.540000915527344,991.625732421875,0.0,32.76264572143555,67.30907440185547,1.225000023841858,48.099998474121094,-0.5984100103378296,-0.6474599838256836,9.790379524230957,0.14000000059604645,-0.3499999940395355,0.2800000011920929,-3.777872085571289,3.4682865142822266,-143.2250213623047,0,1,7,92,456754400,2022,7,22,6,52,16,55,8,399603414,3,1,10,15,1362544402,352913990,123494,88699,2125,3190,25,16,-66,30,17772277,277,5211496,137,,0,,0.0,0.0,0.0,221,2129,2123,True,True,True,True,True,1,-168.783935546875,155.54295349121094,1.0,0.0,1.0,False,991.6611938476562,0.0,0.05000000074505806,True,0.0,0.0,0.0,0.0,0.0,0.0,0.0,0.0,0.0,1.0,1.0,False,False,False,False,False,False,False,False,False,False,False,False,False,False,False,False,False,False,False,False,False,False,False,False,False,False,False,False,False,False,False,False,False,False,False,False,False,False,False,False,False,False,False,False,True,False,False,False,False,False,False,-0.0,-0.02500000037252903,-0.01600000075995922,0.06599999964237213,True,7,1,True,62,56,
1504773,1,1504142484,1504759570,0.0,3.657470703125,-13.998062133789062,32.564998626708984,991.647216796875,0.12341812252998352,32.73594284057617,67.30449676513672,1.1156392097473145,48.11000061035156,-0.5493599772453308,-0.5591700077056885,9.760950088500977,0.2800000011920929,-0.3499999940395355,0.14000000059604645,-3.441678047180176,3.554910659790039,-143.19154357910156,0,1,7,92,456754500,2022,7,22,6,52,16,55,8,499603403,3,1,10,15,1362544405,352913991,123481,88687,2125,3193,21,104,-54,106,17772277,316,5211770,137,,0,,0.0,172.44140625,-169.541015625,32.564998626708984,991.721923828125,0.0,32.73594284057617,67.30449676513672,1.225000023841858,48.11000061035156,-0.5493599772453308,-0.5591700077056885,9.760950088500977,0.2800000011920929,-0.3499999940395355,0.14000000059604645,-3.441678047180176,3.554910659790039,-143.19154357910156,0,1,7,92,456754500,2022,7,22,6,52,16,55,8,499603403,3,1,10,15,1362544405,352913991,123481,88687,2125,3193,21,104,-54,106,17772277,316,5211770,137,,0,,0.0,0.0,0.0,222,2128,2124,True,True,True,True,True,1,-168.783935546875,155.54295349121094,1.0,0.0,1.0,False,991.6611938476562,0.0,0.05000000074505806,True,0.0,0.0,0.0,0.0,0.0,0.0,0.0,0.0,0.0,1.0,1.0,False,False,False,False,False,False,False,False,False,False,False,False,False,False,False,False,False,False,False,False,False,False,False,False,False,False,False,False,False,False,False,False,False,False,False,False,False,False,False,False,False,False,False,False,True,False,False,False,False,False,False,-0.0,-0.020999999716877937,-0.10400000214576721,0.05400000140070915,True,7,1,True,61,56,
1504833,1,1504142484,1504801115,0.0,3.635498046875,-14.020034790039062,32.57500076293945,991.6458129882812,0.14025399088859558,32.74929428100586,67.26329803466797,1.1155868768692017,48.099998474121094,-0.5885999798774719,-0.6082199811935425,9.74133014678955,-0.07000000029802322,-0.49000000953674316,0.41999998688697815,-3.560638427734375,3.398808240890503,-143.18121337890625,0,1,7,92,456754600,2022,7,22,6,52,16,55,8,599603393,3,1,10,15,1362544405,352913995,123514,88720,2126,3196,86,66,-53,108,17772277,349,5212071,137,,0,,0.0,172.41943359375,-169.56298828125,32.57500076293945,991.64404296875,0.0,32.74929428100586,67.26329803466797,1.225000023841858,48.099998474121094,-0.5885999798774719,-0.6082199811935425,9.74133014678955,-0.07000000029802322,-0.49000000953674316,0.41999998688697815,-3.560638427734375,3.398808240890503,-143.18121337890625,0,1,7,92,456754600,2022,7,22,6,52,16,55,8,599603393,3,1,10,15,1362544405,352913995,123514,88720,2126,3196,86,66,-53,108,17772277,349,5212071,137,,0,,0.0,0.0,0.0,221,2132,2123,True,True,True,True,True,1,-168.783935546875,155.54295349121094,1.0,0.0,1.0,False,991.6611938476562,0.0,0.05000000074505806,True,0.0,0.0,0.0,0.0,0.0,0.0,0.0,0.0,0.0,1.0,1.0,False,False,False,False,False,False,False,False,False,False,False,False,False,False,False,False,False,False,False,False,False,False,False,False,False,False,False,False,False,False,False,False,False,False,False,False,False,False,False,False,False,False,False,False,True,False,False,False,False,False,False,-0.0,-0.0860000029206276,-0.06599999964237213,0.05299999937415123,True,7,1,True,63,56,
1504894,1,1504142484,1504884253,0.0,3.657470703125,-13.998062133789062,32.55500030517578,991.65478515625,0.05610159784555435,32.74929428100586,67.25414276123047,1.1155991554260254,48.099998474121094,-0.6082199811935425,-0.6180300116539001,9.760950088500977,0.41999998688697815,-0.2800000011920929,0.20999999344348907,-3.723297595977783,3.208754062652588,-143.17755126953125,0,1,7,92,456754600,2022,7,22,6,52,16,55,8,599603393,3,1,10,15,1362544405,352913995,123514,88720,2126,3196,86,66,-53,108,17772277,349,5212071,137,,0,,0.0,172.44140625,-169.541015625,32.55500030517578,991.6728515625,0.0,32.74929428100586,67.25414276123047,1.225000023841858,48.099998474121094,-0.6082199811935425,-0.6180300116539001,9.760950088500977,0.41999998688697815,-0.2800000011920929,0.20999999344348907,-3.723297595977783,3.208754062652588,-143.17755126953125,0,1,7,92,456754600,2022,7,22,6,52,16,55,8,599603393,3,1,10,15,1362544405,352913995,123514,88720,2126,3196,86,66,-53,108,17772277,349,5212071,137,,0,,0.0,0.0,0.0,221,2129,2125,True,True,True,True,True,1,-168.783935546875,155.54295349121094,1.0,0.0,1.0,False,991.6611938476562,0.0,0.05000000074505806,True,0.0,0.0,0.0,0.0,0.0,0.0,0.0,0.0,0.0,1.0,1.0,False,False,False,False,False,False,False,False,False,False,False,False,False,False,False,False,False,False,False,False,False,False,False,False,False,False,False,False,False,False,False,False,False,False,False,False,False,False,False,False,False,False,False,False,True,False,False,False,False,False,False,-0.0,-0.0860000029206276,-0.06599999964237213,0.05299999937415123,True,7,1,True,62,56,
1504954,1,1504142484,1504925501,0.0,3.657470703125,-14.107925415039062,32.58000183105469,991.6472778320312,0.12345152348279953,32.818721771240234,67.30907440185547,1.115269422531128,48.11000061035156,-0.578790009021759,-0.6572700142860413,9.8100004196167,0.41999998688697815,-0.6299999952316284,0.14000000059604645,-3.7052979469299316,3.447659969329834,-143.15887451171875,0,1,7,92,456754700,2022,7,22,6,52,16,55,8,699603382,3,1,10,15,1362544402,352913994,123538,88744,2127,3198,21,-3,-50,22,17772277,281,5212313,137,,0,,0.0,172.44140625,-169.65087890625,32.58000183105469,991.62841796875,0.0,32.818721771240234,67.30907440185547,1.225000023841858,48.11000061035156,-0.578790009021759,-0.6572700142860413,9.8100004196167,0.41999998688697815,-0.6299999952316284,0.14000000059604645,-3.7052979469299316,3.447659969329834,-143.15887451171875,0,1,7,92,456754700,2022,7,22,6,52,16,55,8,699603382,3,1,10,15,1362544402,352913994,123538,88744,2127,3198,21,-3,-50,22,17772277,281,5212313,137,,0,,0.0,0.0,0.0,221,2129,2123,True,True,True,True,True,1,-168.783935546875,155.54295349121094,1.0,0.0,1.0,False,991.6611938476562,0.0,0.05000000074505806,True,0.0,0.0,0.0,0.0,0.0,0.0,0.0,0.0,0.0,1.0,1.0,False,False,False,False,False,False,False,False,False,False,False,False,False,False,False,False,False,False,False,False,False,False,False,False,False,False,False,False,False,False,False,False,False,False,False,False,False,False,False,False,False,False,False,False,True,False,False,False,False,False,False,-0.0,-0.020999999716877937,0.003000000026077032,0.05000000074505806,True,7,1,True,62,56,
1505014,1,1504142484,1505009005,0.0,3.701416015625,-13.998062133789062,32.55500030517578,991.6505126953125,0.09537271410226822,32.74929428100586,67.22972106933594,1.1155993938446045,48.099998474121094,-0.5885999798774719,-0.5984100103378296,9.751139640808105,0.5600000023841858,-0.8399999737739563,0.2800000011920929,-3.436898946762085,3.573331117630005,-143.13201904296875,0,1,7,92,456754700,2022,7,22,6,52,16,55,8,699603382,3,1,10,15,1362544402,352913994,123538,88744,2127,3198,21,-3,-50,22,17772277,281,5212313,137,,0,,0.0,172.4853515625,-169.541015625,32.55500030517578,991.670654296875,0.0,32.74929428100586,67.22972106933594,1.225000023841858,48.099998474121094,-0.5885999798774719,-0.5984100103378296,9.751139640808105,0.5600000023841858,-0.8399999737739563,0.2800000011920929,-3.436898946762085,3.573331117630005,-143.13201904296875,0,1,7,92,456754700,2022,7,22,6,52,16,55,8,699603382,3,1,10,15,1362544402,352913994,123538,88744,2127,3198,21,-3,-50,22,17772277,281,5212313,137,,0,,0.0,0.0,0.0,221,2129,2123,True,True,True,True,True,1,-168.783935546875,155.54295349121094,1.0,0.0,1.0,False,991.6611938476562,0.0,0.05000000074505806,True,0.0,0.0,0.0,0.0,0.0,0.0,0.0,0.0,0.0,1.0,1.0,False,False,False,False,False,False,False,False,False,False,False,False,False,False,False,False,False,False,False,False,False,False,False,False,False,False,False,False,False,False,False,False,False,False,False,False,False,False,False,False,False,False,False,False,True,False,False,False,False,False,False,-0.0,-0.020999999716877937,0.003000000026077032,0.05000000074505806,True,7,1,True,62,56,
1505074,1,1504142484,1505050659,0.0,3.635498046875,-13.998062133789062,32.595001220703125,991.6511840820312,0.08975863456726074,32.73594284057617,67.29381561279297,1.1156460046768188,48.11000061035156,-0.5885999798774719,-0.5885999798774719,9.721710205078125,0.699999988079071,-0.6299999952316284,0.20999999344348907,-3.491870403289795,3.3446741104125977,-143.1201629638672,0,1,7,92,456754800,2022,7,22,6,52,16,55,8,799603371,3,1,10,15,1362544402,352913995,123646,88851,2127,3201,-64,61,-70,88,17772277,244,5212524,137,,0,,0.0,172.41943359375,-169.541015625,32.595001220703125,991.609375,0.0,32.73594284057617,67.29381561279297,1.225000023841858,48.11000061035156,-0.5885999798774719,-0.5885999798774719,9.721710205078125,0.699999988079071,-0.6299999952316284,0.20999999344348907,-3.491870403289795,3.3446741104125977,-143.1201629638672,0,1,7,92,456754800,2022,7,22,6,52,16,55,8,799603371,3,1,10,15,1362544402,352913995,123646,88851,2127,3201,-64,61,-70,88,17772277,244,5212524,137,,0,,0.0,0.0,0.0,222,2130,2126,True,True,True,True,True,1,-168.783935546875,155.54295349121094,1.0,0.0,1.0,False,991.6611938476562,0.0,0.05000000074505806,True,0.0,0.0,0.0,0.0,0.0,0.0,0.0,0.0,0.0,1.0,1.0,False,False,False,False,False,False,False,False,False,False,False,False,False,False,False,False,False,False,False,False,False,False,False,False,False,False,False,False,False,False,False,False,False,False,False,False,False,False,False,False,False,False,False,False,True,False,False,False,False,False,False,-0.0,0.06400000303983688,-0.061000000685453415,0.07000000029802322,True,7,1,True,62,56,
1505134,1,1504142484,1505133660,0.0,3.679443359375,-14.042007446289062,32.560001373291016,991.6427612304688,0.16837383806705475,32.87479782104492,67.36400604248047,1.1150026321411133,48.099998474121094,-0.5493599772453308,-0.5984100103378296,9.73151969909668,0.5600000023841858,-0.699999988079071,0.3499999940395355,-3.5652778148651123,3.5052707195281982,-143.10690307617188,0,1,7,92,456754900,2022,7,22,6,52,16,55,8,899603360,3,1,10,15,1362544398,352913998,123724,88930,2128,3205,35,-44,-83,57,17772277,296,5212780,137,,0,,0.0,172.46337890625,-169.5849609375,32.560001373291016,991.505126953125,0.0,32.87479782104492,67.36400604248047,1.225000023841858,48.099998474121094,-0.5493599772453308,-0.5984100103378296,9.73151969909668,0.5600000023841858,-0.699999988079071,0.3499999940395355,-3.5652778148651123,3.5052707195281982,-143.10690307617188,0,1,7,92,456754900,2022,7,22,6,52,16,55,8,899603360,3,1,10,15,1362544398,352913998,123724,88930,2128,3205,35,-44,-83,57,17772277,296,5212780,137,,0,,0.0,0.0,0.0,220,2130,2122,True,True,True,True,True,1,-168.783935546875,155.54295349121094,1.0,0.0,1.0,False,991.6611938476562,0.0,0.05000000074505806,True,0.0,0.0,0.0,0.0,0.0,0.0,0.0,0.0,0.0,1.0,1.0,False,False,False,False,False,False,False,False,False,False,False,False,False,False,False,False,False,False,False,False,False,False,False,False,False,False,False,False,False,False,False,False,False,False,False,False,False,False,False,False,False,False,False,False,True,False,False,False,False,False,False,-0.0,-0.03500000014901161,0.04399999976158142,0.08299999684095383,True,7,1,True,61,56,
1505194,1,1505142500,1505174925,0.01666666753590107,3.635498046875,-13.976089477539062,32.540000915527344,991.6424560546875,0.16833564639091492,32.80537033081055,67.30754852294922,1.115323781967163,48.11000061035156,-0.6572700142860413,-0.6376500129699707,9.8100004196167,0.2800000011920929,-0.49000000953674316,0.2800000011920929,-3.646040439605713,3.6774754524230957,-143.10128784179688,0,1,7,92,456754900,2022,7,22,6,52,16,55,8,899603360,3,1,10,15,1362544398,352913998,123724,88930,2128,3205,35,-44,-83,57,17772277,296,5212780,137,,0,,0.01666666753590107,172.41943359375,-169.51904296875,32.540000915527344,991.66064453125,0.0,32.80537033081055,67.30754852294922,1.225000023841858,48.11000061035156,-0.6572700142860413,-0.6376500129699707,9.8100004196167,0.2800000011920929,-0.49000000953674316,0.2800000011920929,-3.646040439605713,3.6774754524230957,-143.10128784179688,0,1,7,92,456754900,2022,7,22,6,52,16,55,8,899603360,3,1,10,15,1362544398,352913998,123724,88930,2128,3205,35,-44,-83,57,17772277,296,5212780,137,,0,,0.0,0.0,0.0,220,2131,2125,True,True,True,True,True,1,-168.783935546875,155.54295349121094,1.0,0.0,1.0,False,991.6611938476562,0.0,0.05000000074505806,True,0.0,0.0,0.0,0.0,0.0,0.0,0.0,0.0,0.0,1.0,1.0,False,False,False,False,False,False,False,False,False,False,False,False,False,False,False,False,False,False,False,False,False,False,False,False,False,False,False,False,False,False,False,False,False,False,False,False,False,False,False,False,False,False,False,False,True,False,False,False,False,False,False,0.17287766933441162,0.08512981981039047,0.049388337880373,-0.0017970917979255319,True,7,1,True,62,56,
1505254,1,1505142500,1505216539,0.0,3.657470703125,-13.976089477539062,32.564998626708984,991.6428833007812,0.16266480088233948,32.69321823120117,67.17631530761719,1.115851879119873,48.099998474121094,-0.5395500063896179,-0.627839982509613,9.8100004196167,0.14000000059604645,-0.49000000953674316,0.2800000011920929,-3.6955602169036865,3.11653995513916,-143.0821533203125,0,1,7,92,456755000,2022,7,22,6,52,17,55,8,-396649,3,1,10,15,1362544397,352913999,123725,88931,2129,3207,48,-66,-73,81,17772277,306,5213045,137,,0,,0.0,172.44140625,-169.51904296875,32.564998626708984,991.607421875,0.0,32.69321823120117,67.17631530761719,1.225000023841858,48.099998474121094,-0.5395500063896179,-0.627839982509613,9.8100004196167,0.14000000059604645,-0.49000000953674316,0.2800000011920929,-3.6955602169036865,3.11653995513916,-143.0821533203125,0,1,7,92,456755000,2022,7,22,6,52,17,55,8,-396649,3,1,10,15,1362544397,352913999,123725,88931,2129,3207,48,-66,-73,81,17772277,306,5213045,137,,0,,0.0,0.0,0.0,221,2131,2123,True,True,True,True,True,1,-168.783935546875,155.54295349121094,1.0,0.0,1.0,False,991.6611938476562,0.0,0.05000000074505806,True,0.0,0.0,0.0,0.0,0.0,0.0,0.0,0.0,0.0,1.0,1.0,False,False,False,False,False,False,False,False,False,False,False,False,False,False,False,False,False,False,False,False,False,False,False,False,False,False,False,False,False,False,False,False,False,False,False,False,False,False,False,False,False,False,False,False,True,False,False,False,False,False,False,-0.0,-0.04800000041723251,0.06599999964237213,0.0729999989271164,True,7,1,True,62,56,
1505314,1,1505142500,1505299493,0.0,3.679443359375,-14.085952758789062,32.52000045776367,991.64453125,0.1515020728111267,32.80537033081055,67.24040222167969,1.1153405904769897,48.099998474121094,-0.6180300116539001,-0.5689799785614014,9.800189971923828,0.0,-0.41999998688697815,0.49000000953674316,-3.393418550491333,3.5832090377807617,-143.04452514648438,0,1,7,92,456755000,2022,7,22,6,52,17,55,8,-396649,3,1,10,15,1362544397,352913999,123725,88931,2129,3207,48,-66,-73,81,17772277,306,5213045,137,,0,,0.0,172.46337890625,-169.62890625,32.52000045776367,991.754638671875,0.0,32.80537033081055,67.24040222167969,1.225000023841858,48.099998474121094,-0.6180300116539001,-0.5689799785614014,9.800189971923828,0.0,-0.41999998688697815,0.49000000953674316,-3.393418550491333,3.5832090377807617,-143.04452514648438,0,1,7,92,456755000,2022,7,22,6,52,17,55,8,-396649,3,1,10,15,1362544397,352913999,123725,88931,2129,3207,48,-66,-73,81,17772277,306,5213045,137,,0,,0.0,0.0,0.0,221,2129,2125,True,True,True,True,True,1,-168.783935546875,155.54295349121094,1.0,0.0,1.0,False,991.6611938476562,0.0,0.05000000074505806,True,0.0,0.0,0.0,0.0,0.0,0.0,0.0,0.0,0.0,1.0,1.0,False,False,False,False,False,False,False,False,False,False,False,False,False,False,False,False,False,False,False,False,False,False,False,False,False,False,False,False,False,False,False,False,False,False,False,False,False,False,False,False,False,False,False,False,True,False,False,False,False,False,False,-0.0,-0.04800000041723251,0.06599999964237213,0.0729999989271164,True,7,1,True,62,56,
1505374,1,1505142500,1505340911,0.0,3.657470703125,-14.042007446289062,32.560001373291016,991.6439208984375,0.157106414437294,32.79201889038086,67.22972106933594,1.1154016256332397,48.11000061035156,-0.6768900156021118,-0.6866999864578247,9.73151969909668,0.699999988079071,-0.6299999952316284,0.14000000059604645,-3.846299886703491,3.533735990524292,-143.07069396972656,0,1,7,92,456755100,2022,7,22,6,52,17,55,8,99603339,3,1,10,15,1362544394,352914000,123818,89024,2130,3210,-18,-68,-88,70,17772277,317,5213318,137,,0,,0.0,172.44140625,-169.5849609375,32.560001373291016,991.627685546875,0.0,32.79201889038086,67.22972106933594,1.225000023841858,48.11000061035156,-0.6768900156021118,-0.6866999864578247,9.73151969909668,0.699999988079071,-0.6299999952316284,0.14000000059604645,-3.846299886703491,3.533735990524292,-143.07069396972656,0,1,7,92,456755100,2022,7,22,6,52,17,55,8,99603339,3,1,10,15,1362544394,352914000,123818,89024,2130,3210,-18,-68,-88,70,17772277,317,5213318,137,,0,,0.0,0.0,0.0,221,2131,2124,True,True,True,True,True,1,-168.783935546875,155.54295349121094,1.0,0.0,1.0,False,991.6611938476562,0.0,0.05000000074505806,True,0.0,0.0,0.0,0.0,0.0,0.0,0.0,0.0,0.0,1.0,1.0,False,False,False,False,False,False,False,False,False,False,False,False,False,False,False,False,False,False,False,False,False,False,False,False,False,False,False,False,False,False,False,False,False,False,False,False,False,False,False,False,False,False,False,False,True,False,False,False,False,False,False,-0.0,0.017999999225139618,0.06800000369548798,0.08799999952316284,True,7,1,True,62,56,
1505435,1,1505142500,1505423911,0.0,3.613525390625,-14.020034790039062,32.59000015258789,991.6419677734375,0.17389824986457825,32.71992111206055,67.19309997558594,1.1157283782958984,48.11000061035156,-0.5395500063896179,-0.6474599838256836,9.770759582519531,0.3499999940395355,-0.20999999344348907,0.3499999940395355,-3.7817580699920654,3.231532335281372,-143.03399658203125,0,1,7,92,456755200,2022,7,22,6,52,17,55,8,199603328,3,1,10,15,1362544391,352914003,123865,89071,2131,3213,41,-97,-89,106,17772277,312,5213588,137,,0,,0.0,172.3974609375,-169.56298828125,32.59000015258789,991.61767578125,0.0,32.71992111206055,67.19309997558594,1.225000023841858,48.11000061035156,-0.5395500063896179,-0.6474599838256836,9.770759582519531,0.3499999940395355,-0.20999999344348907,0.3499999940395355,-3.7817580699920654,3.231532335281372,-143.03399658203125,0,1,7,92,456755200,2022,7,22,6,52,17,55,8,199603328,3,1,10,15,1362544391,352914003,123865,89071,2131,3213,41,-97,-89,106,17772277,312,5213588,137,,0,,0.0,0.0,0.0,219,2131,2123,True,True,True,True,True,1,-168.783935546875,155.54295349121094,1.0,0.0,1.0,False,991.6611938476562,0.0,0.05000000074505806,True,0.0,0.0,0.0,0.0,0.0,0.0,0.0,0.0,0.0,1.0,1.0,False,False,False,False,False,False,False,False,False,False,False,False,False,False,False,False,False,False,False,False,False,False,False,False,False,False,False,False,False,False,False,False,False,False,False,False,False,False,False,False,False,False,False,False,True,False,False,False,False,False,False,-0.0,-0.04100000113248825,0.09700000286102295,0.08900000154972076,True,7,1,True,62,56,
1505495,1,1505142500,1505465445,0.0,3.657470703125,-13.976089477539062,32.584999084472656,991.6372680664062,0.21316559612751007,32.71992111206055,67.30297088623047,1.1156995296478271,48.099998474121094,-0.6180300116539001,-0.6670799851417542,9.829620361328125,0.2800000011920929,-0.699999988079071,0.5600000023841858,-3.796311378479004,3.504711866378784,-143.00936889648438,0,1,7,92,456755200,2022,7,22,6,52,17,55,8,199603328,3,1,10,15,1362544391,352914003,123865,89071,2131,3213,41,-97,-89,106,17772277,312,5213588,137,,0,,0.0,172.44140625,-169.51904296875,32.584999084472656,991.635986328125,0.0,32.71992111206055,67.30297088623047,1.225000023841858,48.099998474121094,-0.6180300116539001,-0.6670799851417542,9.829620361328125,0.2800000011920929,-0.699999988079071,0.5600000023841858,-3.796311378479004,3.504711866378784,-143.00936889648438,0,1,7,92,456755200,2022,7,22,6,52,17,55,8,199603328,3,1,10,15,1362544391,352914003,123865,89071,2131,3213,41,-97,-89,106,17772277,312,5213588,137,,0,,0.0,0.0,0.0,222,2131,2121,True,True,True,True,True,1,-168.783935546875,155.54295349121094,1.0,0.0,1.0,False,991.6611938476562,0.0,0.05000000074505806,True,0.0,0.0,0.0,0.0,0.0,0.0,0.0,0.0,0.0,1.0,1.0,False,False,False,False,False,False,False,False,False,False,False,False,False,False,False,False,False,False,False,False,False,False,False,False,False,False,False,False,False,False,False,False,False,False,False,False,False,False,False,False,False,False,False,False,True,False,False,False,False,False,False,-0.0,-0.04100000113248825,0.09700000286102295,0.08900000154972076,True,7,1,True,62,56,
1505555,1,1505142500,1505549075,0.0,3.613525390625,-14.085952758789062,32.57500076293945,991.6365356445312,0.2244063913822174,32.74929428100586,67.29534149169922,1.1155694723129272,48.099998474121094,-0.578790009021759,-0.5984100103378296,9.751139640808105,0.41999998688697815,-0.6299999952316284,0.3499999940395355,-3.502509593963623,3.3494317531585693,-142.97064208984375,0,1,7,92,456755300,2022,7,22,6,52,17,55,8,299603318,3,1,10,15,1362544391,352914003,123882,89088,2131,3216,-25,-60,-83,65,17772277,316,5213861,137,,0,,0.0,172.3974609375,-169.62890625,32.57500076293945,991.654296875,0.0,32.74929428100586,67.29534149169922,1.225000023841858,48.099998474121094,-0.578790009021759,-0.5984100103378296,9.751139640808105,0.41999998688697815,-0.6299999952316284,0.3499999940395355,-3.502509593963623,3.3494317531585693,-142.97064208984375,0,1,7,92,456755300,2022,7,22,6,52,17,55,8,299603318,3,1,10,15,1362544391,352914003,123882,89088,2131,3216,-25,-60,-83,65,17772277,316,5213861,137,,0,,0.0,0.0,0.0,222,2130,2123,True,True,True,True,True,1,-168.783935546875,155.54295349121094,1.0,0.0,1.0,False,991.6611938476562,0.0,0.05000000074505806,True,0.0,0.0,0.0,0.0,0.0,0.0,0.0,0.0,0.0,1.0,1.0,False,False,False,False,False,False,False,False,False,False,False,False,False,False,False,False,False,False,False,False,False,False,False,False,False,False,False,False,False,False,False,False,False,False,False,False,False,False,False,False,False,False,False,False,True,False,False,False,False,False,False,-0.0,0.02500000037252903,0.05999999865889549,0.08299999684095383,True,7,1,True,61,56,
1505615,1,1505142500,1505590297,0.0,3.657470703125,-14.020034790039062,32.58000183105469,991.6369018554688,0.21880577504634857,32.76264572143555,67.24497985839844,1.1155211925506592,48.11000061035156,-0.5493599772453308,-0.6082199811935425,9.74133014678955,0.49000000953674316,-0.699999988079071,0.3499999940395355,-3.7097887992858887,3.370012044906616,-142.9664306640625,0,1,7,92,456755300,2022,7,22,6,52,17,55,8,299603318,3,1,10,15,1362544391,352914003,123882,89088,2131,3216,-25,-60,-83,65,17772277,316,5213861,137,,0,,0.0,172.44140625,-169.56298828125,32.58000183105469,991.708251953125,0.0,32.76264572143555,67.24497985839844,1.225000023841858,48.11000061035156,-0.5493599772453308,-0.6082199811935425,9.74133014678955,0.49000000953674316,-0.699999988079071,0.3499999940395355,-3.7097887992858887,3.370012044906616,-142.9664306640625,0,1,7,92,456755300,2022,7,22,6,52,17,55,8,299603318,3,1,10,15,1362544391,352914003,123882,89088,2131,3216,-25,-60,-83,65,17772277,316,5213861,137,,0,,0.0,0.0,0.0,221,2131,2123,True,True,True,True,True,1,-168.783935546875,155.54295349121094,1.0,0.0,1.0,False,991.6611938476562,0.0,0.05000000074505806,True,0.0,0.0,0.0,0.0,0.0,0.0,0.0,0.0,0.0,1.0,1.0,False,False,False,False,False,False,False,False,False,False,False,False,False,False,False,False,False,False,False,False,False,False,False,False,False,False,False,False,False,False,False,False,False,False,False,False,False,False,False,False,False,False,False,False,True,False,False,False,False,False,False,-0.0,0.02500000037252903,0.05999999865889549,0.08299999684095383,True,7,1,True,62,56,
1505675,1,1505142500,1505673408,0.0,3.635498046875,-13.998062133789062,32.59000015258789,991.6412353515625,0.17954078316688538,32.775997161865234,67.29991912841797,1.115454912185669,48.099998474121094,-0.5689799785614014,-0.5885999798774719,9.790379524230957,0.5600000023841858,-0.2800000011920929,0.14000000059604645,-3.477691888809204,3.3176121711730957,-142.941162109375,0,1,7,92,456755400,2022,7,22,6,52,17,55,8,399603307,3,1,10,15,1362544390,352914002,123874,89080,2132,3219,-32,-83,-77,89,17772277,336,5214150,137,,0,,0.0,172.41943359375,-169.541015625,32.59000015258789,991.64404296875,0.0,32.775997161865234,67.29991912841797,1.225000023841858,48.099998474121094,-0.5689799785614014,-0.5885999798774719,9.790379524230957,0.5600000023841858,-0.2800000011920929,0.14000000059604645,-3.477691888809204,3.3176121711730957,-142.941162109375,0,1,7,92,456755400,2022,7,22,6,52,17,55,8,399603307,3,1,10,15,1362544390,352914002,123874,89080,2132,3219,-32,-83,-77,89,17772277,336,5214150,137,,0,,0.0,0.0,0.0,221,2129,2121,True,True,True,True,True,1,-168.783935546875,155.54295349121094,1.0,0.0,1.0,False,991.6611938476562,0.0,0.05000000074505806,True,0.0,0.0,0.0,0.0,0.0,0.0,0.0,0.0,0.0,1.0,1.0,False,False,False,False,False,False,False,False,False,False,False,False,False,False,False,False,False,False,False,False,False,False,False,False,False,False,False,False,False,False,False,False,False,False,False,False,False,False,False,False,False,False,False,False,True,False,False,False,False,False,False,-0.0,0.03200000151991844,0.08299999684095383,0.07699999958276749,True,7,1,True,61,56,
1505735,1,1505142500,1505714885,0.0,3.679443359375,-14.063980102539062,32.58000183105469,991.6396484375,0.1963830143213272,32.79201889038086,67.19767761230469,1.115403652191162,48.11000061035156,-0.5984100103378296,-0.6572700142860413,9.790379524230957,0.49000000953674316,-0.699999988079071,0.49000000953674316,-3.623316764831543,3.557776927947998,-142.933837890625,0,1,7,92,456755500,2022,7,22,6,52,17,55,8,499603297,3,1,10,15,1362544389,352914002,123874,89080,2133,3223,-62,-68,-70,92,17772277,342,5214446,137,,0,,0.0,172.46337890625,-169.60693359375,32.58000183105469,991.625732421875,0.0,32.79201889038086,67.19767761230469,1.225000023841858,48.11000061035156,-0.5984100103378296,-0.6572700142860413,9.790379524230957,0.49000000953674316,-0.699999988079071,0.49000000953674316,-3.623316764831543,3.557776927947998,-142.933837890625,0,1,7,92,456755500,2022,7,22,6,52,17,55,8,499603297,3,1,10,15,1362544389,352914002,123874,89080,2133,3223,-62,-68,-70,92,17772277,342,5214446,137,,0,,0.0,0.0,0.0,222,2133,2122,True,True,True,True,True,1,-168.783935546875,155.54295349121094,1.0,0.0,1.0,False,991.6611938476562,0.0,0.05000000074505806,True,0.0,0.0,0.0,0.0,0.0,0.0,0.0,0.0,0.0,1.0,1.0,False,False,False,False,False,False,False,False,False,False,False,False,False,False,False,False,False,False,False,False,False,False,False,False,False,False,False,False,False,False,False,False,False,False,False,False,False,False,False,False,False,False,False,False,True,False,False,False,False,False,False,-0.0,0.06199999898672104,0.06800000369548798,0.07000000029802322,True,7,1,True,62,56,
1505795,1,1505142500,1505756628,0.0,3.613525390625,-13.998062133789062,32.58000183105469,991.6387939453125,0.20198337733745575,32.775997161865234,67.25872039794922,1.115460991859436,48.099998474121094,-0.5984100103378296,-0.5885999798774719,9.790379524230957,0.2800000011920929,-0.41999998688697815,0.3499999940395355,-3.475459575653076,3.449828624725342,-142.90158081054688,0,1,7,92,456755500,2022,7,22,6,52,17,55,8,499603297,3,1,10,15,1362544389,352914002,123874,89080,2133,3223,-62,-68,-70,92,17772277,342,5214446,137,,0,,0.0,172.3974609375,-169.541015625,32.58000183105469,991.66259765625,0.0,32.775997161865234,67.25872039794922,1.225000023841858,48.099998474121094,-0.5984100103378296,-0.5885999798774719,9.790379524230957,0.2800000011920929,-0.41999998688697815,0.3499999940395355,-3.475459575653076,3.449828624725342,-142.90158081054688,0,1,7,92,456755500,2022,7,22,6,52,17,55,8,499603297,3,1,10,15,1362544389,352914002,123874,89080,2133,3223,-62,-68,-70,92,17772277,342,5214446,137,,0,,0.0,0.0,0.0,221,2130,2124,True,True,True,True,True,1,-168.783935546875,155.54295349121094,1.0,0.0,1.0,False,991.6611938476562,0.0,0.05000000074505806,True,0.0,0.0,0.0,0.0,0.0,0.0,0.0,0.0,0.0,1.0,1.0,False,False,False,False,False,False,False,False,False,False,False,False,False,False,False,False,False,False,False,False,False,False,False,False,False,False,False,False,False,False,False,False,False,False,False,False,False,False,False,False,False,False,False,False,True,False,False,False,False,False,False,-0.0,0.06199999898672104,0.06800000369548798,0.07000000029802322,True,7,1,True,62,56,
1505855,1,1505142500,1505839236,0.0,3.701416015625,-13.998062133789062,32.584999084472656,991.6431884765625,0.1627400815486908,32.83474349975586,67.35485076904297,1.1151835918426514,48.11000061035156,-0.5689799785614014,-0.5591700077056885,9.74133014678955,0.3499999940395355,-0.49000000953674316,0.14000000059604645,-3.397665500640869,3.6115009784698486,-142.879150390625,0,1,7,92,456755600,2022,7,22,6,52,17,55,8,599603286,3,1,10,15,1362544389,352913999,123820,89026,2135,3226,-128,-84,-49,153,17772277,362,5214759,137,,0,,0.0,172.4853515625,-169.541015625,32.584999084472656,991.650390625,0.0,32.83474349975586,67.35485076904297,1.225000023841858,48.11000061035156,-0.5689799785614014,-0.5591700077056885,9.74133014678955,0.3499999940395355,-0.49000000953674316,0.14000000059604645,-3.397665500640869,3.6115009784698486,-142.879150390625,0,1,7,92,456755600,2022,7,22,6,52,17,55,8,599603286,3,1,10,15,1362544389,352913999,123820,89026,2135,3226,-128,-84,-49,153,17772277,362,5214759,137,,0,,0.0,0.0,0.0,222,2132,2123,True,True,True,True,True,1,-168.783935546875,155.54295349121094,1.0,0.0,1.0,False,991.6611938476562,0.0,0.05000000074505806,True,0.0,0.0,0.0,0.0,0.0,0.0,0.0,0.0,0.0,1.0,1.0,False,False,False,False,False,False,False,False,False,False,False,False,False,False,False,False,False,False,False,False,False,False,False,False,False,False,False,False,False,False,False,False,False,False,False,False,False,False,False,False,False,False,False,False,True,False,False,False,False,False,False,-0.0,0.12800000607967377,0.08399999886751175,0.04899999871850014,True,7,1,True,61,56,
1505915,1,1505142500,1505880750,0.0,3.635498046875,-14.042007446289062,32.57500076293945,991.6475830078125,0.12344613671302795,32.80537033081055,67.23124694824219,1.115346074104309,48.099998474121094,-0.6376500129699707,-0.627839982509613,9.751139640808105,0.8399999737739563,-0.699999988079071,0.07000000029802322,-3.6699156761169434,3.7076337337493896,-142.88937377929688,0,1,7,92,456755600,2022,7,22,6,52,17,55,8,599603286,3,1,10,15,1362544389,352913999,123820,89026,2135,3226,-128,-84,-49,153,17772277,362,5214759,137,,0,,0.0,172.41943359375,-169.5849609375,32.57500076293945,991.625732421875,0.0,32.80537033081055,67.23124694824219,1.225000023841858,48.099998474121094,-0.6376500129699707,-0.627839982509613,9.751139640808105,0.8399999737739563,-0.699999988079071,0.07000000029802322,-3.6699156761169434,3.7076337337493896,-142.88937377929688,0,1,7,92,456755600,2022,7,22,6,52,17,55,8,599603286,3,1,10,15,1362544389,352913999,123820,89026,2135,3226,-128,-84,-49,153,17772277,362,5214759,137,,0,,0.0,0.0,0.0,220,2131,2124,True,True,True,True,True,1,-168.783935546875,155.54295349121094,1.0,0.0,1.0,False,991.6611938476562,0.0,0.05000000074505806,True,0.0,0.0,0.0,0.0,0.0,0.0,0.0,0.0,0.0,1.0,1.0,False,False,False,False,False,False,False,False,False,False,False,False,False,False,False,False,False,False,False,False,False,False,False,False,False,False,False,False,False,False,False,False,False,False,False,False,False,False,False,False,False,False,False,False,True,False,False,False,False,False,False,-0.0,0.12800000607967377,0.08399999886751175,0.04899999871850014,True,7,1,True,62,56,
1505976,1,1505142500,1505963696,0.0,3.723388671875,-14.042007446289062,32.540000915527344,991.6471557617188,0.12903930246829987,32.76264572143555,67.22209167480469,1.1155377626419067,48.099998474121094,-0.5297399759292603,-0.5984100103378296,9.829620361328125,0.14000000059604645,-0.2800000011920929,0.5600000023841858,-3.4576313495635986,3.1218209266662598,-142.843994140625,0,1,7,92,456755700,2022,7,22,6,52,17,55,8,699603276,3,1,10,15,1362544389,352914000,123826,89032,2136,3229,-96,-74,-43,121,17772277,364,5215072,137,,0,,0.0,172.50732421875,-169.5849609375,32.540000915527344,991.637451171875,0.0,32.76264572143555,67.22209167480469,1.225000023841858,48.099998474121094,-0.5297399759292603,-0.5984100103378296,9.829620361328125,0.14000000059604645,-0.2800000011920929,0.5600000023841858,-3.4576313495635986,3.1218209266662598,-142.843994140625,0,1,7,92,456755700,2022,7,22,6,52,17,55,8,699603276,3,1,10,15,1362544389,352914000,123826,89032,2136,3229,-96,-74,-43,121,17772277,364,5215072,137,,0,,0.0,0.0,0.0,222,2130,2123,True,True,True,True,True,1,-168.783935546875,155.54295349121094,1.0,0.0,1.0,False,991.6611938476562,0.0,0.05000000074505806,True,0.0,0.0,0.0,0.0,0.0,0.0,0.0,0.0,0.0,1.0,1.0,False,False,False,False,False,False,False,False,False,False,False,False,False,False,False,False,False,False,False,False,False,False,False,False,False,False,False,False,False,False,False,False,False,False,False,False,False,False,False,False,False,False,False,False,True,False,False,False,False,False,False,-0.0,0.09600000083446503,0.07400000095367432,0.0430000014603138,True,7,1,True,61,56,
1506036,1,1505142500,1506005248,0.0,3.635498046875,-14.020034790039062,32.56999969482422,991.6460571289062,0.13466264307498932,32.79201889038086,67.37163543701172,1.1153736114501953,48.099998474121094,-0.5689799785614014,-0.6866999864578247,9.770759582519531,0.07000000029802322,-0.699999988079071,0.49000000953674316,-3.9324331283569336,3.3041014671325684,-142.8446807861328,0,1,7,92,456755800,2022,7,22,6,52,17,55,8,799603265,3,1,10,15,1362544391,352914000,123841,89047,2137,3233,-102,-4,-42,102,17772277,320,5215348,137,,0,,0.0,172.41943359375,-169.56298828125,32.56999969482422,991.6953125,0.0,32.79201889038086,67.37163543701172,1.225000023841858,48.099998474121094,-0.5689799785614014,-0.6866999864578247,9.770759582519531,0.07000000029802322,-0.699999988079071,0.49000000953674316,-3.9324331283569336,3.3041014671325684,-142.8446807861328,0,1,7,92,456755800,2022,7,22,6,52,17,55,8,799603265,3,1,10,15,1362544391,352914000,123841,89047,2137,3233,-102,-4,-42,102,17772277,320,5215348,137,,0,,0.0,0.0,0.0,220,2128,2124,True,True,True,True,True,1,-168.783935546875,155.54295349121094,1.0,0.0,1.0,False,991.6611938476562,0.0,0.05000000074505806,True,0.0,0.0,0.0,0.0,0.0,0.0,0.0,0.0,0.0,1.0,1.0,False,False,False,False,False,False,False,False,False,False,False,False,False,False,False,False,False,False,False,False,False,False,False,False,False,False,False,False,False,False,False,False,False,False,False,False,False,False,False,False,False,False,False,False,True,False,False,False,False,False,False,-0.0,0.10199999809265137,0.004000000189989805,0.041999999433755875,True,7,1,True,62,56,
1506096,1,1505142500,1506088801,0.0,3.657470703125,-14.063980102539062,32.58000183105469,991.6527099609375,0.07854565978050232,32.76264572143555,67.28923797607422,1.1155297756195068,48.11000061035156,-0.627839982509613,-0.5101199746131897,9.672659873962402,0.3499999940395355,-0.5600000023841858,0.14000000059604645,-3.5496604442596436,3.328296661376953,-142.8057861328125,0,1,7,92,456755800,2022,7,22,6,52,17,55,8,799603265,3,1,10,15,1362544391,352914000,123841,89047,2137,3233,-102,-4,-42,102,17772277,320,5215348,137,,0,,0.0,172.44140625,-169.60693359375,32.58000183105469,991.760009765625,0.0,32.76264572143555,67.28923797607422,1.225000023841858,48.11000061035156,-0.627839982509613,-0.5101199746131897,9.672659873962402,0.3499999940395355,-0.5600000023841858,0.14000000059604645,-3.5496604442596436,3.328296661376953,-142.8057861328125,0,1,7,92,456755800,2022,7,22,6,52,17,55,8,799603265,3,1,10,15,1362544391,352914000,123841,89047,2137,3233,-102,-4,-42,102,17772277,320,5215348,137,,0,,0.0,0.0,0.0,230,2130,2124,True,True,True,True,True,1,-168.783935546875,155.54295349121094,1.0,0.0,1.0,False,991.6611938476562,0.0,0.05000000074505806,True,0.0,0.0,0.0,0.0,0.0,0.0,0.0,0.0,0.0,1.0,1.0,False,False,False,False,False,False,False,False,False,False,False,False,False,False,False,False,False,False,False,False,False,False,False,False,False,False,False,False,False,False,False,False,False,False,False,False,False,False,False,False,False,False,False,False,True,False,False,False,False,False,False,-0.0,0.10199999809265137,0.004000000189989805,0.041999999433755875,True,7,1,True,61,56,
1506156,1,1506142517,1506130049,0.0,3.657470703125,-14.042007446289062,32.58000183105469,991.642822265625,0.16273155808448792,32.818721771240234,67.26634979248047,1.1152735948562622,48.099998474121094,-0.5395500063896179,-0.6670799851417542,9.8100004196167,0.3499999940395355,-0.5600000023841858,0.2800000011920929,-3.7499959468841553,3.1697115898132324,-142.7979278564453,0,1,7,92,456755900,2022,7,22,6,52,17,55,8,899603255,3,1,10,14,1362544389,352914002,123899,89105,2138,3236,-17,-29,-45,34,17772277,314,5215619,155,,0,,0.0,172.44140625,-169.5849609375,32.58000183105469,991.5146484375,0.0,32.818721771240234,67.26634979248047,1.225000023841858,48.099998474121094,-0.5395500063896179,-0.6670799851417542,9.8100004196167,0.3499999940395355,-0.5600000023841858,0.2800000011920929,-3.7499959468841553,3.1697115898132324,-142.7979278564453,0,1,7,92,456755900,2022,7,22,6,52,17,55,8,899603255,3,1,10,14,1362544389,352914002,123899,89105,2138,3236,-17,-29,-45,34,17772277,314,5215619,155,,0,,0.0,0.0,0.0,221,2130,2124,True,True,True,True,True,1,-168.783935546875,155.54295349121094,1.0,0.0,1.0,False,991.6611938476562,0.0,0.05000000074505806,True,0.0,0.0,0.0,0.0,0.0,0.0,0.0,0.0,0.0,1.0,1.0,False,False,False,False,False,False,False,False,False,False,False,False,False,False,False,False,False,False,False,False,False,False,False,False,False,False,False,False,False,False,False,False,False,False,False,False,False,False,False,False,False,False,False,False,True,False,False,False,False,False,False,-0.0,0.017000000923871994,0.028999999165534973,0.04500000178813934,True,7,1,True,62,56,
1506216,1,1506142517,1506212968,0.0,3.679443359375,-14.042007446289062,32.57500076293945,991.6434936523438,0.16272445023059845,32.80537033081055,67.24040222167969,1.1153393983840942,48.099998474121094,-0.6670799851417542,-0.6082199811935425,9.888480186462402,0.2800000011920929,-0.20999999344348907,0.3499999940395355,-3.554536819458008,3.7600674629211426,-142.76417541503906,0,1,7,92,456755900,2022,7,22,6,52,17,55,8,899603255,3,1,10,14,1362544389,352914002,123899,89105,2138,3236,-17,-29,-45,34,17772277,314,5215619,155,,0,,0.0,172.46337890625,-169.5849609375,32.57500076293945,991.61962890625,0.0,32.80537033081055,67.24040222167969,1.225000023841858,48.099998474121094,-0.6670799851417542,-0.6082199811935425,9.888480186462402,0.2800000011920929,-0.20999999344348907,0.3499999940395355,-3.554536819458008,3.7600674629211426,-142.76417541503906,0,1,7,92,456755900,2022,7,22,6,52,17,55,8,899603255,3,1,10,14,1362544389,352914002,123899,89105,2138,3236,-17,-29,-45,34,17772277,314,5215619,155,,0,,0.0,0.0,0.0,221,2132,2123,True,True,True,True,True,1,-168.783935546875,155.54295349121094,1.0,0.0,1.0,False,991.6611938476562,0.0,0.05000000074505806,True,0.0,0.0,0.0,0.0,0.0,0.0,0.0,0.0,0.0,1.0,1.0,False,False,False,False,False,False,False,False,False,False,False,False,False,False,False,False,False,False,False,False,False,False,False,False,False,False,False,False,False,False,False,False,False,False,False,False,False,False,False,False,False,False,False,False,True,False,False,False,False,False,False,-0.0,0.017000000923871994,0.028999999165534973,0.04500000178813934,True,7,1,True,62,56,
1506276,1,1506142517,1506254166,0.0,3.635498046875,-14.020034790039062,32.55500030517578,991.6402587890625,0.1907537579536438,32.76264572143555,67.27703094482422,1.1155182123184204,48.099998474121094,-0.627839982509613,-0.6082199811935425,9.780570030212402,0.0,-0.49000000953674316,0.20999999344348907,-3.550198554992676,3.659616231918335,-142.7534942626953,0,1,7,92,456756000,2022,7,22,6,52,18,55,8,-396755,3,1,10,14,1362544387,352914002,123935,89141,2139,3240,-65,-39,-41,76,17772277,349,5215921,155,,0,,0.0,172.41943359375,-169.56298828125,32.55500030517578,991.627685546875,0.0,32.76264572143555,67.27703094482422,1.225000023841858,48.099998474121094,-0.627839982509613,-0.6082199811935425,9.780570030212402,0.0,-0.49000000953674316,0.20999999344348907,-3.550198554992676,3.659616231918335,-142.7534942626953,0,1,7,92,456756000,2022,7,22,6,52,18,55,8,-396755,3,1,10,14,1362544387,352914002,123935,89141,2139,3240,-65,-39,-41,76,17772277,349,5215921,155,,0,,0.0,0.0,0.0,221,2131,2122,True,True,True,True,True,1,-168.783935546875,155.54295349121094,1.0,0.0,1.0,False,991.6611938476562,0.0,0.05000000074505806,True,0.0,0.0,0.0,0.0,0.0,0.0,0.0,0.0,0.0,1.0,1.0,False,False,False,False,False,False,False,False,False,False,False,False,False,False,False,False,False,False,False,False,False,False,False,False,False,False,False,False,False,False,False,False,False,False,False,False,False,False,False,False,False,False,False,False,True,False,False,False,False,False,False,-0.0,0.06499999761581421,0.039000000804662704,0.04100000113248825,True,7,1,True,62,56,
1506336,1,1506142517,1506295590,0.0,3.679443359375,-14.020034790039062,32.564998626708984,991.6529541015625,0.07294544577598572,32.80537033081055,67.31822967529297,1.1153334379196167,48.099998474121094,-0.6180300116539001,-0.5297399759292603,9.7020902633667,0.9800000190734863,-0.5600000023841858,0.20999999344348907,-3.5622448921203613,3.4204583168029785,-142.75115966796875,0,1,7,92,456756100,2022,7,22,6,52,18,55,8,99603233,3,1,10,14,1362544387,352914003,123978,89184,2140,3243,-49,-16,-44,52,17772277,318,5216195,155,,0,,0.0,172.46337890625,-169.56298828125,32.564998626708984,991.689208984375,0.0,32.80537033081055,67.31822967529297,1.225000023841858,48.099998474121094,-0.6180300116539001,-0.5297399759292603,9.7020902633667,0.9800000190734863,-0.5600000023841858,0.20999999344348907,-3.5622448921203613,3.4204583168029785,-142.75115966796875,0,1,7,92,456756100,2022,7,22,6,52,18,55,8,99603233,3,1,10,14,1362544387,352914003,123978,89184,2140,3243,-49,-16,-44,52,17772277,318,5216195,155,,0,,0.0,0.0,0.0,221,2129,2121,True,True,True,True,True,1,-168.783935546875,155.54295349121094,1.0,0.0,1.0,False,991.6611938476562,0.0,0.05000000074505806,True,0.0,0.0,0.0,0.0,0.0,0.0,0.0,0.0,0.0,1.0,1.0,False,False,False,False,False,False,False,False,False,False,False,False,False,False,False,False,False,False,False,False,False,False,False,False,False,False,False,False,False,False,False,False,False,False,False,False,False,False,False,False,False,False,False,False,True,False,False,False,False,False,False,-0.0,0.04899999871850014,0.01600000075995922,0.04399999976158142,True,7,1,True,62,56,
1506396,1,1506142517,1506378552,0.0,3.679443359375,-14.042007446289062,32.58000183105469,991.6517944335938,0.08418691903352737,32.87479782104492,67.21293640136719,1.115045428276062,48.099998474121094,-0.6082199811935425,-0.6670799851417542,9.790379524230957,0.699999988079071,-0.5600000023841858,0.2800000011920929,-3.7564141750335693,3.5036165714263916,-142.7562713623047,0,1,7,92,456756100,2022,7,22,6,52,18,55,8,99603233,3,1,10,14,1362544387,352914003,123978,89184,2140,3243,-49,-16,-44,52,17772277,318,5216195,155,,0,,0.0,172.46337890625,-169.5849609375,32.58000183105469,991.593017578125,0.0,32.87479782104492,67.21293640136719,1.225000023841858,48.099998474121094,-0.6082199811935425,-0.6670799851417542,9.790379524230957,0.699999988079071,-0.5600000023841858,0.2800000011920929,-3.7564141750335693,3.5036165714263916,-142.7562713623047,0,1,7,92,456756100,2022,7,22,6,52,18,55,8,99603233,3,1,10,14,1362544387,352914003,123978,89184,2140,3243,-49,-16,-44,52,17772277,318,5216195,155,,0,,0.0,0.0,0.0,220,2131,2125,True,True,True,True,True,1,-168.783935546875,155.54295349121094,1.0,0.0,1.0,False,991.6611938476562,0.0,0.05000000074505806,True,0.0,0.0,0.0,0.0,0.0,0.0,0.0,0.0,0.0,1.0,1.0,False,False,False,False,False,False,False,False,False,False,False,False,False,False,False,False,False,False,False,False,False,False,False,False,False,False,False,False,False,False,False,False,False,False,False,False,False,False,False,False,False,False,False,False,True,False,False,False,False,False,False,-0.0,0.04899999871850014,0.01600000075995922,0.04399999976158142,True,7,1,True,61,56,
1506456,1,1506142517,1506420054,0.0,3.657470703125,-14.085952758789062,32.58000183105469,991.6578369140625,0.028053246438503265,32.775997161865234,67.28008270263672,1.1154780387878418,48.11000061035156,-0.4512600004673004,-0.6376500129699707,9.780570030212402,0.20999999344348907,-0.49000000953674316,0.49000000953674316,-3.7644283771514893,2.7868545055389404,-142.73634338378906,0,1,7,92,456756200,2022,7,22,6,52,18,55,8,199603222,3,1,10,14,1362544384,352914006,124046,89251,2141,3246,22,-94,-54,97,17772277,326,5216477,155,,0,,0.0,172.44140625,-169.62890625,32.58000183105469,991.730712890625,0.0,32.775997161865234,67.28008270263672,1.225000023841858,48.11000061035156,-0.4512600004673004,-0.6376500129699707,9.780570030212402,0.20999999344348907,-0.49000000953674316,0.49000000953674316,-3.7644283771514893,2.7868545055389404,-142.73634338378906,0,1,7,92,456756200,2022,7,22,6,52,18,55,8,199603222,3,1,10,14,1362544384,352914006,124046,89251,2141,3246,22,-94,-54,97,17772277,326,5216477,155,,0,,0.0,0.0,0.0,222,2130,2122,True,True,True,True,True,1,-168.783935546875,155.54295349121094,1.0,0.0,1.0,False,991.6611938476562,0.0,0.05000000074505806,True,0.0,0.0,0.0,0.0,0.0,0.0,0.0,0.0,0.0,1.0,1.0,False,False,False,False,False,False,False,False,False,False,False,False,False,False,False,False,False,False,False,False,False,False,False,False,False,False,False,False,False,False,False,False,False,False,False,False,False,False,False,False,False,False,False,False,True,False,False,False,False,False,False,-0.0,-0.02199999988079071,0.09399999678134918,0.05400000140070915,True,7,1,True,62,56,
1506517,1,1506142517,1506503027,0.0,3.701416015625,-13.998062133789062,32.60499954223633,991.6533203125,0.07293844223022461,32.775997161865234,67.24803161621094,1.115479826927185,48.099998474121094,-0.5885999798774719,-0.578790009021759,9.73151969909668,0.49000000953674316,-0.49000000953674316,0.49000000953674316,-3.4087393283843994,3.354370355606079,-142.70457458496094,0,1,7,92,456756200,2022,7,22,6,52,18,55,8,199603222,3,1,10,14,1362544384,352914006,124046,89251,2141,3246,22,-94,-54,97,17772277,326,5216477,155,,0,,0.0,172.4853515625,-169.541015625,32.60499954223633,991.598388671875,0.0,32.775997161865234,67.24803161621094,1.225000023841858,48.099998474121094,-0.5885999798774719,-0.578790009021759,9.73151969909668,0.49000000953674316,-0.49000000953674316,0.49000000953674316,-3.4087393283843994,3.354370355606079,-142.70457458496094,0,1,7,92,456756200,2022,7,22,6,52,18,55,8,199603222,3,1,10,14,1362544384,352914006,124046,89251,2141,3246,22,-94,-54,97,17772277,326,5216477,155,,0,,0.0,0.0,0.0,220,2130,2123,True,True,True,True,True,1,-168.783935546875,155.54295349121094,1.0,0.0,1.0,False,991.6611938476562,0.0,0.05000000074505806,True,0.0,0.0,0.0,0.0,0.0,0.0,0.0,0.0,0.0,1.0,1.0,False,False,False,False,False,False,False,False,False,False,False,False,False,False,False,False,False,False,False,False,False,False,False,False,False,False,False,False,False,False,False,False,False,False,False,False,False,False,False,False,False,False,False,False,True,False,False,False,False,False,False,-0.0,-0.02199999988079071,0.09399999678134918,0.05400000140070915,True,7,1,True,62,56,
1506577,1,1506142517,1506544588,0.0,3.679443359375,-14.020034790039062,32.55500030517578,991.6557006835938,0.050507742911577225,32.84809494018555,67.31365203857422,1.1151472330093384,48.099998474121094,-0.5297399759292603,-0.578790009021759,9.643230438232422,0.41999998688697815,-0.7699999809265137,0.14000000059604645,-3.5309457778930664,3.10296630859375,-142.69415283203125,0,1,7,92,456756300,2022,7,22,6,52,18,55,8,299603212,3,1,10,14,1362544385,352914006,124032,89238,2142,3250,-5,-41,-40,41,17772277,325,5216757,155,,0,,0.0,172.46337890625,-169.56298828125,32.55500030517578,991.6953125,0.0,32.84809494018555,67.31365203857422,1.225000023841858,48.099998474121094,-0.5297399759292603,-0.578790009021759,9.643230438232422,0.41999998688697815,-0.7699999809265137,0.14000000059604645,-3.5309457778930664,3.10296630859375,-142.69415283203125,0,1,7,92,456756300,2022,7,22,6,52,18,55,8,299603212,3,1,10,14,1362544385,352914006,124032,89238,2142,3250,-5,-41,-40,41,17772277,325,5216757,155,,0,,0.0,0.0,0.0,220,2129,2125,True,True,True,True,True,1,-168.783935546875,155.54295349121094,1.0,0.0,1.0,False,991.6611938476562,0.0,0.05000000074505806,True,0.0,0.0,0.0,0.0,0.0,0.0,0.0,0.0,0.0,1.0,1.0,False,False,False,False,False,False,False,False,False,False,False,False,False,False,False,False,False,False,False,False,False,False,False,False,False,False,False,False,False,False,False,False,False,False,False,False,False,False,False,False,False,False,False,False,True,False,False,False,False,False,False,-0.0,0.004999999888241291,0.04100000113248825,0.03999999910593033,True,7,1,True,62,56,
1506637,1,1506142517,1506627587,0.0,3.657470703125,-14.042007446289062,32.540000915527344,991.6577758789062,0.03365948796272278,32.73594284057617,67.27245330810547,1.1156580448150635,48.099998474121094,-0.5885999798774719,-0.6180300116539001,9.800189971923828,0.699999988079071,-0.6299999952316284,0.49000000953674316,-3.5954935550689697,3.2772467136383057,-142.67613220214844,0,1,7,92,456756400,2022,7,22,6,52,18,55,8,399603201,3,1,10,14,1362544384,352914007,124077,89283,2143,3253,-9,-42,-41,43,17772277,328,5217040,155,,0,,0.0,172.44140625,-169.5849609375,32.540000915527344,991.6953125,0.0,32.84809494018555,67.31365203857422,1.225000023841858,48.099998474121094,-0.5297399759292603,-0.578790009021759,9.643230438232422,0.41999998688697815,-0.7699999809265137,0.14000000059604645,-3.5309457778930664,3.10296630859375,-142.69415283203125,0,1,7,92,456756400,2022,7,22,6,52,18,55,8,399603201,3,1,10,14,1362544384,352914007,124077,89283,2143,3253,-9,-42,-41,43,17772277,328,5217040,155,,0,,0.0,0.0,0.0,222,2129,2124,True,True,True,True,True,1,-168.783935546875,155.54295349121094,1.0,0.0,1.0,False,991.6611938476562,0.0,0.05000000074505806,True,0.0,0.0,0.0,0.0,0.0,0.0,0.0,0.0,0.0,1.0,1.0,False,False,False,False,False,False,False,False,False,False,False,False,False,False,False,False,False,False,False,False,False,False,False,False,False,False,False,False,False,False,False,False,False,False,False,False,False,False,False,False,False,False,False,False,True,False,False,False,False,False,False,-0.0,0.008999999612569809,0.041999999433755875,0.04100000113248825,True,7,1,True,62,56,
1506697,1,1506142517,1506668918,0.0,3.679443359375,-14.042007446289062,32.560001373291016,991.656982421875,0.039278317242860794,32.80537033081055,67.23124694824219,1.115356683731079,48.099998474121094,-0.5984100103378296,-0.7161300182342529,9.8100004196167,0.14000000059604645,-0.49000000953674316,0.0,-3.6676981449127197,3.400881290435791,-142.6668701171875,0,1,7,92,456756400,2022,7,22,6,52,18,55,8,399603201,3,1,10,14,1362544384,352914007,124077,89283,2143,3253,-9,-42,-41,43,17772277,328,5217040,155,,0,,0.0,172.46337890625,-169.5849609375,32.560001373291016,991.627685546875,0.0,32.80537033081055,67.23124694824219,1.225000023841858,48.099998474121094,-0.5984100103378296,-0.7161300182342529,9.8100004196167,0.14000000059604645,-0.49000000953674316,0.0,-3.6676981449127197,3.400881290435791,-142.6668701171875,0,1,7,92,456756400,2022,7,22,6,52,18,55,8,399603201,3,1,10,14,1362544384,352914007,124077,89283,2143,3253,-9,-42,-41,43,17772277,328,5217040,155,,0,,0.0,0.0,0.0,221,2129,2123,True,True,True,True,True,1,-168.783935546875,155.54295349121094,1.0,0.0,1.0,False,991.6611938476562,0.0,0.05000000074505806,True,0.0,0.0,0.0,0.0,0.0,0.0,0.0,0.0,0.0,1.0,1.0,False,False,False,False,False,False,False,False,False,False,False,False,False,False,False,False,False,False,False,False,False,False,False,False,False,False,False,False,False,False,False,False,False,False,False,False,False,False,False,False,False,False,False,False,True,False,False,False,False,False,False,-0.0,0.008999999612569809,0.041999999433755875,0.04100000113248825,True,7,1,True,62,56,
1506757,1,1506142517,1506752322,0.0,3.679443359375,-13.976089477539062,32.58000183105469,991.658935546875,0.02244063839316368,32.74929428100586,67.28618621826172,1.115596890449524,48.099998474121094,-0.5591700077056885,-0.5101199746131897,9.721710205078125,0.2800000011920929,-0.41999998688697815,0.20999999344348907,-3.2837910652160645,3.460360527038574,-142.62969970703125,0,1,7,92,456756500,2022,7,22,6,52,18,55,8,499603191,3,1,10,14,1362544385,352914009,124117,89323,2144,3256,18,-3,-47,18,17772277,277,5217279,155,,0,,0.0,172.46337890625,-169.51904296875,32.58000183105469,991.733642578125,0.0,32.74929428100586,67.28618621826172,1.225000023841858,48.099998474121094,-0.5591700077056885,-0.5101199746131897,9.721710205078125,0.2800000011920929,-0.41999998688697815,0.20999999344348907,-3.2837910652160645,3.460360527038574,-142.62969970703125,0,1,7,92,456756500,2022,7,22,6,52,18,55,8,499603191,3,1,10,14,1362544385,352914009,124117,89323,2144,3256,18,-3,-47,18,17772277,277,5217279,155,,0,,0.0,0.0,0.0,221,2128,2123,True,True,True,True,True,1,-168.783935546875,155.54295349121094,1.0,0.0,1.0,False,991.6611938476562,0.0,0.05000000074505806,True,0.0,0.0,0.0,0.0,0.0,0.0,0.0,0.0,0.0,1.0,1.0,False,False,False,False,False,False,False,False,False,False,False,False,False,False,False,False,False,False,False,False,False,False,False,False,False,False,False,False,False,False,False,False,False,False,False,False,False,False,False,False,False,False,False,False,True,False,False,False,False,False,False,-0.0,-0.017999999225139618,0.003000000026077032,0.04699999839067459,True,7,1,True,61,56,
