SYS_TIME[ms],T_CNT[us],T_PPS[us],T_CAN_RSV[us],DP[Pa],AOA[deg],AOS[deg],T_DP_SENSOR[degC],PS[hPa],H_PS[m],TAT[degC],HUM[%],RHO[kg/m^3],T_PS_SENSOR[degC],AX[m/s^2],AY[m/s^2],AZ[m/s^2],GX[deg/s],GY[deg/s],GZ[deg/s],EX[deg],EY[deg],EZ[deg],MICROSECONDS_PPS[us],cls[-],id[-],len[-],iTOW[ms],year[y],month[month],day[d],hour[h],minute[min],sec[s],valid[-],tAcc[ns],nano[ns],fixType[-],flags[-],flags2[-],numSV[-],lon[10^7 deg],lat[10^7 deg],height[mm],hMSL[mm],hAcc[mm],vAcc[mm],velN[mm/s],velE[mm/s],velD[mm/s],gSpeed[mm/s],headMot[10^5 deg],sAcc[mm/s],headAcc[10^5 deg],pDOP[-],reserved1[-],headVeh[10^5 deg],reserved2[-],DP_raw[Pa],AOA_raw[deg],AOS_raw[deg],T_DP_SENSOR_raw[degC],PS_raw[hPa],H_PS_raw[m],TAT_raw[degC],HUM_raw[%],RHO_raw[kg/m^3],T_PS_SENSOR_raw[degC],AX_raw[m/s^2],AY_raw[m/s^2],AZ_raw[m/s^2],GX_raw[deg/s],GY_raw[deg/s],GZ_raw[deg/s],EX_raw[deg],EY_raw[deg],EZ_raw[deg],MICROSECONDS_PPS_raw[us],cls_raw[-],id_raw[-],len_raw[-],iTOW_raw[ms],year_raw[y],month_raw[month],day_raw[d],hour_raw[h],minute_raw[min],sec_raw[s],valid_raw[-],tAcc_raw[ns],nano_raw[ns],fixType_raw[-],flags_raw[-],flags2_raw[-],numSV_raw[-],lon_raw[10^7 deg],lat_raw[10^7 deg],height_raw[mm],hMSL_raw[mm],hAcc_raw[mm],vAcc_raw[mm],velN_raw[mm/s],velE_raw[mm/s],velD_raw[mm/s],gSpeed_raw[mm/s],headMot_raw[10^5 deg],sAcc_raw[mm/s],headAcc_raw[10^5 deg],pDOP_raw[-],reserved1_raw[-],headVeh_raw[10^5 deg],reserved2_raw[-],ROLL[deg],PITCH[deg],YAW[deg],H_US[-],ELEV[-],RUDD[-],AIR_DATA_EN[-],ENV_DATA_EN[-],IMU_DATA_EN[-],GPS_DATA_EN[-],LOGGING_EN[-],LOGGING_MODE[-],AOA_OFFSET[deg],AOS_OFFSET[deg],DP_GAIN[-],DP_OFFSET[Pa],LPF_DP[-],LPF_SW[-],PS_INIT_VAL[hPa],H_PS_OFFSET[m],LPF_PS[-],LPF_SW[-],AX_OFFSET[m/s^2],AY_OFFSET[m/s^2],AZ_OFFSET[m/s^2],GX_OFFSET[deg/s],GY_OFFSET[deg/s],GZ_OFFSET[deg/s],EX_OFFSET[deg],EY_OFFSET[deg],EZ_OFFSET[deg],LPF_ACC[-],LPF_GYR[-],LPF_ACC_SW[-],LPF_GYR_SW[-],DP_err[-],AOA_err[-],AOS_err[-],T_DP_SENSOR_err[-],DP_GAIN_err[-],DP_OFFSET_err[-],AOA_OFFSET_err[-],AOS_OFFSET_err[-],LPF_DP_err[-],DP_I2C_err[-],AOA_I2C_err[-],AOS_I2C_err[-],SETTING_DATA_READ_err[-],PS_err[-],T_PS_SENSOR_err[-],TAT_err[-],HUM_err[-],PS_INIT_VAL_err[-],H_PS_OFFSET_err[-],H_PS_err[-],RHO_err[-],LPF_PS_err[-],ENV_I2C_err[-],SETTING_DATA_READ_err[-],AX_err[-],AY_err[-],AZ_err[-],GX_err[-],GY_err[-],GZ_err[-],LPF_ACC_err[-],LPF_GYR_err[-],AX_OFFSET_err[-],AY_OFFSET_err[-],AZ_OFFSET_err[-],GX_OFFSET_err[-],GY_OFFSET_err[-],GZ_OFFSET_err[-],EX_OFFSET_err[-],EY_OFFSET_err[-],EZ_OFFSET_err[-],SETTING_DATA_READ_err[-],PPS_INTV_err[-],MEG_INTV_err[-],CHK_SUM_err[-],INIT_err[-],SET_MODE_err[-],SEND_err[-],RECEIVE_err[-],AIRSPEED[m/s],WINDN[m/s],WINDE[m/s],WINDD[m/s],SD_DETECT[-],LOG_NUMBER[-],LOGGING_MODE[-],LOGGING_EN[-],CPU_USED[%],MEMORY_USED[%],
4488,1,0,1006012,-0.01666666753590107,3.987060546875,-8.724624633789062,23.739999771118164,992.0265502929688,0.0054404172115027905,23.493934631347656,65.5832748413086,1.1572264432907104,24.290000915527344,0.9123299717903137,-0.1373399943113327,9.780570030212402,0.2800000011920929,-0.2800000011920929,0.14000000059604645,-0.8078393340110779,-5.338659286499023,-179.3931884765625,0,0,0,0,0,2000,1,1,0,0,0,0,0,0,0,0,0,0,0,0,0,0,0,0,0,0,0,0,0,0,0,0,,0,,-0.01666666753590107,172.77099609375,-164.267578125,23.739999771118164,992.0634765625,0.0,23.493934631347656,65.5832748413086,1.225000023841858,24.290000915527344,0.9123299717903137,-0.1373399943113327,9.780570030212402,0.2800000011920929,-0.2800000011920929,0.14000000059604645,-0.8078393340110779,-5.338659286499023,-179.3931884765625,0,0,0,0,0,2000,1,1,0,0,0,0,0,0,0,0,0,0,0,0,0,0,0,0,0,0,0,0,0,0,0,0,,0,,0.0,0.0,0.0,74,3870,3728,True,True,True,True,True,1,-168.783935546875,155.54295349121094,1.0,0.0,1.0,False,992.0270385742188,0.0,0.05000000074505806,True,0.0,0.0,0.0,0.0,0.0,0.0,0.0,0.0,0.0,1.0,1.0,False,False,False,False,False,False,False,False,False,False,False,False,False,False,False,False,False,False,False,False,False,False,False,False,False,False,False,False,False,False,False,False,False,False,False,False,False,False,False,False,False,False,False,False,False,True,False,False,False,False,False,0.1697189062833786,-0.09727518260478973,0.08955133706331253,-0.06115570291876793,True,0,1,True,56,56,
4551,1,0,4536865,-0.01666666753590107,3.965087890625,-8.680679321289062,23.774999618530273,992.027099609375,0.0,23.43785858154297,65.4673080444336,1.15748929977417,24.290000915527344,0.8927099704742432,-0.16676999628543854,9.790379524230957,0.3499999940395355,-0.699999988079071,-0.14000000059604645,-0.9676304459571838,-5.224076271057129,-179.37808227539062,0,1,7,92,6100,2015,10,18,0,0,6,240,4294967295,100000000,0,0,4,0,0,0,0,-17000,4294967295,3750000128,0,0,0,0,0,20000,18000000,9999,,0,,-0.01666666753590107,172.7490234375,-164.2236328125,23.774999618530273,991.940673828125,0.0,23.43785858154297,65.4673080444336,1.225000023841858,24.290000915527344,0.8927099704742432,-0.16676999628543854,9.790379524230957,0.3499999940395355,-0.699999988079071,-0.14000000059604645,-0.9676304459571838,-5.224076271057129,-179.37808227539062,0,1,7,92,6100,2015,10,18,0,0,6,240,4294967295,100000000,0,0,4,0,0,0,0,-17000,4294967295,3750000128,0,0,0,0,0,20000,18000000,9999,,0,,0.0,0.0,0.0,70,3873,3726,True,True,True,True,True,1,-168.783935546875,155.54295349121094,1.0,0.0,1.0,False,992.0270385742188,0.0,0.05000000074505806,True,0.0,0.0,0.0,0.0,0.0,0.0,0.0,0.0,0.0,1.0,1.0,False,False,False,False,False,False,False,False,False,False,False,False,False,False,False,False,False,False,False,False,False,False,False,False,False,False,False,False,False,False,False,False,False,False,False,False,False,False,False,False,False,False,False,False,False,False,False,False,False,False,False,0.16969962418079376,-0.06552597880363464,0.07435215264558792,-0.08005110919475555,True,0,1,True,53,56,
4611,1,0,4578446,-0.01666666753590107,3.987060546875,-8.746597290039062,23.71500015258789,992.0308227539062,-0.03264573588967323,23.52330780029297,65.43221282958984,1.1571214199066162,24.290000915527344,0.9025200009346008,-0.12752999365329742,9.800189971923828,0.14000000059604645,-0.41999998688697815,0.0,-0.8006717562675476,-5.261138439178467,-179.39024353027344,0,1,7,92,6200,2015,10,18,0,0,6,240,4294967295,200000000,0,0,4,0,0,0,0,-17000,4294967295,3750000128,0,0,0,0,0,20000,18000000,9999,,0,,-0.01666666753590107,172.77099609375,-164.28955078125,23.71500015258789,992.00732421875,0.0,23.52330780029297,65.43221282958984,1.225000023841858,24.290000915527344,0.9025200009346008,-0.12752999365329742,9.800189971923828,0.14000000059604645,-0.41999998688697815,0.0,-0.8006717562675476,-5.261138439178467,-179.39024353027344,0,1,7,92,6200,2015,10,18,0,0,6,240,4294967295,200000000,0,0,4,0,0,0,0,-17000,4294967295,3750000128,0,0,0,0,0,20000,18000000,9999,,0,,0.0,0.0,0.0,71,3874,3726,True,True,True,True,True,1,-168.783935546875,155.54295349121094,1.0,0.0,1.0,False,992.0270385742188,0.0,0.05000000074505806,True,0.0,0.0,0.0,0.0,0.0,0.0,0.0,0.0,0.0,1.0,1.0,False,False,False,False,False,False,False,False,False,False,False,False,False,False,False,False,False,False,False,False,False,False,False,False,False,False,False,False,False,False,False,False,False,False,False,False,False,False,False,False,False,False,False,False,False,False,False,False,False,False,False,0.16972659528255463,-0.09586359560489655,0.08821414411067963,-0.06533760577440262,True,0,1,True,55,56,
4671,1,0,4662348,-0.01666666753590107,3.965087890625,-8.658706665039062,23.735000610351562,992.0255737304688,0.010880344547331333,23.48058319091797,65.36202239990234,1.1573126316070557,24.299999237060547,0.9417600035667419,-0.12752999365329742,9.770759582519531,0.6299999952316284,-0.20999999344348907,0.20999999344348907,-0.7355231046676636,-5.509740352630615,-179.38568115234375,0,1,7,92,6200,2015,10,18,0,0,6,240,4294967295,200000000,0,0,4,0,0,0,0,-17000,4294967295,3750000128,0,0,0,0,0,20000,18000000,9999,,0,,-0.01666666753590107,172.7490234375,-164.20166015625,23.735000610351562,992.0263671875,0.0,23.48058319091797,65.36202239990234,1.225000023841858,24.299999237060547,0.9417600035667419,-0.12752999365329742,9.770759582519531,0.6299999952316284,-0.20999999344348907,0.20999999344348907,-0.7355231046676636,-5.509740352630615,-179.38568115234375,0,1,7,92,6200,2015,10,18,0,0,6,240,4294967295,200000000,0,0,4,0,0,0,0,-17000,4294967295,3750000128,0,0,0,0,0,20000,18000000,9999,,0,,0.0,0.0,0.0,80,3874,3726,True,True,True,True,True,1,-168.783935546875,155.54295349121094,1.0,0.0,1.0,False,992.0270385742188,0.0,0.05000000074505806,True,0.0,0.0,0.0,0.0,0.0,0.0,0.0,0.0,0.0,1.0,1.0,False,False,False,False,False,False,False,False,False,False,False,False,False,False,False,False,False,False,False,False,False,False,False,False,False,False,False,False,False,False,False,False,False,False,False,False,False,False,False,False,False,False,False,False,False,False,False,False,False,False,False,0.16971257328987122,-0.10210272669792175,0.09622824192047119,-0.04886879026889801,True,0,1,True,54,56,
4731,1,0,4703060,-0.03333333507180214,3.943115234375,-8.746597290039062,23.739999771118164,992.0305786132812,-0.03264250233769417,23.493934631347656,65.46883392333984,1.1572458744049072,24.309999465942383,0.9025200009346008,-0.1373399943113327,9.760950088500977,0.8399999737739563,-0.49000000953674316,-0.14000000059604645,-0.7032615542411804,-5.297164440155029,-179.3929443359375,0,1,7,92,6300,2015,10,18,0,0,6,240,4294967295,299999999,0,0,4,0,0,0,0,-17000,4294967295,3750000128,0,0,0,0,0,20000,18000000,9999,,0,,-0.03333333507180214,172.72705078125,-164.28955078125,23.739999771118164,992.10009765625,0.0,23.493934631347656,65.46883392333984,1.225000023841858,24.309999465942383,0.9025200009346008,-0.1373399943113327,9.760950088500977,0.8399999737739563,-0.49000000953674316,-0.14000000059604645,-0.7032615542411804,-5.297164440155029,-179.3929443359375,0,1,7,92,6300,2015,10,18,0,0,6,240,4294967295,299999999,0,0,4,0,0,0,0,-17000,4294967295,3750000128,0,0,0,0,0,20000,18000000,9999,,0,,0.0,0.0,0.0,75,3873,3725,True,True,True,True,True,1,-168.783935546875,155.54295349121094,1.0,0.0,1.0,False,992.0270385742188,0.0,0.05000000074505806,True,0.0,0.0,0.0,0.0,0.0,0.0,0.0,0.0,0.0,1.0,1.0,False,False,False,False,False,False,False,False,False,False,False,False,False,False,False,False,False,False,False,False,False,False,False,False,False,False,False,False,False,False,False,False,False,False,False,False,False,False,False,False,False,False,False,False,False,False,False,False,False,False,False,0.24001675844192505,-0.14829382300376892,0.13515612483024597,-0.08926813304424286,True,0,1,True,53,56,
4791,1,0,4786646,-0.03333333507180214,4.009033203125,-8.702651977539062,23.7549991607666,992.0361328125,-0.07888250052928925,23.48058319091797,65.3818588256836,1.1573225259780884,24.309999465942383,0.9123299717903137,-0.1373399943113327,9.760950088500977,0.8399999737739563,-0.6299999952316284,-0.07000000029802322,-0.8892232179641724,-5.374922275543213,-179.3603057861328,0,1,7,92,6300,2015,10,18,0,0,6,240,4294967295,299999999,0,0,4,0,0,0,0,-17000,4294967295,3750000128,0,0,0,0,0,20000,18000000,9999,,0,,-0.03333333507180214,172.79296875,-164.24560546875,23.7549991607666,992.0244140625,0.0,23.48058319091797,65.3818588256836,1.225000023841858,24.309999465942383,0.9123299717903137,-0.1373399943113327,9.760950088500977,0.8399999737739563,-0.6299999952316284,-0.07000000029802322,-0.8892232179641724,-5.374922275543213,-179.3603057861328,0,1,7,92,6300,2015,10,18,0,0,6,240,4294967295,299999999,0,0,4,0,0,0,0,-17000,4294967295,3750000128,0,0,0,0,0,20000,18000000,9999,,0,,0.0,0.0,0.0,73,3874,3724,True,True,True,True,True,1,-168.783935546875,155.54295349121094,1.0,0.0,1.0,False,992.0270385742188,0.0,0.05000000074505806,True,0.0,0.0,0.0,0.0,0.0,0.0,0.0,0.0,0.0,1.0,1.0,False,False,False,False,False,False,False,False,False,False,False,False,False,False,False,False,False,False,False,False,False,False,False,False,False,False,False,False,False,False,False,False,False,False,False,False,False,False,False,False,False,False,False,False,False,False,False,False,False,False,False,0.24000880122184753,-0.12276212126016617,0.11440760642290115,-0.08762495219707489,True,0,1,True,54,56,
4851,1,0,4828032,-0.01666666753590107,3.987060546875,-8.702651977539062,23.760000228881836,992.0325317382812,-0.048968605697155,23.52330780029297,65.38948822021484,1.157128930091858,24.329999923706055,0.9123299717903137,-0.11772000044584274,9.760950088500977,0.41999998688697815,-0.2800000011920929,0.07000000029802322,-0.7080738544464111,-5.32576322555542,-179.3711700439453,0,1,7,92,6400,2015,10,18,0,0,6,240,4294967295,400000000,0,0,4,0,0,0,0,-17000,4294967295,3750000128,0,0,0,0,0,20000,18000000,9999,,0,,-0.01666666753590107,172.77099609375,-164.24560546875,23.760000228881836,991.976806640625,0.0,23.52330780029297,65.38948822021484,1.225000023841858,24.329999923706055,0.9123299717903137,-0.11772000044584274,9.760950088500977,0.41999998688697815,-0.2800000011920929,0.07000000029802322,-0.7080738544464111,-5.32576322555542,-179.3711700439453,0,1,7,92,6400,2015,10,18,0,0,6,240,4294967295,400000000,0,0,4,0,0,0,0,-17000,4294967295,3750000128,0,0,0,0,0,20000,18000000,9999,,0,,0.0,0.0,0.0,107,3874,3725,True,True,True,True,True,1,-168.783935546875,155.54295349121094,1.0,0.0,1.0,False,992.0270385742188,0.0,0.05000000074505806,True,0.0,0.0,0.0,0.0,0.0,0.0,0.0,0.0,0.0,1.0,1.0,False,False,False,False,False,False,False,False,False,False,False,False,False,False,False,False,False,False,False,False,False,False,False,False,False,False,False,False,False,False,False,False,False,False,False,False,False,False,False,False,False,False,False,False,False,False,False,False,False,False,False,0.16972605884075165,-0.10026466846466064,0.09253641963005066,-0.05527794733643532,True,0,1,True,54,56,
4911,1,0,4911312,-0.01666666753590107,4.031005859375,-8.724624633789062,23.709999084472656,992.0286865234375,-0.01631978340446949,23.46723175048828,65.35897064208984,1.1573755741119385,24.329999923706055,0.9123299717903137,-0.10790999978780746,9.751139640808105,0.5600000023841858,-0.49000000953674316,0.0,-0.5292717814445496,-5.236647129058838,-179.38404846191406,0,1,7,92,6500,2015,10,18,0,0,6,240,4294967295,500000000,0,0,4,0,0,0,0,-17000,4294967295,3750000128,0,0,0,0,0,20000,18000000,9999,,0,,-0.01666666753590107,172.81494140625,-164.267578125,23.709999084472656,992.026611328125,0.0,23.46723175048828,65.35897064208984,1.225000023841858,24.329999923706055,0.9123299717903137,-0.10790999978780746,9.751139640808105,0.5600000023841858,-0.49000000953674316,0.0,-0.5292717814445496,-5.236647129058838,-179.38404846191406,0,1,7,92,6500,2015,10,18,0,0,6,240,4294967295,500000000,0,0,4,0,0,0,0,-17000,4294967295,3750000128,0,0,0,0,0,20000,18000000,9999,,0,,0.0,0.0,0.0,107,3873,3725,True,True,True,True,True,1,-168.783935546875,155.54295349121094,1.0,0.0,1.0,False,992.0270385742188,0.0,0.05000000074505806,True,0.0,0.0,0.0,0.0,0.0,0.0,0.0,0.0,0.0,1.0,1.0,False,False,False,False,False,False,False,False,False,False,False,False,False,False,False,False,False,False,False,False,False,False,False,False,False,False,False,False,False,False,False,False,False,False,False,False,False,False,False,False,False,False,False,False,False,False,False,False,False,False,False,0.16970796883106232,-0.11595264077186584,0.09878794848918915,-0.044619981199502945,True,0,1,True,54,56,
4972,1,0,4952943,-0.03333333507180214,4.009033203125,-8.702651977539062,23.7549991607666,992.0261840820312,0.005440662149339914,23.507286071777344,65.31319427490234,1.157201886177063,24.329999923706055,0.8927099704742432,-0.12752999365329742,9.751139640808105,0.6299999952316284,-0.5600000023841858,0.07000000029802322,-0.8565114140510559,-5.354233264923096,-179.34605407714844,0,1,7,92,6500,2015,10,18,0,0,6,240,4294967295,500000000,0,0,4,0,0,0,0,-17000,4294967295,3750000128,0,0,0,0,0,20000,18000000,9999,,0,,-0.03333333507180214,172.79296875,-164.24560546875,23.7549991607666,991.995361328125,0.0,23.507286071777344,65.31319427490234,1.225000023841858,24.329999923706055,0.8927099704742432,-0.12752999365329742,9.751139640808105,0.6299999952316284,-0.5600000023841858,0.07000000029802322,-0.8565114140510559,-5.354233264923096,-179.34605407714844,0,1,7,92,6500,2015,10,18,0,0,6,240,4294967295,500000000,0,0,4,0,0,0,0,-17000,4294967295,3750000128,0,0,0,0,0,20000,18000000,9999,,0,,0.0,0.0,0.0,107,3873,3726,True,True,True,True,True,1,-168.783935546875,155.54295349121094,1.0,0.0,1.0,False,992.0270385742188,0.0,0.05000000074505806,True,0.0,0.0,0.0,0.0,0.0,0.0,0.0,0.0,0.0,1.0,1.0,False,False,False,False,False,False,False,False,False,False,False,False,False,False,False,False,False,False,False,False,False,False,False,False,False,False,False,False,False,False,False,False,False,False,False,False,False,False,False,False,False,False,False,False,False,False,False,False,False,False,False,0.24002131819725037,-0.1231997162103653,0.11456729471683502,-0.08585266768932343,True,0,1,True,53,56,
5032,1,0,4994237,-0.03333333507180214,3.987060546875,-8.680679321289062,23.7450008392334,992.029296875,-0.01904420368373394,23.536659240722656,65.42305755615234,1.15706205368042,24.350000381469727,0.9025200009346008,-0.12752999365329742,9.770759582519531,0.5600000023841858,-0.5600000023841858,0.20999999344348907,-0.7092959880828857,-5.122239112854004,-179.34548950195312,0,1,7,92,6600,2015,10,18,0,0,6,240,4294967295,600000000,0,0,4,0,0,0,0,-17000,4294967295,3750000128,0,0,0,0,0,20000,18000000,9999,,0,,-0.03333333507180214,172.77099609375,-164.2236328125,23.7450008392334,992.01904296875,0.0,23.536659240722656,65.42305755615234,1.225000023841858,24.350000381469727,0.9025200009346008,-0.12752999365329742,9.770759582519531,0.5600000023841858,-0.5600000023841858,0.20999999344348907,-0.7092959880828857,-5.122239112854004,-179.34548950195312,0,1,7,92,6600,2015,10,18,0,0,6,240,4294967295,600000000,0,0,4,0,0,0,0,-17000,4294967295,3750000128,0,0,0,0,0,20000,18000000,9999,,0,,0.0,0.0,0.0,109,3875,3726,True,True,True,True,True,1,-168.783935546875,155.54295349121094,1.0,0.0,1.0,False,992.0270385742188,0.0,0.05000000074505806,True,0.0,0.0,0.0,0.0,0.0,0.0,0.0,0.0,0.0,1.0,1.0,False,False,False,False,False,False,False,False,False,False,False,False,False,False,False,False,False,False,False,False,False,False,False,False,False,False,False,False,False,False,False,False,False,False,False,False,False,False,False,False,False,False,False,False,False,False,False,False,False,False,False,0.24003581702709198,-0.11698585748672485,0.12225151062011719,-0.09548142552375793,True,0,1,True,54,56,
5092,1,0,5077248,-0.03333333507180214,3.965087890625,-8.658706665039062,23.7549991607666,992.0287475585938,-0.016318900510668755,23.451210021972656,65.20790100097656,1.1574655771255493,24.350000381469727,0.9319499731063843,-0.1373399943113327,9.760950088500977,0.14000000059604645,-0.49000000953674316,0.14000000059604645,-0.8412975668907166,-5.454988479614258,-179.31752014160156,0,1,7,92,6600,2015,10,18,0,0,6,240,4294967295,600000000,0,0,4,0,0,0,0,-17000,4294967295,3750000128,0,0,0,0,0,20000,18000000,9999,,0,,-0.03333333507180214,172.7490234375,-164.20166015625,23.7549991607666,992.0234375,0.0,23.451210021972656,65.20790100097656,1.225000023841858,24.350000381469727,0.9319499731063843,-0.1373399943113327,9.760950088500977,0.14000000059604645,-0.49000000953674316,0.14000000059604645,-0.8412975668907166,-5.454988479614258,-179.31752014160156,0,1,7,92,6600,2015,10,18,0,0,6,240,4294967295,600000000,0,0,4,0,0,0,0,-17000,4294967295,3750000128,0,0,0,0,0,20000,18000000,9999,,0,,0.0,0.0,0.0,107,3873,3726,True,True,True,True,True,1,-168.783935546875,155.54295349121094,1.0,0.0,1.0,False,992.0270385742188,0.0,0.05000000074505806,True,0.0,0.0,0.0,0.0,0.0,0.0,0.0,0.0,0.0,1.0,1.0,False,False,False,False,False,False,False,False,False,False,False,False,False,False,False,False,False,False,False,False,False,False,False,False,False,False,False,False,False,False,False,False,False,False,False,False,False,False,False,False,False,False,False,False,False,False,False,False,False,False,False,0.23999397456645966,-0.11876265704631805,0.1156483143568039,-0.08643289655447006,True,0,1,True,54,56,
5152,1,0,5118817,-0.03333333507180214,3.943115234375,-8.702651977539062,23.739999771118164,992.0318603515625,-0.04352137818932533,23.48058319091797,65.3086166381836,1.1573268175125122,24.350000381469727,0.9417600035667419,-0.20600999891757965,9.7020902633667,0.41999998688697815,-0.14000000059604645,-0.14000000059604645,-0.9195558428764343,-5.541226863861084,-179.3074493408203,0,1,7,92,6700,2015,10,18,0,0,6,240,4294967295,700000000,0,0,4,0,0,0,0,-17000,4294967295,3750000128,0,0,0,0,0,20000,18000000,9999,,0,,-0.03333333507180214,172.72705078125,-164.24560546875,23.739999771118164,992.015625,0.0,23.48058319091797,65.3086166381836,1.225000023841858,24.350000381469727,0.9417600035667419,-0.20600999891757965,9.7020902633667,0.41999998688697815,-0.14000000059604645,-0.14000000059604645,-0.9195558428764343,-5.541226863861084,-179.3074493408203,0,1,7,92,6700,2015,10,18,0,0,6,240,4294967295,700000000,0,0,4,0,0,0,0,-17000,4294967295,3750000128,0,0,0,0,0,20000,18000000,9999,,0,,0.0,0.0,0.0,67,3876,3727,True,True,True,True,True,1,-168.783935546875,155.54295349121094,1.0,0.0,1.0,False,992.0270385742188,0.0,0.05000000074505806,True,0.0,0.0,0.0,0.0,0.0,0.0,0.0,0.0,0.0,1.0,1.0,False,False,False,False,False,False,False,False,False,False,False,False,False,False,False,False,False,False,False,False,False,False,False,False,False,False,False,False,False,False,False,False,False,False,False,False,False,False,False,False,False,False,False,False,False,False,False,False,False,False,False,0.2400083690881729,-0.12345671653747559,0.10933051258325577,-0.09153858572244644,True,0,1,True,54,56,
5212,1,0,5202115,-0.03333333507180214,4.031005859375,-8.658706665039062,23.7450008392334,992.02783203125,-0.008160993456840515,23.507286071777344,65.2933578491211,1.157206416130066,24.360000610351562,0.9221400022506714,-0.1373399943113327,9.751139640808105,0.5600000023841858,-0.3499999940395355,0.0,-0.795317530632019,-5.340703964233398,-179.31117248535156,0,1,7,92,6800,2015,10,18,0,0,6,240,4294967295,799999999,0,0,4,0,0,0,0,-17000,4294967295,3750000128,0,0,0,0,0,20000,18000000,9999,,0,,-0.03333333507180214,172.81494140625,-164.20166015625,23.7450008392334,991.998779296875,0.0,23.507286071777344,65.2933578491211,1.225000023841858,24.360000610351562,0.9221400022506714,-0.1373399943113327,9.751139640808105,0.5600000023841858,-0.3499999940395355,0.0,-0.795317530632019,-5.340703964233398,-179.31117248535156,0,1,7,92,6800,2015,10,18,0,0,6,240,4294967295,799999999,0,0,4,0,0,0,0,-17000,4294967295,3750000128,0,0,0,0,0,20000,18000000,9999,,0,,0.0,0.0,0.0,70,3875,3724,True,True,True,True,True,1,-168.783935546875,155.54295349121094,1.0,0.0,1.0,False,992.0270385742188,0.0,0.05000000074505806,True,0.0,0.0,0.0,0.0,0.0,0.0,0.0,0.0,0.0,1.0,1.0,False,False,False,False,False,False,False,False,False,False,False,False,False,False,False,False,False,False,False,False,False,False,False,False,False,False,False,False,False,False,False,False,False,False,False,False,False,False,False,False,False,False,False,False,False,False,False,False,False,False,False,0.24002084136009216,-0.11759409308433533,0.11305195838212967,-0.07685387134552002,True,0,1,True,55,56,
5272,1,0,5243235,-0.03333333507180214,4.052978515625,-8.746597290039062,23.729999542236328,992.02587890625,0.010881911963224411,23.52330780029297,65.2628402709961,1.157137393951416,24.3700008392334,0.8828999996185303,-0.11772000044584274,9.83942985534668,0.6299999952316284,-0.7699999809265137,-0.14000000059604645,-0.7911204099655151,-5.018280029296875,-179.31446838378906,0,1,7,92,6800,2015,10,18,0,0,6,240,4294967295,799999999,0,0,4,0,0,0,0,-17000,4294967295,3750000128,0,0,0,0,0,20000,18000000,9999,,0,,-0.03333333507180214,172.8369140625,-164.28955078125,23.729999542236328,991.936279296875,0.0,23.52330780029297,65.2628402709961,1.225000023841858,24.3700008392334,0.8828999996185303,-0.11772000044584274,9.83942985534668,0.6299999952316284,-0.7699999809265137,-0.14000000059604645,-0.7911204099655151,-5.018280029296875,-179.31446838378906,0,1,7,92,6800,2015,10,18,0,0,6,240,4294967295,799999999,0,0,4,0,0,0,0,-17000,4294967295,3750000128,0,0,0,0,0,20000,18000000,9999,,0,,0.0,0.0,0.0,72,3875,3725,True,True,True,True,True,1,-168.783935546875,155.54295349121094,1.0,0.0,1.0,False,992.0270385742188,0.0,0.05000000074505806,True,0.0,0.0,0.0,0.0,0.0,0.0,0.0,0.0,0.0,1.0,1.0,False,False,False,False,False,False,False,False,False,False,False,False,False,False,False,False,False,False,False,False,False,False,False,False,False,False,False,False,False,False,False,False,False,False,False,False,False,False,False,False,False,False,False,False,False,False,False,False,False,False,False,0.2400280088186264,-0.10986194014549255,0.10541503131389618,-0.0976778045296669,True,0,1,True,55,56,
5332,1,0,5326748,-0.03333333507180214,3.987060546875,-8.658706665039062,23.774999618530273,992.0276489257812,-0.0054409559816122055,23.52330780029297,65.16975402832031,1.1571515798568726,24.3700008392334,0.9025200009346008,-0.12752999365329742,9.8100004196167,0.49000000953674316,-0.5600000023841858,0.3499999940395355,-0.6960278749465942,-5.132174968719482,-179.3066864013672,0,1,7,92,6900,2015,10,18,0,0,6,240,4294967295,900000000,0,0,4,0,0,0,0,-17000,4294967295,3750000128,0,0,0,0,0,20000,18000000,9999,,0,,-0.03333333507180214,172.77099609375,-164.20166015625,23.774999618530273,992.093017578125,0.0,23.52330780029297,65.16975402832031,1.225000023841858,24.3700008392334,0.9025200009346008,-0.12752999365329742,9.8100004196167,0.49000000953674316,-0.5600000023841858,0.3499999940395355,-0.6960278749465942,-5.132174968719482,-179.3066864013672,0,1,7,92,6900,2015,10,18,0,0,6,240,4294967295,900000000,0,0,4,0,0,0,0,-17000,4294967295,3750000128,0,0,0,0,0,20000,18000000,9999,,0,,0.0,0.0,0.0,99,3874,3725,True,True,True,True,True,1,-168.783935546875,155.54295349121094,1.0,0.0,1.0,False,992.0270385742188,0.0,0.05000000074505806,True,0.0,0.0,0.0,0.0,0.0,0.0,0.0,0.0,0.0,1.0,1.0,False,False,False,False,False,False,False,False,False,False,False,False,False,False,False,False,False,False,False,False,False,False,False,False,False,False,False,False,False,False,False,False,False,False,False,False,False,False,False,False,False,False,False,False,False,False,False,False,False,False,False,0.2400265336036682,-0.11001121252775192,0.11878908425569534,-0.09315088391304016,True,0,1,True,53,56,
5393,1,0,5368158,-0.03333333507180214,4.009033203125,-8.702651977539062,23.735000610351562,992.0253295898438,0.01631978340446949,23.46723175048828,65.15754699707031,1.1573973894119263,24.3799991607666,0.9221400022506714,-0.15695999562740326,9.760950088500977,0.41999998688697815,-0.3499999940395355,0.3499999940395355,-0.7922413945198059,-5.290984630584717,-179.28518676757812,0,1,7,92,6900,2015,10,18,0,0,6,240,4294967295,900000000,0,0,4,0,0,0,0,-17000,4294967295,3750000128,0,0,0,0,0,20000,18000000,9999,,0,,-0.03333333507180214,172.79296875,-164.24560546875,23.735000610351562,992.07666015625,0.0,23.46723175048828,65.15754699707031,1.225000023841858,24.3799991607666,0.9221400022506714,-0.15695999562740326,9.760950088500977,0.41999998688697815,-0.3499999940395355,0.3499999940395355,-0.7922413945198059,-5.290984630584717,-179.28518676757812,0,1,7,92,6900,2015,10,18,0,0,6,240,4294967295,900000000,0,0,4,0,0,0,0,-17000,4294967295,3750000128,0,0,0,0,0,20000,18000000,9999,,0,,0.0,0.0,0.0,96,3873,3726,True,True,True,True,True,1,-168.783935546875,155.54295349121094,1.0,0.0,1.0,False,992.0270385742188,0.0,0.05000000074505806,True,0.0,0.0,0.0,0.0,0.0,0.0,0.0,0.0,0.0,1.0,1.0,False,False,False,False,False,False,False,False,False,False,False,False,False,False,False,False,False,False,False,False,False,False,False,False,False,False,False,False,False,False,False,False,False,False,False,False,False,False,False,False,False,False,False,False,False,False,False,False,False,False,False,0.24000103771686554,-0.11752953380346298,0.10893270373344421,-0.08472056686878204,True,0,1,True,55,56,
5453,1,0,5451177,-0.01666666753590107,3.965087890625,-8.702651977539062,23.790000915527344,992.0263061523438,0.005441200919449329,23.536659240722656,65.12855529785156,1.1570963859558105,24.389999389648438,0.8730900287628174,-0.14714999496936798,9.760950088500977,0.49000000953674316,-0.20999999344348907,0.14000000059604645,-0.9843553304672241,-5.046802043914795,-179.25411987304688,0,1,7,92,7000,2015,10,18,0,0,7,240,4294967295,0,0,0,4,0,0,0,0,-17000,4294967295,3750000128,0,0,0,0,0,20000,18000000,9999,,0,,-0.01666666753590107,172.7490234375,-164.24560546875,23.790000915527344,992.0029296875,0.0,23.536659240722656,65.12855529785156,1.225000023841858,24.389999389648438,0.8730900287628174,-0.14714999496936798,9.760950088500977,0.49000000953674316,-0.20999999344348907,0.14000000059604645,-0.9843553304672241,-5.046802043914795,-179.25411987304688,0,1,7,92,7000,2015,10,18,0,0,7,240,4294967295,0,0,0,4,0,0,0,0,-17000,4294967295,3750000128,0,0,0,0,0,20000,18000000,9999,,0,,0.0,0.0,0.0,71,3873,3727,True,True,True,True,True,1,-168.783935546875,155.54295349121094,1.0,0.0,1.0,False,992.0270385742188,0.0,0.05000000074505806,True,0.0,0.0,0.0,0.0,0.0,0.0,0.0,0.0,0.0,1.0,1.0,False,False,False,False,False,False,False,False,False,False,False,False,False,False,False,False,False,False,False,False,False,False,False,False,False,False,False,False,False,False,False,False,False,False,False,False,False,False,False,False,False,False,False,False,False,False,False,False,False,False,False,0.16972844302654266,-0.038848672062158585,0.05882241576910019,-0.08564488589763641,True,0,1,True,53,56,
5513,1,0,5492591,-0.01666666753590107,4.009033203125,-8.702651977539062,23.780000686645508,992.0226440429688,0.03808120638132095,23.48058319091797,65.13923645019531,1.1573377847671509,24.389999389648438,0.9123299717903137,-0.1373399943113327,9.74133014678955,0.41999998688697815,-0.7699999809265137,0.07000000029802322,-0.8293277621269226,-5.347226142883301,-179.2616729736328,0,1,7,92,7100,2015,10,18,0,0,7,240,4294967295,100000000,0,0,4,0,0,0,0,-17000,4294967295,3750000128,0,0,0,0,0,20000,18000000,9999,,0,,-0.01666666753590107,172.79296875,-164.24560546875,23.780000686645508,991.99658203125,0.0,23.48058319091797,65.13923645019531,1.225000023841858,24.389999389648438,0.9123299717903137,-0.1373399943113327,9.74133014678955,0.41999998688697815,-0.7699999809265137,0.07000000029802322,-0.8293277621269226,-5.347226142883301,-179.2616729736328,0,1,7,92,7100,2015,10,18,0,0,7,240,4294967295,100000000,0,0,4,0,0,0,0,-17000,4294967295,3750000128,0,0,0,0,0,20000,18000000,9999,,0,,0.0,0.0,0.0,72,3874,3726,True,True,True,True,True,1,-168.783935546875,155.54295349121094,1.0,0.0,1.0,False,992.0270385742188,0.0,0.05000000074505806,True,0.0,0.0,0.0,0.0,0.0,0.0,0.0,0.0,0.0,1.0,1.0,False,False,False,False,False,False,False,False,False,False,False,False,False,False,False,False,False,False,False,False,False,False,False,False,False,False,False,False,False,False,False,False,False,False,False,False,False,False,False,False,False,False,False,False,False,False,False,False,False,False,False,0.16971074044704437,-0.08040714263916016,0.0728161484003067,-0.05914980545639992,True,0,1,True,55,56,
5573,1,0,5534314,-0.01666666753590107,3.987060546875,-8.746597290039062,23.770000457763672,992.0269165039062,0.0,23.606088638305664,65.14228820800781,1.1567894220352173,24.399999618530273,0.9025200009346008,-0.1373399943113327,9.751139640808105,0.699999988079071,-0.49000000953674316,0.07000000029802322,-0.6097561717033386,-5.28788423538208,-179.27294921875,0,1,7,92,7100,2015,10,18,0,0,7,240,4294967295,100000000,0,0,4,0,0,0,0,-17000,4294967295,3750000128,0,0,0,0,0,20000,18000000,9999,,0,,-0.01666666753590107,172.77099609375,-164.28955078125,23.770000457763672,992.076904296875,0.0,23.606088638305664,65.14228820800781,1.225000023841858,24.399999618530273,0.9025200009346008,-0.1373399943113327,9.751139640808105,0.699999988079071,-0.49000000953674316,0.07000000029802322,-0.6097561717033386,-5.28788423538208,-179.27294921875,0,1,7,92,7100,2015,10,18,0,0,7,240,4294967295,100000000,0,0,4,0,0,0,0,-17000,4294967295,3750000128,0,0,0,0,0,20000,18000000,9999,,0,,0.0,0.0,0.0,70,3874,3726,True,True,True,True,True,1,-168.783935546875,155.54295349121094,1.0,0.0,1.0,False,992.0270385742188,0.0,0.05000000074505806,True,0.0,0.0,0.0,0.0,0.0,0.0,0.0,0.0,0.0,1.0,1.0,False,False,False,False,False,False,False,False,False,False,False,False,False,False,False,False,False,False,False,False,False,False,False,False,False,False,False,False,False,False,False,False,False,False,False,False,False,False,False,False,False,False,False,False,False,False,False,False,False,False,False,0.16975095868110657,-0.10314816981554031,0.08453840762376785,-0.05145298317074776,True,0,1,True,55,56,
5633,1,0,5617048,-0.01666666753590107,4.031005859375,-8.680679321289062,23.75,992.0147094726562,0.10883479565382004,23.5660343170166,65.09346008300781,1.1569578647613525,24.399999618530273,0.8730900287628174,-0.10790999978780746,9.770759582519531,0.5600000023841858,-0.699999988079071,0.14000000059604645,-0.6341531872749329,-5.061182022094727,-179.26312255859375,0,1,7,92,7200,2015,10,18,0,0,7,240,4294967295,200000000,0,0,4,0,0,0,0,-17000,4294967295,3750000128,0,0,0,0,0,20000,18000000,9999,,0,,-0.01666666753590107,172.81494140625,-164.2236328125,23.75,991.956787109375,0.0,23.5660343170166,65.09346008300781,1.225000023841858,24.399999618530273,0.8730900287628174,-0.10790999978780746,9.770759582519531,0.5600000023841858,-0.699999988079071,0.14000000059604645,-0.6341531872749329,-5.061182022094727,-179.26312255859375,0,1,7,92,7200,2015,10,18,0,0,7,240,4294967295,200000000,0,0,4,0,0,0,0,-17000,4294967295,3750000128,0,0,0,0,0,20000,18000000,9999,,0,,0.0,0.0,0.0,70,3874,3727,True,True,True,True,True,1,-168.783935546875,155.54295349121094,1.0,0.0,1.0,False,992.0270385742188,0.0,0.05000000074505806,True,0.0,0.0,0.0,0.0,0.0,0.0,0.0,0.0,0.0,1.0,1.0,False,False,False,False,False,False,False,False,False,False,False,False,False,False,False,False,False,False,False,False,False,False,False,False,False,False,False,False,False,False,False,False,False,False,False,False,False,False,False,False,False,False,False,False,False,False,False,False,False,False,False,0.16973860561847687,-0.08102003484964371,0.0797111839056015,-0.06187928095459938,True,0,1,True,53,56,
5693,1,0,5658513,0.0,4.009033203125,-8.746597290039062,23.725000381469727,992.012939453125,0.12514762580394745,23.536659240722656,65.08888244628906,1.1570857763290405,24.40999984741211,0.9221400022506714,-0.14714999496936798,9.751139640808105,0.41999998688697815,-0.41999998688697815,0.07000000029802322,-0.8139015436172485,-5.281054973602295,-179.24583435058594,0,1,7,92,7200,2015,10,18,0,0,7,240,4294967295,200000000,0,0,4,0,0,0,0,-17000,4294967295,3750000128,0,0,0,0,0,20000,18000000,9999,,0,,0.0,172.79296875,-164.28955078125,23.725000381469727,992.017578125,0.0,23.536659240722656,65.08888244628906,1.225000023841858,24.40999984741211,0.9221400022506714,-0.14714999496936798,9.751139640808105,0.41999998688697815,-0.41999998688697815,0.07000000029802322,-0.8139015436172485,-5.281054973602295,-179.24583435058594,0,1,7,92,7200,2015,10,18,0,0,7,240,4294967295,200000000,0,0,4,0,0,0,0,-17000,4294967295,3750000128,0,0,0,0,0,20000,18000000,9999,,0,,0.0,0.0,0.0,72,3874,3724,True,True,True,True,True,1,-168.783935546875,155.54295349121094,1.0,0.0,1.0,False,992.0270385742188,0.0,0.05000000074505806,True,0.0,0.0,0.0,0.0,0.0,0.0,0.0,0.0,0.0,1.0,1.0,False,False,False,False,False,False,False,False,False,False,False,False,False,False,False,False,False,False,False,False,False,False,False,False,False,False,False,False,False,False,False,False,False,False,False,False,False,False,False,False,False,False,False,False,False,False,False,False,False,False,False,-0.0,0.0,-0.0,0.0,True,0,1,True,55,56,
5753,1,0,5741546,0.0,3.987060546875,-8.768569946289062,23.774999618530273,992.013427734375,0.11973443627357483,23.606088638305664,65.04768371582031,1.1567858457565308,24.420000076293945,0.9221400022506714,-0.12752999365329742,9.760950088500977,0.41999998688697815,-0.49000000953674316,0.14000000059604645,-0.719995379447937,-5.442924499511719,-179.24310302734375,0,1,7,92,7300,2015,10,18,0,0,7,240,4294967295,299999999,0,0,4,0,0,0,0,-17000,4294967295,3750000128,0,0,0,0,0,20000,18000000,9999,,0,,0.0,172.77099609375,-164.3115234375,23.774999618530273,992.031494140625,0.0,23.606088638305664,65.04768371582031,1.225000023841858,24.420000076293945,0.9221400022506714,-0.12752999365329742,9.760950088500977,0.41999998688697815,-0.49000000953674316,0.14000000059604645,-0.719995379447937,-5.442924499511719,-179.24310302734375,0,1,7,92,7300,2015,10,18,0,0,7,240,4294967295,299999999,0,0,4,0,0,0,0,-17000,4294967295,3750000128,0,0,0,0,0,20000,18000000,9999,,0,,0.0,0.0,0.0,69,3874,3725,True,True,True,True,True,1,-168.783935546875,155.54295349121094,1.0,0.0,1.0,False,992.0270385742188,0.0,0.05000000074505806,True,0.0,0.0,0.0,0.0,0.0,0.0,0.0,0.0,0.0,1.0,1.0,False,False,False,False,False,False,False,False,False,False,False,False,False,False,False,False,False,False,False,False,False,False,False,False,False,False,False,False,False,False,False,False,False,False,False,False,False,False,False,False,False,False,False,False,False,False,False,False,False,False,False,-0.0,0.0,-0.0,0.0,True,0,1,True,55,56,
5813,1,0,5783050,0.0,3.987060546875,-8.702651977539062,23.795000076293945,992.0139770507812,0.11428167670965195,23.57938575744629,65.07514953613281,1.1569005250930786,24.420000076293945,0.9025200009346008,-0.12752999365329742,9.751139640808105,0.3499999940395355,-0.49000000953674316,0.20999999344348907,-0.7540355324745178,-5.2457404136657715,-179.23280334472656,0,1,7,92,7400,2015,10,18,0,0,7,240,4294967295,400000000,0,0,4,0,0,0,0,-17000,4294967295,3750000128,0,0,0,0,0,20000,18000000,9999,,0,,0.0,172.77099609375,-164.24560546875,23.795000076293945,991.989013671875,0.0,23.57938575744629,65.07514953613281,1.225000023841858,24.420000076293945,0.9025200009346008,-0.12752999365329742,9.751139640808105,0.3499999940395355,-0.49000000953674316,0.20999999344348907,-0.7540355324745178,-5.2457404136657715,-179.23280334472656,0,1,7,92,7400,2015,10,18,0,0,7,240,4294967295,400000000,0,0,4,0,0,0,0,-17000,4294967295,3750000128,0,0,0,0,0,20000,18000000,9999,,0,,0.0,0.0,0.0,75,3873,3726,True,True,True,True,True,1,-168.783935546875,155.54295349121094,1.0,0.0,1.0,False,992.0270385742188,0.0,0.05000000074505806,True,0.0,0.0,0.0,0.0,0.0,0.0,0.0,0.0,0.0,1.0,1.0,False,False,False,False,False,False,False,False,False,False,False,False,False,False,False,False,False,False,False,False,False,False,False,False,False,False,False,False,False,False,False,False,False,False,False,False,False,False,False,False,False,False,False,False,False,False,False,False,False,False,False,-0.0,0.0,-0.0,0.0,True,0,1,True,55,56,
5874,1,0,5866655,0.0,3.921142578125,-8.680679321289062,23.790000915527344,992.0184326171875,0.07617681473493576,23.536659240722656,65.01411437988281,1.1571018695831299,24.43000030517578,0.8828999996185303,-0.14714999496936798,9.760950088500977,0.6299999952316284,-0.5600000023841858,0.2800000011920929,-0.8563703298568726,-5.17457914352417,-179.2177276611328,0,1,7,92,7400,2015,10,18,0,0,7,240,4294967295,400000000,0,0,4,0,0,0,0,-17000,4294967295,3750000128,0,0,0,0,0,20000,18000000,9999,,0,,0.0,172.705078125,-164.2236328125,23.790000915527344,992.099609375,0.0,23.536659240722656,65.01411437988281,1.225000023841858,24.43000030517578,0.8828999996185303,-0.14714999496936798,9.760950088500977,0.6299999952316284,-0.5600000023841858,0.2800000011920929,-0.8563703298568726,-5.17457914352417,-179.2177276611328,0,1,7,92,7400,2015,10,18,0,0,7,240,4294967295,400000000,0,0,4,0,0,0,0,-17000,4294967295,3750000128,0,0,0,0,0,20000,18000000,9999,,0,,0.0,0.0,0.0,80,3872,3726,True,True,True,True,True,1,-168.783935546875,155.54295349121094,1.0,0.0,1.0,False,992.0270385742188,0.0,0.05000000074505806,True,0.0,0.0,0.0,0.0,0.0,0.0,0.0,0.0,0.0,1.0,1.0,False,False,False,False,False,False,False,False,False,False,False,False,False,False,False,False,False,False,False,False,False,False,False,False,False,False,False,False,False,False,False,False,False,False,False,False,False,False,False,False,False,False,False,False,False,False,False,False,False,False,False,-0.0,0.0,-0.0,0.0,True,0,1,True,54,56,
5934,1,0,5907882,0.0,3.943115234375,-8.768569946289062,23.790000915527344,992.0182495117188,0.07617681473493576,23.536659240722656,64.99275207519531,1.1571043729782104,24.440000534057617,0.9123299717903137,-0.12752999365329742,9.780570030212402,0.3499999940395355,-0.2800000011920929,0.0,-0.6759331226348877,-5.365966796875,-179.2273712158203,0,1,7,92,7500,2015,10,18,0,0,7,240,4294967295,500000000,0,0,4,0,0,0,0,-17000,4294967295,3750000128,0,0,0,0,0,20000,18000000,9999,,0,,0.0,172.72705078125,-164.3115234375,23.790000915527344,991.963134765625,0.0,23.536659240722656,64.99275207519531,1.225000023841858,24.440000534057617,0.9123299717903137,-0.12752999365329742,9.780570030212402,0.3499999940395355,-0.2800000011920929,0.0,-0.6759331226348877,-5.365966796875,-179.2273712158203,0,1,7,92,7500,2015,10,18,0,0,7,240,4294967295,500000000,0,0,4,0,0,0,0,-17000,4294967295,3750000128,0,0,0,0,0,20000,18000000,9999,,0,,0.0,0.0,0.0,71,3874,3724,True,True,True,True,True,1,-168.783935546875,155.54295349121094,1.0,0.0,1.0,False,992.0270385742188,0.0,0.05000000074505806,True,0.0,0.0,0.0,0.0,0.0,0.0,0.0,0.0,0.0,1.0,1.0,False,False,False,False,False,False,False,False,False,False,False,False,False,False,False,False,False,False,False,False,False,False,False,False,False,False,False,False,False,False,False,False,False,False,False,False,False,False,False,False,False,False,False,False,False,False,False,False,False,False,False,-0.0,0.0,-0.0,0.0,True,0,1,True,54,56,
5994,1,0,5991092,0.0,4.009033203125,-8.680679321289062,23.795000076293945,992.0176391601562,0.08161433786153793,23.52330780029297,65.02326965332031,1.157158613204956,24.440000534057617,0.8927099704742432,-0.11772000044584274,9.780570030212402,0.699999988079071,-0.2800000011920929,0.0,-0.6352078914642334,-5.206982612609863,-179.22093200683594,0,1,7,92,7500,2015,10,18,0,0,7,240,4294967295,500000000,0,0,4,0,0,0,0,-17000,4294967295,3750000128,0,0,0,0,0,20000,18000000,9999,,0,,0.0,172.79296875,-164.2236328125,23.795000076293945,992.0380859375,0.0,23.52330780029297,65.02326965332031,1.225000023841858,24.440000534057617,0.8927099704742432,-0.11772000044584274,9.780570030212402,0.699999988079071,-0.2800000011920929,0.0,-0.6352078914642334,-5.206982612609863,-179.22093200683594,0,1,7,92,7500,2015,10,18,0,0,7,240,4294967295,500000000,0,0,4,0,0,0,0,-17000,4294967295,3750000128,0,0,0,0,0,20000,18000000,9999,,0,,0.0,0.0,0.0,70,3873,3726,True,True,True,True,True,1,-168.783935546875,155.54295349121094,1.0,0.0,1.0,False,992.0270385742188,0.0,0.05000000074505806,True,0.0,0.0,0.0,0.0,0.0,0.0,0.0,0.0,0.0,1.0,1.0,False,False,False,False,False,False,False,False,False,False,False,False,False,False,False,False,False,False,False,False,False,False,False,False,False,False,False,False,False,False,False,False,False,False,False,False,False,False,False,False,False,False,False,False,False,False,False,False,False,False,False,-0.0,0.0,-0.0,0.0,True,0,1,True,54,56,
6054,1,0,6032422,0.0,4.031005859375,-8.724624633789062,23.78499984741211,992.0116577148438,0.1360618621110916,23.606088638305664,64.97444152832031,1.156793236732483,24.450000762939453,0.9123299717903137,-0.11772000044584274,9.760950088500977,0.14000000059604645,-0.2800000011920929,0.20999999344348907,-0.6218714118003845,-5.3936872482299805,-179.20953369140625,0,1,7,92,7600,2015,10,18,0,0,7,240,4294967295,600000000,0,0,4,0,0,0,0,-17000,4294967295,3750000128,0,0,0,0,0,20000,18000000,9999,,0,,0.0,172.81494140625,-164.267578125,23.78499984741211,991.89453125,0.0,23.606088638305664,64.97444152832031,1.225000023841858,24.450000762939453,0.9123299717903137,-0.11772000044584274,9.760950088500977,0.14000000059604645,-0.2800000011920929,0.20999999344348907,-0.6218714118003845,-5.3936872482299805,-179.20953369140625,0,1,7,92,7600,2015,10,18,0,0,7,240,4294967295,600000000,0,0,4,0,0,0,0,-17000,4294967295,3750000128,0,0,0,0,0,20000,18000000,9999,,0,,0.0,0.0,0.0,69,3873,3726,True,True,True,True,True,1,-168.783935546875,155.54295349121094,1.0,0.0,1.0,False,992.0270385742188,0.0,0.05000000074505806,True,0.0,0.0,0.0,0.0,0.0,0.0,0.0,0.0,0.0,1.0,1.0,False,False,False,False,False,False,False,False,False,False,False,False,False,False,False,False,False,False,False,False,False,False,False,False,False,False,False,False,False,False,False,False,False,False,False,False,False,False,False,False,False,False,False,False,False,False,False,False,False,False,False,-0.0,0.0,-0.0,0.0,True,0,1,True,54,56,
6114,1,0,6073950,0.0,4.009033203125,-8.702651977539062,23.770000457763672,992.0178833007812,0.08160626143217087,23.493934631347656,64.86915588378906,1.1573081016540527,24.450000762939453,0.9025200009346008,-0.11772000044584274,9.74133014678955,0.3499999940395355,-0.5600000023841858,0.0,-0.7382038831710815,-5.3158979415893555,-179.1934051513672,0,1,7,92,7700,2015,10,18,0,0,7,240,4294967295,700000000,0,0,4,0,0,0,0,-17000,4294967295,3750000128,0,0,0,0,0,20000,18000000,9999,,0,,0.0,172.79296875,-164.24560546875,23.770000457763672,992.07373046875,0.0,23.493934631347656,64.86915588378906,1.225000023841858,24.450000762939453,0.9025200009346008,-0.11772000044584274,9.74133014678955,0.3499999940395355,-0.5600000023841858,0.0,-0.7382038831710815,-5.3158979415893555,-179.1934051513672,0,1,7,92,7700,2015,10,18,0,0,7,240,4294967295,700000000,0,0,4,0,0,0,0,-17000,4294967295,3750000128,0,0,0,0,0,20000,18000000,9999,,0,,0.0,0.0,0.0,71,3872,3726,True,True,True,True,True,1,-168.783935546875,155.54295349121094,1.0,0.0,1.0,False,992.0270385742188,0.0,0.05000000074505806,True,0.0,0.0,0.0,0.0,0.0,0.0,0.0,0.0,0.0,1.0,1.0,False,False,False,False,False,False,False,False,False,False,False,False,False,False,False,False,False,False,False,False,False,False,False,False,False,False,False,False,False,False,False,False,False,False,False,False,False,False,False,False,False,False,False,False,False,False,False,False,False,False,False,-0.0,0.0,-0.0,0.0,True,0,1,True,54,56,
6174,1,0,6156934,0.0,3.987060546875,-8.746597290039062,23.795000076293945,992.0152587890625,0.1033930554986,23.5660343170166,64.88288879394531,1.1569856405258179,24.459999084472656,0.9025200009346008,-0.15695999562740326,9.751139640808105,0.49000000953674316,-0.2800000011920929,0.14000000059604645,-0.9344721436500549,-5.286844253540039,-179.170166015625,0,1,7,92,7700,2015,10,18,0,0,7,240,4294967295,700000000,0,0,4,0,0,0,0,-17000,4294967295,3750000128,0,0,0,0,0,20000,18000000,9999,,0,,0.0,172.77099609375,-164.28955078125,23.795000076293945,991.91552734375,0.0,23.5660343170166,64.88288879394531,1.225000023841858,24.459999084472656,0.9025200009346008,-0.15695999562740326,9.751139640808105,0.49000000953674316,-0.2800000011920929,0.14000000059604645,-0.9344721436500549,-5.286844253540039,-179.170166015625,0,1,7,92,7700,2015,10,18,0,0,7,240,4294967295,700000000,0,0,4,0,0,0,0,-17000,4294967295,3750000128,0,0,0,0,0,20000,18000000,9999,,0,,0.0,0.0,0.0,71,3872,3726,True,True,True,True,True,1,-168.783935546875,155.54295349121094,1.0,0.0,1.0,False,992.0270385742188,0.0,0.05000000074505806,True,0.0,0.0,0.0,0.0,0.0,0.0,0.0,0.0,0.0,1.0,1.0,False,False,False,False,False,False,False,False,False,False,False,False,False,False,False,False,False,False,False,False,False,False,False,False,False,False,False,False,False,False,False,False,False,False,False,False,False,False,False,False,False,False,False,False,False,False,False,False,False,False,False,-0.0,0.0,-0.0,0.0,True,0,1,True,54,56,
6234,1,0,6198555,0.0,4.031005859375,-8.724624633789062,23.790000915527344,992.0181884765625,0.07618024200201035,23.550010681152344,64.95460510253906,1.1570504903793335,24.469999313354492,0.9123299717903137,-0.12752999365329742,9.74133014678955,0.41999998688697815,-0.41999998688697815,0.20999999344348907,-0.7497488260269165,-5.460596561431885,-179.1785125732422,0,1,7,92,7800,2015,10,18,0,0,7,240,4294967295,799999999,0,0,4,0,0,0,0,-17000,4294967295,3750000128,0,0,0,0,0,20000,18000000,9999,,0,,0.0,172.81494140625,-164.267578125,23.790000915527344,991.962646484375,0.0,23.550010681152344,64.95460510253906,1.225000023841858,24.469999313354492,0.9123299717903137,-0.12752999365329742,9.74133014678955,0.41999998688697815,-0.41999998688697815,0.20999999344348907,-0.7497488260269165,-5.460596561431885,-179.1785125732422,0,1,7,92,7800,2015,10,18,0,0,7,240,4294967295,799999999,0,0,4,0,0,0,0,-17000,4294967295,3750000128,0,0,0,0,0,20000,18000000,9999,,0,,0.0,0.0,0.0,70,3873,3727,True,True,True,True,True,1,-168.783935546875,155.54295349121094,1.0,0.0,1.0,False,992.0270385742188,0.0,0.05000000074505806,True,0.0,0.0,0.0,0.0,0.0,0.0,0.0,0.0,0.0,1.0,1.0,False,False,False,False,False,False,False,False,False,False,False,False,False,False,False,False,False,False,False,False,False,False,False,False,False,False,False,False,False,False,False,False,False,False,False,False,False,False,False,False,False,False,False,False,False,False,False,False,False,False,False,-0.0,0.0,-0.0,0.0,True,0,1,True,54,56,
6295,1,0,6281480,0.0,3.943115234375,-8.702651977539062,23.825000762939453,992.0159912109375,0.09795571863651276,23.57938575744629,64.89662170410156,1.1569260358810425,24.469999313354492,0.9221400022506714,-0.1373399943113327,9.760950088500977,0.7699999809265137,-0.2800000011920929,0.07000000029802322,-0.7876290082931519,-5.405224323272705,-179.15652465820312,0,1,7,92,7900,2015,10,18,0,0,7,240,4294967295,900000000,0,0,4,0,0,0,0,-17000,4294967295,3750000128,0,0,0,0,0,20000,18000000,9999,,0,,0.0,172.72705078125,-164.24560546875,23.825000762939453,992.061279296875,0.0,23.57938575744629,64.89662170410156,1.225000023841858,24.469999313354492,0.9221400022506714,-0.1373399943113327,9.760950088500977,0.7699999809265137,-0.2800000011920929,0.07000000029802322,-0.7876290082931519,-5.405224323272705,-179.15652465820312,0,1,7,92,7900,2015,10,18,0,0,7,240,4294967295,900000000,0,0,4,0,0,0,0,-17000,4294967295,3750000128,0,0,0,0,0,20000,18000000,9999,,0,,0.0,0.0,0.0,72,3874,3726,True,True,True,True,True,1,-168.783935546875,155.54295349121094,1.0,0.0,1.0,False,992.0270385742188,0.0,0.05000000074505806,True,0.0,0.0,0.0,0.0,0.0,0.0,0.0,0.0,0.0,1.0,1.0,False,False,False,False,False,False,False,False,False,False,False,False,False,False,False,False,False,False,False,False,False,False,False,False,False,False,False,False,False,False,False,False,False,False,False,False,False,False,False,False,False,False,False,False,False,False,False,False,False,False,False,-0.0,0.0,-0.0,0.0,True,0,1,True,54,56,
6355,1,0,6323073,0.0,3.943115234375,-8.702651977539062,23.815000534057617,992.022216796875,0.043523337692022324,23.493934631347656,64.80506896972656,1.1573214530944824,24.469999313354492,0.8632799983024597,-0.12752999365329742,9.74133014678955,0.2800000011920929,-0.2800000011920929,0.14000000059604645,-0.7217810153961182,-5.146103382110596,-179.14768981933594,0,1,7,92,7900,2015,10,18,0,0,7,240,4294967295,900000000,0,0,4,0,0,0,0,-17000,4294967295,3750000128,0,0,0,0,0,20000,18000000,9999,,0,,0.0,172.72705078125,-164.24560546875,23.815000534057617,992.0888671875,0.0,23.493934631347656,64.80506896972656,1.225000023841858,24.469999313354492,0.8632799983024597,-0.12752999365329742,9.74133014678955,0.2800000011920929,-0.2800000011920929,0.14000000059604645,-0.7217810153961182,-5.146103382110596,-179.14768981933594,0,1,7,92,7900,2015,10,18,0,0,7,240,4294967295,900000000,0,0,4,0,0,0,0,-17000,4294967295,3750000128,0,0,0,0,0,20000,18000000,9999,,0,,0.0,0.0,0.0,70,3873,3727,True,True,True,True,True,1,-168.783935546875,155.54295349121094,1.0,0.0,1.0,False,992.0270385742188,0.0,0.05000000074505806,True,0.0,0.0,0.0,0.0,0.0,0.0,0.0,0.0,0.0,1.0,1.0,False,False,False,False,False,False,False,False,False,False,False,False,False,False,False,False,False,False,False,False,False,False,False,False,False,False,False,False,False,False,False,False,False,False,False,False,False,False,False,False,False,False,False,False,False,False,False,False,False,False,False,-0.0,0.0,-0.0,0.0,True,0,1,True,54,56,
6415,1,0,6406791,0.0,4.009033203125,-8.680679321289062,23.815000534057617,992.0184326171875,0.0761946365237236,23.606088638305664,64.82795715332031,1.1568201780319214,24.489999771118164,0.9025200009346008,-0.14714999496936798,9.751139640808105,0.699999988079071,-0.41999998688697815,-0.14000000059604645,-0.8580370545387268,-5.291574001312256,-179.1329345703125,0,1,7,92,8000,2015,10,18,0,0,8,240,4294967295,0,0,0,4,0,0,0,0,-17000,4294967295,3750000128,0,0,0,0,0,20000,18000000,9999,,0,,0.0,172.79296875,-164.2236328125,23.815000534057617,992.0361328125,0.0,23.606088638305664,64.82795715332031,1.225000023841858,24.489999771118164,0.9025200009346008,-0.14714999496936798,9.751139640808105,0.699999988079071,-0.41999998688697815,-0.14000000059604645,-0.8580370545387268,-5.291574001312256,-179.1329345703125,0,1,7,92,8000,2015,10,18,0,0,8,240,4294967295,0,0,0,4,0,0,0,0,-17000,4294967295,3750000128,0,0,0,0,0,20000,18000000,9999,,0,,0.0,0.0,0.0,72,3874,3725,True,True,True,True,True,1,-168.783935546875,155.54295349121094,1.0,0.0,1.0,False,992.0270385742188,0.0,0.05000000074505806,True,0.0,0.0,0.0,0.0,0.0,0.0,0.0,0.0,0.0,1.0,1.0,False,False,False,False,False,False,False,False,False,False,False,False,False,False,False,False,False,False,False,False,False,False,False,False,False,False,False,False,False,False,False,False,False,False,False,False,False,False,False,False,False,False,False,False,False,False,False,False,False,False,False,-0.0,0.0,-0.0,0.0,True,0,1,True,54,56,
6475,1,0,6447690,0.0,4.009033203125,-8.702651977539062,23.809999465942383,992.01220703125,0.13059470057487488,23.550010681152344,64.87831115722656,1.1570532321929932,24.489999771118164,0.9025200009346008,-0.12752999365329742,9.751139640808105,0.07000000029802322,-0.20999999344348907,0.14000000059604645,-0.7887012958526611,-5.262318134307861,-179.13235473632812,0,1,7,92,8000,2015,10,18,0,0,8,240,4294967295,0,0,0,4,0,0,0,0,-17000,4294967295,3750000128,0,0,0,0,0,20000,18000000,9999,,0,,0.0,172.79296875,-164.24560546875,23.809999465942383,991.93994140625,0.0,23.550010681152344,64.87831115722656,1.225000023841858,24.489999771118164,0.9025200009346008,-0.12752999365329742,9.751139640808105,0.07000000029802322,-0.20999999344348907,0.14000000059604645,-0.7887012958526611,-5.262318134307861,-179.13235473632812,0,1,7,92,8000,2015,10,18,0,0,8,240,4294967295,0,0,0,4,0,0,0,0,-17000,4294967295,3750000128,0,0,0,0,0,20000,18000000,9999,,0,,0.0,0.0,0.0,73,3872,3726,True,True,True,True,True,1,-168.783935546875,155.54295349121094,1.0,0.0,1.0,False,992.0270385742188,0.0,0.05000000074505806,True,0.0,0.0,0.0,0.0,0.0,0.0,0.0,0.0,0.0,1.0,1.0,False,False,False,False,False,False,False,False,False,False,False,False,False,False,False,False,False,False,False,False,False,False,False,False,False,False,False,False,False,False,False,False,False,False,False,False,False,False,False,False,False,False,False,False,False,False,False,False,False,False,False,-0.0,0.0,-0.0,0.0,True,0,1,True,55,56,
6535,1,0,6531216,0.0,4.009033203125,-8.724624633789062,23.80500030517578,992.0167846679688,0.0924912542104721,23.507286071777344,64.84016418457031,1.1572517156600952,24.5,0.9123299717903137,-0.10790999978780746,9.751139640808105,0.8399999737739563,-0.2800000011920929,0.07000000029802322,-0.6466881632804871,-5.319870471954346,-179.1356658935547,0,1,7,92,8100,2015,10,18,0,0,8,240,4294967295,99999999,0,0,4,0,0,0,0,-17000,4294967295,3750000128,0,0,0,0,0,20000,18000000,9999,,0,,0.0,172.79296875,-164.267578125,23.80500030517578,992.02685546875,0.0,23.507286071777344,64.84016418457031,1.225000023841858,24.5,0.9123299717903137,-0.10790999978780746,9.751139640808105,0.8399999737739563,-0.2800000011920929,0.07000000029802322,-0.6466881632804871,-5.319870471954346,-179.1356658935547,0,1,7,92,8100,2015,10,18,0,0,8,240,4294967295,99999999,0,0,4,0,0,0,0,-17000,4294967295,3750000128,0,0,0,0,0,20000,18000000,9999,,0,,0.0,0.0,0.0,70,3874,3724,True,True,True,True,True,1,-168.783935546875,155.54295349121094,1.0,0.0,1.0,False,992.0270385742188,0.0,0.05000000074505806,True,0.0,0.0,0.0,0.0,0.0,0.0,0.0,0.0,0.0,1.0,1.0,False,False,False,False,False,False,False,False,False,False,False,False,False,False,False,False,False,False,False,False,False,False,False,False,False,False,False,False,False,False,False,False,False,False,False,False,False,False,False,False,False,False,False,False,False,False,False,False,False,False,False,-0.0,0.0,-0.0,0.0,True,0,1,True,53,56,
6596,1,0,6572605,0.0,3.943115234375,-8.702651977539062,23.799999237060547,992.0197143554688,0.06527560204267502,23.451210021972656,64.72266387939453,1.1575170755386353,24.510000228881836,0.9123299717903137,-0.12752999365329742,9.73151969909668,0.41999998688697815,-0.41999998688697815,0.07000000029802322,-0.787150502204895,-5.141180038452148,-179.1110382080078,0,1,7,92,8200,2015,10,18,0,0,8,240,4294967295,199999999,0,0,4,0,0,0,0,-17000,4294967295,3750000128,0,0,0,0,0,20000,18000000,9999,,0,,0.0,172.72705078125,-164.24560546875,23.799999237060547,992.0244140625,0.0,23.451210021972656,64.72266387939453,1.225000023841858,24.510000228881836,0.9123299717903137,-0.12752999365329742,9.73151969909668,0.41999998688697815,-0.41999998688697815,0.07000000029802322,-0.787150502204895,-5.141180038452148,-179.1110382080078,0,1,7,92,8200,2015,10,18,0,0,8,240,4294967295,199999999,0,0,4,0,0,0,0,-17000,4294967295,3750000128,0,0,0,0,0,20000,18000000,9999,,0,,0.0,0.0,0.0,106,3872,3725,True,True,True,True,True,1,-168.783935546875,155.54295349121094,1.0,0.0,1.0,False,992.0270385742188,0.0,0.05000000074505806,True,0.0,0.0,0.0,0.0,0.0,0.0,0.0,0.0,0.0,1.0,1.0,False,False,False,False,False,False,False,False,False,False,False,False,False,False,False,False,False,False,False,False,False,False,False,False,False,False,False,False,False,False,False,False,False,False,False,False,False,False,False,False,False,False,False,False,False,False,False,False,False,False,False,-0.0,0.0,-0.0,0.0,True,0,1,True,55,56,
6656,1,0,6655442,-0.01666666753590107,3.943115234375,-8.724624633789062,23.795000076293945,992.0169677734375,0.08708428591489792,23.62211036682129,64.73639678955078,1.1567598581314087,24.510000228881836,0.9025200009346008,-0.14714999496936798,9.770759582519531,0.8399999737739563,-0.20999999344348907,0.14000000059604645,-0.8937313556671143,-5.279355049133301,-179.08856201171875,0,1,7,92,8200,2015,10,18,0,0,8,240,4294967295,199999999,0,0,4,0,0,0,0,-17000,4294967295,3750000128,0,0,0,0,0,20000,18000000,9999,,0,,-0.01666666753590107,172.72705078125,-164.267578125,23.795000076293945,992.029052734375,0.0,23.62211036682129,64.73639678955078,1.225000023841858,24.510000228881836,0.9025200009346008,-0.14714999496936798,9.770759582519531,0.8399999737739563,-0.20999999344348907,0.14000000059604645,-0.8937313556671143,-5.279355049133301,-179.08856201171875,0,1,7,92,8200,2015,10,18,0,0,8,240,4294967295,199999999,0,0,4,0,0,0,0,-17000,4294967295,3750000128,0,0,0,0,0,20000,18000000,9999,,0,,0.0,0.0,0.0,107,3873,3726,True,True,True,True,True,1,-168.783935546875,155.54295349121094,1.0,0.0,1.0,False,992.0270385742188,0.0,0.05000000074505806,True,0.0,0.0,0.0,0.0,0.0,0.0,0.0,0.0,0.0,1.0,1.0,False,False,False,False,False,False,False,False,False,False,False,False,False,False,False,False,False,False,False,False,False,False,False,False,False,False,False,False,False,False,False,False,False,False,False,False,False,False,False,False,False,False,False,False,False,False,False,False,False,False,False,0.16975311934947968,-0.04989666864275932,0.04980183765292168,-0.07664165645837784,True,0,1,True,53,56,
