SYS_TIME[ms],T_CNT[us],T_PPS[us],T_CAN_RSV[us],DP[Pa],AOA[deg],AOS[deg],T_DP_SENSOR[degC],PS[hPa],H_PS[m],TAT[degC],HUM[%],RHO[kg/m^3],T_PS_SENSOR[degC],AX[m/s^2],AY[m/s^2],AZ[m/s^2],GX[deg/s],GY[deg/s],GZ[deg/s],EX[deg],EY[deg],EZ[deg],MICROSECONDS_PPS[us],cls[-],id[-],len[-],iTOW[ms],year[y],month[month],day[d],hour[h],minute[min],sec[s],valid[-],tAcc[ns],nano[ns],fixType[-],flags[-],flags2[-],numSV[-],lon[10^7 deg],lat[10^7 deg],height[mm],hMSL[mm],hAcc[mm],vAcc[mm],velN[mm/s],velE[mm/s],velD[mm/s],gSpeed[mm/s],headMot[10^5 deg],sAcc[mm/s],headAcc[10^5 deg],pDOP[-],reserved1[-],headVeh[10^5 deg],reserved2[-],DP_raw[Pa],AOA_raw[deg],AOS_raw[deg],T_DP_SENSOR_raw[degC],PS_raw[hPa],H_PS_raw[m],TAT_raw[degC],HUM_raw[%],RHO_raw[kg/m^3],T_PS_SENSOR_raw[degC],AX_raw[m/s^2],AY_raw[m/s^2],AZ_raw[m/s^2],GX_raw[deg/s],GY_raw[deg/s],GZ_raw[deg/s],EX_raw[deg],EY_raw[deg],EZ_raw[deg],MICROSECONDS_PPS_raw[us],cls_raw[-],id_raw[-],len_raw[-],iTOW_raw[ms],year_raw[y],month_raw[month],day_raw[d],hour_raw[h],minute_raw[min],sec_raw[s],valid_raw[-],tAcc_raw[ns],nano_raw[ns],fixType_raw[-],flags_raw[-],flags2_raw[-],numSV_raw[-],lon_raw[10^7 deg],lat_raw[10^7 deg],height_raw[mm],hMSL_raw[mm],hAcc_raw[mm],vAcc_raw[mm],velN_raw[mm/s],velE_raw[mm/s],velD_raw[mm/s],gSpeed_raw[mm/s],headMot_raw[10^5 deg],sAcc_raw[mm/s],headAcc_raw[10^5 deg],pDOP_raw[-],reserved1_raw[-],headVeh_raw[10^5 deg],reserved2_raw[-],ROLL[deg],PITCH[deg],YAW[deg],H_US[-],ELEV[-],RUDD[-],AIR_DATA_EN[-],ENV_DATA_EN[-],IMU_DATA_EN[-],GPS_DATA_EN[-],LOGGING_EN[-],LOGGING_MODE[-],AOA_OFFSET[deg],AOS_OFFSET[deg],DP_GAIN[-],DP_OFFSET[Pa],LPF_DP[-],LPF_SW[-],PS_INIT_VAL[hPa],H_PS_OFFSET[m],LPF_PS[-],LPF_SW[-],AX_OFFSET[m/s^2],AY_OFFSET[m/s^2],AZ_OFFSET[m/s^2],GX_OFFSET[deg/s],GY_OFFSET[deg/s],GZ_OFFSET[deg/s],EX_OFFSET[deg],EY_OFFSET[deg],EZ_OFFSET[deg],LPF_ACC[-],LPF_GYR[-],LPF_ACC_SW[-],LPF_GYR_SW[-],DP_err[-],AOA_err[-],AOS_err[-],T_DP_SENSOR_err[-],DP_GAIN_err[-],DP_OFFSET_err[-],AOA_OFFSET_err[-],AOS_OFFSET_err[-],LPF_DP_err[-],DP_I2C_err[-],AOA_I2C_err[-],AOS_I2C_err[-],SETTING_DATA_READ_err[-],PS_err[-],T_PS_SENSOR_err[-],TAT_err[-],HUM_err[-],PS_INIT_VAL_err[-],H_PS_OFFSET_err[-],H_PS_err[-],RHO_err[-],LPF_PS_err[-],ENV_I2C_err[-],SETTING_DATA_READ_err[-],AX_err[-],AY_err[-],AZ_err[-],GX_err[-],GY_err[-],GZ_err[-],LPF_ACC_err[-],LPF_GYR_err[-],AX_OFFSET_err[-],AY_OFFSET_err[-],AZ_OFFSET_err[-],GX_OFFSET_err[-],GY_OFFSET_err[-],GZ_OFFSET_err[-],EX_OFFSET_err[-],EY_OFFSET_err[-],EZ_OFFSET_err[-],SETTING_DATA_READ_err[-],PPS_INTV_err[-],MEG_INTV_err[-],CHK_SUM_err[-],INIT_err[-],SET_MODE_err[-],SEND_err[-],RECEIVE_err[-],AIRSPEED[m/s],WINDN[m/s],WINDE[m/s],WINDD[m/s],SD_DETECT[-],LOG_NUMBER[-],LOGGING_MODE[-],LOGGING_EN[-],CPU_USED[%],MEMORY_USED[%]
1457899,1,1457014786,1457857734,3.916666746,3.789306641,-43.70507813,39.86500168,997.3132935,0.680882514,36.23140335,56.21271133,1.109211206,56.16999817,-0.039239999,-0.039239999,9.476460457,-0.769999981,-0.980000019,0.419999987,-1.237023473,0.442073405,-70.62145996,0,1,7,92,23647700,2022,7,24,6,33,49,55,4,699960543,3,1,10,17,1362544734,352941826,130056,95263,1394,1759,-91,34,10,97,13568253,220,4437217,116,,0,,3.916666746,172.5732422,160.7519531,39.86500168,997.3066406,0,36.23140335,56.21271133,1.225000024,56.16999817,-0.039239999,-0.039239999,9.476460457,-0.769999981,-0.980000019,0.419999987,-1.237023473,0.442073405,-70.62145996,0,1,7,92,23647700,2022,7,24,6,33,49,55,4,699960543,3,1,10,17,1362544734,352941826,130056,95263,1394,1759,-91,34,10,97,13568253,220,4437217,116,,0,,0,0,0,195,2175,2112,TRUE,TRUE,TRUE,TRUE,TRUE,1,-168.7839355,155.5429535,1,0,1,FALSE,997.3803711,0,0.050000001,TRUE,0,0,0,0,0,0,0,0,0,1,1,FALSE,FALSE,FALSE,FALSE,FALSE,FALSE,FALSE,FALSE,FALSE,FALSE,FALSE,FALSE,FALSE,FALSE,FALSE,FALSE,FALSE,FALSE,FALSE,FALSE,FALSE,FALSE,FALSE,FALSE,FALSE,FALSE,FALSE,FALSE,FALSE,FALSE,FALSE,FALSE,FALSE,FALSE,FALSE,FALSE,FALSE,FALSE,FALSE,FALSE,FALSE,FALSE,FALSE,FALSE,TRUE,FALSE,FALSE,FALSE,FALSE,FALSE,FALSE,2.657456636,-1.670033097,3.252595901,0.900659561,TRUE,4,1,TRUE,60,56
1457959,1,1457014786,1457941829,3.900000095,3.811279297,-43.57324219,39.88000107,997.3137817,0.675237656,36.24475479,56.20203018,1.109156132,56.15999985,-0.098099999,-0.04905,9.545129776,-0.839999974,-0.980000019,0.49000001,-1.197589636,0.542508721,-70.61203003,0,1,7,92,23647800,2022,7,24,6,33,49,55,4,799960534,3,1,10,17,1362544736,352941826,130068,95275,1394,1759,-41,35,8,54,13568253,204,4437424,116,,0,,3.900000095,172.5952148,160.8837891,39.88000107,997.3598633,0,36.24475479,56.20203018,1.225000024,56.15999985,-0.098099999,-0.04905,9.545129776,-0.839999974,-0.980000019,0.49000001,-1.197589636,0.542508721,-70.61203003,0,1,7,92,23647800,2022,7,24,6,33,49,55,4,799960534,3,1,10,17,1362544736,352941826,130068,95275,1394,1759,-41,35,8,54,13568253,204,4437424,116,,0,,0,0,0,195,2175,2111,TRUE,TRUE,TRUE,TRUE,TRUE,1,-168.7839355,155.5429535,1,0,1,FALSE,997.3803711,0,0.050000001,TRUE,0,0,0,0,0,0,0,0,0,1,1,FALSE,FALSE,FALSE,FALSE,FALSE,FALSE,FALSE,FALSE,FALSE,FALSE,FALSE,FALSE,FALSE,FALSE,FALSE,FALSE,FALSE,FALSE,FALSE,FALSE,FALSE,FALSE,FALSE,FALSE,FALSE,FALSE,FALSE,FALSE,FALSE,FALSE,FALSE,FALSE,FALSE,FALSE,FALSE,FALSE,FALSE,FALSE,FALSE,FALSE,FALSE,FALSE,FALSE,FALSE,TRUE,FALSE,FALSE,FALSE,FALSE,FALSE,FALSE,2.651862383,-1.774314284,2.906030416,1.164715409,TRUE,4,1,TRUE,59,56
1458019,1,1458014801,1457983903,4.066666603,3.943115234,-43.46337891,39.88000107,997.3106689,0.709154665,36.18867874,56.15777969,1.109408855,56.16999817,-0.21582,-0.304109991,9.81000042,-1.190000057,-1.120000005,0.629999995,-1.552770615,0.705742478,-70.58990479,0,1,7,92,23647900,2022,7,24,6,33,49,55,4,899960525,3,1,10,17,1362544737,352941825,130070,95277,1393,1759,-29,16,12,33,13568253,209,4437636,116,,0,,4.066666603,172.7270508,160.9936523,39.88000107,997.2983398,0,36.18867874,56.15777969,1.225000024,56.16999817,-0.21582,-0.304109991,9.81000042,-1.190000057,-1.120000005,0.629999995,-1.552770615,0.705742478,-70.58990479,0,1,7,92,23647900,2022,7,24,6,33,49,55,4,899960525,3,1,10,17,1362544737,352941825,130070,95277,1393,1759,-29,16,12,33,13568253,209,4437636,116,,0,,0,0,0,196,2173,2110,TRUE,TRUE,TRUE,TRUE,TRUE,1,-168.7839355,155.5429535,1,0,1,FALSE,997.3803711,0,0.050000001,TRUE,0,0,0,0,0,0,0,0,0,1,1,FALSE,FALSE,FALSE,FALSE,FALSE,FALSE,FALSE,FALSE,FALSE,FALSE,FALSE,FALSE,FALSE,FALSE,FALSE,FALSE,FALSE,FALSE,FALSE,FALSE,FALSE,FALSE,FALSE,FALSE,FALSE,FALSE,FALSE,FALSE,FALSE,FALSE,FALSE,FALSE,FALSE,FALSE,FALSE,FALSE,FALSE,FALSE,FALSE,FALSE,FALSE,FALSE,FALSE,FALSE,TRUE,FALSE,FALSE,FALSE,FALSE,FALSE,FALSE,2.707624674,-1.731952667,2.322510004,1.736465335,TRUE,4,1,TRUE,61,56
1458079,1,1458014801,1458067752,3.900000095,3.855224609,-42.93603516,39.88000107,997.3146362,0.669251323,36.10055542,56.07537842,1.109820008,56.15999985,0,-0.176579997,9.672659874,-0.349999994,-0.769999981,0.349999994,-1.308200717,0.19659479,-70.56936646,0,1,7,92,23647900,2022,7,24,6,33,49,55,4,899960525,3,1,10,17,1362544737,352941825,130070,95277,1393,1759,-29,16,12,33,13568253,209,4437636,116,,0,,3.900000095,172.6391602,161.5209961,39.88000107,997.3225098,0,36.10055542,56.07537842,1.225000024,56.15999985,0,-0.176579997,9.672659874,-0.349999994,-0.769999981,0.349999994,-1.308200717,0.19659479,-70.56936646,0,1,7,92,23647900,2022,7,24,6,33,49,55,4,899960525,3,1,10,17,1362544737,352941825,130070,95277,1393,1759,-29,16,12,33,13568253,209,4437636,116,,0,,0,0,0,196,2175,2110,TRUE,TRUE,TRUE,TRUE,TRUE,1,-168.7839355,155.5429535,1,0,1,FALSE,997.3803711,0,0.050000001,TRUE,0,0,0,0,0,0,0,0,0,1,1,FALSE,FALSE,FALSE,FALSE,FALSE,FALSE,FALSE,FALSE,FALSE,FALSE,FALSE,FALSE,FALSE,FALSE,FALSE,FALSE,FALSE,FALSE,FALSE,FALSE,FALSE,FALSE,FALSE,FALSE,FALSE,FALSE,FALSE,FALSE,FALSE,FALSE,FALSE,FALSE,FALSE,FALSE,FALSE,FALSE,FALSE,FALSE,FALSE,FALSE,FALSE,FALSE,FALSE,FALSE,TRUE,FALSE,FALSE,FALSE,FALSE,FALSE,FALSE,2.651068926,-1.33335042,1.566394329,1.605794668,TRUE,4,1,TRUE,60,56
1458139,1,1458014801,1458109848,3.883333445,3.811279297,-42.10107422,39.88999939,997.3163452,0.652478635,36.21538162,56.21118546,1.109285235,56.15999985,-0.05886,-0.02943,9.51570034,0.209999993,-0.699999988,0.07,-1.428236604,-0.012651484,-70.55651855,0,1,7,92,23648000,2022,7,24,6,33,50,55,4,-39483,3,1,10,17,1362544737,352941825,130061,95268,1393,1759,-5,27,20,27,13568253,174,4437812,116,,0,,3.883333445,172.5952148,162.355957,39.88999939,997.3322754,0,36.21538162,56.21118546,1.225000024,56.15999985,-0.05886,-0.02943,9.51570034,0.209999993,-0.699999988,0.07,-1.428236604,-0.012651484,-70.55651855,0,1,7,92,23648000,2022,7,24,6,33,50,55,4,-39483,3,1,10,17,1362544737,352941825,130061,95268,1393,1759,-5,27,20,27,13568253,174,4437812,116,,0,,0,0,0,195,2175,2110,TRUE,TRUE,TRUE,TRUE,TRUE,1,-168.7839355,155.5429535,1,0,1,FALSE,997.3803711,0,0.050000001,TRUE,0,0,0,0,0,0,0,0,0,1,1,FALSE,FALSE,FALSE,FALSE,FALSE,FALSE,FALSE,FALSE,FALSE,FALSE,FALSE,FALSE,FALSE,FALSE,FALSE,FALSE,FALSE,FALSE,FALSE,FALSE,FALSE,FALSE,FALSE,FALSE,FALSE,FALSE,FALSE,FALSE,FALSE,FALSE,FALSE,FALSE,FALSE,FALSE,FALSE,FALSE,FALSE,FALSE,FALSE,FALSE,FALSE,FALSE,FALSE,FALSE,TRUE,FALSE,FALSE,FALSE,FALSE,FALSE,FALSE,2.64603591,0.297582954,-1.086228371,2.014478683,TRUE,4,1,TRUE,61,56
1458199,1,1458014801,1458194173,3.75,4.031005859,-41.83740234,39.88499832,997.3147583,0.663797438,36.20203018,56.13794327,1.109360814,56.16999817,-0.078479998,-0.10791,9.760950089,1.120000005,-0.839999974,0.209999993,-1.548252583,-0.169944704,-70.54205322,0,1,7,92,23648000,2022,7,24,6,33,50,55,4,-39483,3,1,10,17,1362544737,352941825,130061,95268,1393,1759,-5,27,20,27,13568253,174,4437812,116,,0,,3.75,172.8149414,162.6196289,39.88499832,997.3085938,0,36.20203018,56.13794327,1.225000024,56.16999817,-0.078479998,-0.10791,9.760950089,1.120000005,-0.839999974,0.209999993,-1.548252583,-0.169944704,-70.54205322,0,1,7,92,23648000,2022,7,24,6,33,50,55,4,-39483,3,1,10,17,1362544737,352941825,130061,95268,1393,1759,-5,27,20,27,13568253,174,4437812,116,,0,,0,0,0,195,2174,2111,TRUE,TRUE,TRUE,TRUE,TRUE,1,-168.7839355,155.5429535,1,0,1,FALSE,997.3803711,0,0.050000001,TRUE,0,0,0,0,0,0,0,0,0,1,1,FALSE,FALSE,FALSE,FALSE,FALSE,FALSE,FALSE,FALSE,FALSE,FALSE,FALSE,FALSE,FALSE,FALSE,FALSE,FALSE,FALSE,FALSE,FALSE,FALSE,FALSE,FALSE,FALSE,FALSE,FALSE,FALSE,FALSE,FALSE,FALSE,FALSE,FALSE,FALSE,FALSE,FALSE,FALSE,FALSE,FALSE,FALSE,FALSE,FALSE,FALSE,FALSE,FALSE,FALSE,TRUE,FALSE,FALSE,FALSE,FALSE,FALSE,FALSE,2.600125074,1.151175857,-1.741022944,1.509814262,TRUE,4,1,TRUE,60,56
1458259,1,1458014801,1458236028,4.033333302,3.899169922,-41.83740234,39.86000061,997.321106,0.612709641,36.18867874,56.18371964,1.109414101,56.16999817,-0.098099999,0.04905,9.653039932,0.349999994,-0.980000019,0.49000001,-0.840698421,-0.177218631,-70.52380371,0,1,7,92,23648100,2022,7,24,6,33,50,55,4,99960507,3,1,10,17,1362544738,352941824,130061,95268,1393,1759,-40,41,21,58,13568253,196,4438011,116,,0,,4.033333302,172.6831055,162.6196289,39.86000061,997.3522949,0,36.18867874,56.18371964,1.225000024,56.16999817,-0.098099999,0.04905,9.653039932,0.349999994,-0.980000019,0.49000001,-0.840698421,-0.177218631,-70.52380371,0,1,7,92,23648100,2022,7,24,6,33,50,55,4,99960507,3,1,10,17,1362544738,352941824,130061,95268,1393,1759,-40,41,21,58,13568253,196,4438011,116,,0,,0,0,0,196,2172,2111,TRUE,TRUE,TRUE,TRUE,TRUE,1,-168.7839355,155.5429535,1,0,1,FALSE,997.3803711,0,0.050000001,TRUE,0,0,0,0,0,0,0,0,0,1,1,FALSE,FALSE,FALSE,FALSE,FALSE,FALSE,FALSE,FALSE,FALSE,FALSE,FALSE,FALSE,FALSE,FALSE,FALSE,FALSE,FALSE,FALSE,FALSE,FALSE,FALSE,FALSE,FALSE,FALSE,FALSE,FALSE,FALSE,FALSE,FALSE,FALSE,FALSE,FALSE,FALSE,FALSE,FALSE,FALSE,FALSE,FALSE,FALSE,FALSE,FALSE,FALSE,FALSE,FALSE,TRUE,FALSE,FALSE,FALSE,FALSE,FALSE,FALSE,2.696498632,-0.187745526,-1.307493687,2.033652306,TRUE,4,1,TRUE,60,56
1458319,1,1458014801,1458278017,3.866666555,3.943115234,-42.14501953,39.88999939,997.3234863,0.58420223,36.11390686,56.08911133,1.109768152,56.16999817,0.019619999,0,9.466650009,0.349999994,-0.699999988,0.419999987,-0.767915308,-0.345463783,-70.50164795,0,1,7,92,23648200,2022,7,24,6,33,50,55,4,199960499,3,1,10,17,1362544739,352941823,130076,95283,1392,1759,-79,20,14,81,13568253,226,4438240,116,,0,,3.866666555,172.7270508,162.3120117,39.88999939,997.2712402,0,36.11390686,56.08911133,1.225000024,56.16999817,0.019619999,0,9.466650009,0.349999994,-0.699999988,0.419999987,-0.767915308,-0.345463783,-70.50164795,0,1,7,92,23648200,2022,7,24,6,33,50,55,4,199960499,3,1,10,17,1362544739,352941823,130076,95283,1392,1759,-79,20,14,81,13568253,226,4438240,116,,0,,0,0,0,194,2176,2108,TRUE,TRUE,TRUE,TRUE,TRUE,1,-168.7839355,155.5429535,1,0,1,FALSE,997.3803711,0,0.050000001,TRUE,0,0,0,0,0,0,0,0,0,1,1,FALSE,FALSE,FALSE,FALSE,FALSE,FALSE,FALSE,FALSE,FALSE,FALSE,FALSE,FALSE,FALSE,FALSE,FALSE,FALSE,FALSE,FALSE,FALSE,FALSE,FALSE,FALSE,FALSE,FALSE,FALSE,FALSE,FALSE,FALSE,FALSE,FALSE,FALSE,FALSE,FALSE,FALSE,FALSE,FALSE,FALSE,FALSE,FALSE,FALSE,FALSE,FALSE,FALSE,FALSE,TRUE,FALSE,FALSE,FALSE,FALSE,FALSE,FALSE,2.639776945,-0.847983122,-0.045705337,1.645594954,TRUE,4,1,TRUE,60,56
1458379,1,1458014801,1458361952,3.933333397,3.877197266,-42.27685547,39.85499954,997.3178101,0.641014993,36.15930557,56.07385254,1.109567046,56.15999985,-0.00981,-0.039239999,9.653039932,0.769999981,-0.419999987,0.699999988,-0.82435596,-0.050084345,-70.4732666,0,1,7,92,23648200,2022,7,24,6,33,50,55,4,199960499,3,1,10,17,1362544739,352941823,130076,95283,1392,1759,-79,20,14,81,13568253,226,4438240,116,,0,,3.933333397,172.6611328,162.1801758,39.85499954,997.3164063,0,36.15930557,56.07385254,1.225000024,56.15999985,-0.00981,-0.039239999,9.653039932,0.769999981,-0.419999987,0.699999988,-0.82435596,-0.050084345,-70.4732666,0,1,7,92,23648200,2022,7,24,6,33,50,55,4,199960499,3,1,10,17,1362544739,352941823,130076,95283,1392,1759,-79,20,14,81,13568253,226,4438240,116,,0,,0,0,0,195,2177,2109,TRUE,TRUE,TRUE,TRUE,TRUE,1,-168.7839355,155.5429535,1,0,1,FALSE,997.3803711,0,0.050000001,TRUE,0,0,0,0,0,0,0,0,0,1,1,FALSE,FALSE,FALSE,FALSE,FALSE,FALSE,FALSE,FALSE,FALSE,FALSE,FALSE,FALSE,FALSE,FALSE,FALSE,FALSE,FALSE,FALSE,FALSE,FALSE,FALSE,FALSE,FALSE,FALSE,FALSE,FALSE,FALSE,FALSE,FALSE,FALSE,FALSE,FALSE,FALSE,FALSE,FALSE,FALSE,FALSE,FALSE,FALSE,FALSE,FALSE,FALSE,FALSE,FALSE,TRUE,FALSE,FALSE,FALSE,FALSE,FALSE,FALSE,2.662677765,-1.008427143,-0.092333861,1.596275091,TRUE,4,1,TRUE,60,56
1458439,1,1458014801,1458403891,3.883333445,3.921142578,-42.25488281,39.86999893,997.3200684,0.618494987,36.24475479,56.03875732,1.109205127,56.16999817,-0.21582,-0.382589996,10.00619984,0,-0.839999974,0.49000001,-0.993667662,0.062948048,-70.46704102,0,1,7,92,23648300,2022,7,24,6,33,50,55,4,299960490,3,1,10,17,1362544740,352941824,130078,95285,1392,1759,25,24,15,35,13568253,221,4438463,116,,0,,3.883333445,172.7050781,162.2021484,39.86999893,997.3779297,0,36.24475479,56.03875732,1.225000024,56.16999817,-0.21582,-0.382589996,10.00619984,0,-0.839999974,0.49000001,-0.993667662,0.062948048,-70.46704102,0,1,7,92,23648300,2022,7,24,6,33,50,55,4,299960490,3,1,10,17,1362544740,352941824,130078,95285,1392,1759,25,24,15,35,13568253,221,4438463,116,,0,,0,0,0,195,2178,2108,TRUE,TRUE,TRUE,TRUE,TRUE,1,-168.7839355,155.5429535,1,0,1,FALSE,997.3803711,0,0.050000001,TRUE,0,0,0,0,0,0,0,0,0,1,1,FALSE,FALSE,FALSE,FALSE,FALSE,FALSE,FALSE,FALSE,FALSE,FALSE,FALSE,FALSE,FALSE,FALSE,FALSE,FALSE,FALSE,FALSE,FALSE,FALSE,FALSE,FALSE,FALSE,FALSE,FALSE,FALSE,FALSE,FALSE,FALSE,FALSE,FALSE,FALSE,FALSE,FALSE,FALSE,FALSE,FALSE,FALSE,FALSE,FALSE,FALSE,FALSE,FALSE,FALSE,TRUE,FALSE,FALSE,FALSE,FALSE,FALSE,FALSE,2.646131277,-0.690739393,-0.432567477,1.679320455,TRUE,4,1,TRUE,61,56
1458500,1,1458014801,1458487618,3.883333445,3.943115234,-42.25488281,39.875,997.3250122,0.572942555,36.15930557,56.15320206,1.109555006,56.15999985,-0.11772,-0.412019998,10.23182964,1.330000043,-0.769999981,0.140000001,-1.530558944,-0.029844992,-70.45721436,0,1,7,92,23648300,2022,7,24,6,33,50,55,4,299960490,3,1,10,17,1362544740,352941824,130078,95285,1392,1759,25,24,15,35,13568253,221,4438463,116,,0,,3.883333445,172.7270508,162.2021484,39.875,997.3911133,0,36.15930557,56.15320206,1.225000024,56.15999985,-0.11772,-0.412019998,10.23182964,1.330000043,-0.769999981,0.140000001,-1.530558944,-0.029844992,-70.45721436,0,1,7,92,23648300,2022,7,24,6,33,50,55,4,299960490,3,1,10,17,1362544740,352941824,130078,95285,1392,1759,25,24,15,35,13568253,221,4438463,116,,0,,0,0,0,195,2175,2120,TRUE,TRUE,TRUE,TRUE,TRUE,1,-168.7839355,155.5429535,1,0,1,FALSE,997.3803711,0,0.050000001,TRUE,0,0,0,0,0,0,0,0,0,1,1,FALSE,FALSE,FALSE,FALSE,FALSE,FALSE,FALSE,FALSE,FALSE,FALSE,FALSE,FALSE,FALSE,FALSE,FALSE,FALSE,FALSE,FALSE,FALSE,FALSE,FALSE,FALSE,FALSE,FALSE,FALSE,FALSE,FALSE,FALSE,FALSE,FALSE,FALSE,FALSE,FALSE,FALSE,FALSE,FALSE,FALSE,FALSE,FALSE,FALSE,FALSE,FALSE,FALSE,FALSE,TRUE,FALSE,FALSE,FALSE,FALSE,FALSE,FALSE,2.645714045,0.24496457,-0.522280693,1.821075678,TRUE,4,1,TRUE,60,56
1458560,1,1458014801,1458529791,4.016666889,3.921142578,-42.18896484,39.89500046,997.3222046,0.601332009,36.17265701,56.08758545,1.109509945,56.16999817,0.04905,-0.549359977,10.2122097,0.419999987,-0.560000002,0.07,-1.836290359,-0.174771681,-70.43893433,0,1,7,92,23648400,2022,7,24,6,33,50,55,4,399960481,3,1,10,17,1362544741,352941823,130103,95310,1392,1759,-4,-4,6,6,13568253,240,4438707,116,,0,,4.016666889,172.7050781,162.2680664,39.89500046,997.3583984,0,36.17265701,56.08758545,1.225000024,56.16999817,0.04905,-0.549359977,10.2122097,0.419999987,-0.560000002,0.07,-1.836290359,-0.174771681,-70.43893433,0,1,7,92,23648400,2022,7,24,6,33,50,55,4,399960481,3,1,10,17,1362544741,352941823,130103,95310,1392,1759,-4,-4,6,6,13568253,240,4438707,116,,0,,0,0,0,196,2173,2112,TRUE,TRUE,TRUE,TRUE,TRUE,1,-168.7839355,155.5429535,1,0,1,FALSE,997.3803711,0,0.050000001,TRUE,0,0,0,0,0,0,0,0,0,1,1,FALSE,FALSE,FALSE,FALSE,FALSE,FALSE,FALSE,FALSE,FALSE,FALSE,FALSE,FALSE,FALSE,FALSE,FALSE,FALSE,FALSE,FALSE,FALSE,FALSE,FALSE,FALSE,FALSE,FALSE,FALSE,FALSE,FALSE,FALSE,FALSE,FALSE,FALSE,FALSE,FALSE,FALSE,FALSE,FALSE,FALSE,FALSE,FALSE,FALSE,FALSE,FALSE,FALSE,FALSE,TRUE,FALSE,FALSE,FALSE,FALSE,FALSE,FALSE,2.690805435,0.899305105,-0.624423683,1.733326554,TRUE,4,1,TRUE,60,56
1458620,1,1458014801,1458614203,4.300000191,4.074951172,-42.07910156,39.84999847,997.3199463,0.629696727,36.17265701,56.20355606,1.109477162,56.16999817,-0.11772,-0.245250002,9.819809914,0.349999994,-0.560000002,-0.07,-1.430808187,0.313061565,-70.43218994,0,1,7,92,23648500,2022,7,24,6,33,50,55,4,499960472,3,1,10,17,1362544742,352941822,130120,95327,1392,1759,-25,-11,3,27,13568253,248,4438958,116,,0,,4.300000191,172.8588867,162.3779297,39.84999847,997.2651367,0,36.17265701,56.20355606,1.225000024,56.16999817,-0.11772,-0.245250002,9.819809914,0.349999994,-0.560000002,-0.07,-1.430808187,0.313061565,-70.43218994,0,1,7,92,23648500,2022,7,24,6,33,50,55,4,499960472,3,1,10,17,1362544742,352941822,130120,95327,1392,1759,-25,-11,3,27,13568253,248,4438958,116,,0,,0,0,0,197,2176,2108,TRUE,TRUE,TRUE,TRUE,TRUE,1,-168.7839355,155.5429535,1,0,1,FALSE,997.3803711,0,0.050000001,TRUE,0,0,0,0,0,0,0,0,0,1,1,FALSE,FALSE,FALSE,FALSE,FALSE,FALSE,FALSE,FALSE,FALSE,FALSE,FALSE,FALSE,FALSE,FALSE,FALSE,FALSE,FALSE,FALSE,FALSE,FALSE,FALSE,FALSE,FALSE,FALSE,FALSE,FALSE,FALSE,FALSE,FALSE,FALSE,FALSE,FALSE,FALSE,FALSE,FALSE,FALSE,FALSE,FALSE,FALSE,FALSE,FALSE,FALSE,FALSE,FALSE,TRUE,FALSE,FALSE,FALSE,FALSE,FALSE,FALSE,2.784133434,0.770076752,-1.624647975,1.402946711,TRUE,4,1,TRUE,60,56
1458680,1,1458014801,1458656175,4.300000191,4.096923828,-42.07910156,39.875,997.3170776,0.65236038,36.15930557,56.13031387,1.109551072,56.15999985,-0.10791,-0.392399997,9.888480186,-0.07,-0.49000001,-0.07,-1.296487093,0.517451763,-70.42633057,0,1,7,92,23648500,2022,7,24,6,33,50,55,4,499960472,3,1,10,17,1362544742,352941822,130120,95327,1392,1759,-25,-11,3,27,13568253,248,4438958,116,,0,,4.300000191,172.8808594,162.3779297,39.875,997.3537598,0,36.15930557,56.13031387,1.225000024,56.15999985,-0.10791,-0.392399997,9.888480186,-0.07,-0.49000001,-0.07,-1.296487093,0.517451763,-70.42633057,0,1,7,92,23648500,2022,7,24,6,33,50,55,4,499960472,3,1,10,17,1362544742,352941822,130120,95327,1392,1759,-25,-11,3,27,13568253,248,4438958,116,,0,,0,0,0,224,2177,2110,TRUE,TRUE,TRUE,TRUE,TRUE,1,-168.7839355,155.5429535,1,0,1,FALSE,997.3803711,0,0.050000001,TRUE,0,0,0,0,0,0,0,0,0,1,1,FALSE,FALSE,FALSE,FALSE,FALSE,FALSE,FALSE,FALSE,FALSE,FALSE,FALSE,FALSE,FALSE,FALSE,FALSE,FALSE,FALSE,FALSE,FALSE,FALSE,FALSE,FALSE,FALSE,FALSE,FALSE,FALSE,FALSE,FALSE,FALSE,FALSE,FALSE,FALSE,FALSE,FALSE,FALSE,FALSE,FALSE,FALSE,FALSE,FALSE,FALSE,FALSE,FALSE,FALSE,TRUE,FALSE,FALSE,FALSE,FALSE,FALSE,FALSE,2.784040689,0.645456135,-1.809398651,1.183250904,TRUE,4,1,TRUE,61,56
1458740,1,1458014801,1458740021,4.25,4.074951172,-42.10107422,39.85499954,997.3129883,0.686266184,36.10055542,56.05249023,1.109823227,56.16999817,0.166769996,-0.255059987,10.03563023,-0.07,-0.629999995,0.07,-1.173095465,0.440617949,-70.40548706,0,1,7,92,23648600,2022,7,24,6,33,50,55,4,599960463,3,1,10,17,1362544742,352941822,130120,95327,1391,1759,17,-40,7,44,13568253,201,4439162,116,,0,,4.25,172.8588867,162.355957,39.85499954,997.2380371,0,36.10055542,56.05249023,1.225000024,56.16999817,0.166769996,-0.255059987,10.03563023,-0.07,-0.629999995,0.07,-1.173095465,0.440617949,-70.40548706,0,1,7,92,23648600,2022,7,24,6,33,50,55,4,599960463,3,1,10,17,1362544742,352941822,130120,95327,1391,1759,17,-40,7,44,13568253,201,4439162,116,,0,,0,0,0,228,2177,2109,TRUE,TRUE,TRUE,TRUE,TRUE,1,-168.7839355,155.5429535,1,0,1,FALSE,997.3803711,0,0.050000001,TRUE,0,0,0,0,0,0,0,0,0,1,1,FALSE,FALSE,FALSE,FALSE,FALSE,FALSE,FALSE,FALSE,FALSE,FALSE,FALSE,FALSE,FALSE,FALSE,FALSE,FALSE,FALSE,FALSE,FALSE,FALSE,FALSE,FALSE,FALSE,FALSE,FALSE,FALSE,FALSE,FALSE,FALSE,FALSE,FALSE,FALSE,FALSE,FALSE,FALSE,FALSE,FALSE,FALSE,FALSE,FALSE,FALSE,FALSE,FALSE,FALSE,TRUE,FALSE,FALSE,FALSE,FALSE,FALSE,FALSE,2.767467737,0.328777373,-1.531545639,1.324211359,TRUE,4,1,TRUE,60,56
1458800,1,1458014801,1458781929,4.333333492,4.009033203,-42.23291016,39.88499832,997.3086548,0.731809735,36.17265701,56.16998672,1.109472871,56.15999985,0.10791,-0.166769996,9.790379524,-0.910000026,-0.49000001,0.280000001,-1.077755809,0.072255097,-70.39196777,0,1,7,92,23648600,2022,7,24,6,33,50,55,4,599960463,3,1,10,17,1362544742,352941822,130120,95327,1391,1759,17,-40,7,44,13568253,201,4439162,116,,0,,4.333333492,172.7929688,162.2241211,39.88499832,997.2790527,0,36.17265701,56.16998672,1.225000024,56.15999985,0.10791,-0.166769996,9.790379524,-0.910000026,-0.49000001,0.280000001,-1.077755809,0.072255097,-70.39196777,0,1,7,92,23648600,2022,7,24,6,33,50,55,4,599960463,3,1,10,17,1362544742,352941822,130120,95327,1391,1759,17,-40,7,44,13568253,201,4439162,116,,0,,0,0,0,212,2174,2112,TRUE,TRUE,TRUE,TRUE,TRUE,1,-168.7839355,155.5429535,1,0,1,FALSE,997.3803711,0,0.050000001,TRUE,0,0,0,0,0,0,0,0,0,1,1,FALSE,FALSE,FALSE,FALSE,FALSE,FALSE,FALSE,FALSE,FALSE,FALSE,FALSE,FALSE,FALSE,FALSE,FALSE,FALSE,FALSE,FALSE,FALSE,FALSE,FALSE,FALSE,FALSE,FALSE,FALSE,FALSE,FALSE,FALSE,FALSE,FALSE,FALSE,FALSE,FALSE,FALSE,FALSE,FALSE,FALSE,FALSE,FALSE,FALSE,FALSE,FALSE,FALSE,FALSE,TRUE,FALSE,FALSE,FALSE,FALSE,FALSE,FALSE,2.794909239,-0.374334812,-0.462600023,1.711551785,TRUE,4,1,TRUE,60,56
1458860,1,1458014801,1458823000,4.333333492,3.877197266,-42.45263672,39.86500168,997.3137817,0.680659235,36.1299324,56.21118546,1.109655023,56.15999985,0.039239999,-0.539550006,10.16316032,-0.280000001,-0.629999995,0.209999993,-1.64811933,0.205170572,-70.39440918,0,1,7,92,23648700,2022,7,24,6,33,50,55,4,699960454,3,1,10,17,1362544743,352941823,130110,95317,1391,1760,56,6,15,56,13568253,231,4439396,116,,0,,4.333333492,172.6611328,162.0043945,39.86500168,997.2644043,0,36.1299324,56.21118546,1.225000024,56.15999985,0.039239999,-0.539550006,10.16316032,-0.280000001,-0.629999995,0.209999993,-1.64811933,0.205170572,-70.39440918,0,1,7,92,23648700,2022,7,24,6,33,50,55,4,699960454,3,1,10,17,1362544743,352941823,130110,95317,1391,1760,56,6,15,56,13568253,231,4439396,116,,0,,0,0,0,213,2174,2111,TRUE,TRUE,TRUE,TRUE,TRUE,1,-168.7839355,155.5429535,1,0,1,FALSE,997.3803711,0,0.050000001,TRUE,0,0,0,0,0,0,0,0,0,1,1,FALSE,FALSE,FALSE,FALSE,FALSE,FALSE,FALSE,FALSE,FALSE,FALSE,FALSE,FALSE,FALSE,FALSE,FALSE,FALSE,FALSE,FALSE,FALSE,FALSE,FALSE,FALSE,FALSE,FALSE,FALSE,FALSE,FALSE,FALSE,FALSE,FALSE,FALSE,FALSE,FALSE,FALSE,FALSE,FALSE,FALSE,FALSE,FALSE,FALSE,FALSE,FALSE,FALSE,FALSE,TRUE,FALSE,FALSE,FALSE,FALSE,FALSE,FALSE,2.79467988,0.120734699,-0.302352875,2.029007912,TRUE,4,1,TRUE,60,56
1458920,1,1458014801,1458908036,4.400000095,3.921142578,-42.27685547,39.84999847,997.3127441,0.692230582,36.23140335,56.22491837,1.109206438,56.15999985,-0.04905,-0.461070001,9.751139641,0.49000001,-0.560000002,0.349999994,-2.076675415,0.407832295,-70.38619995,0,1,7,92,23648800,2022,7,24,6,33,50,55,4,799960446,3,1,10,17,1362544743,352941822,130137,95344,1391,1760,-3,-10,2,11,13568253,228,4439627,116,,0,,4.400000095,172.7050781,162.1801758,39.84999847,997.2929688,0,36.23140335,56.22491837,1.225000024,56.15999985,-0.04905,-0.461070001,9.751139641,0.49000001,-0.560000002,0.349999994,-2.076675415,0.407832295,-70.38619995,0,1,7,92,23648800,2022,7,24,6,33,50,55,4,799960446,3,1,10,17,1362544743,352941822,130137,95344,1391,1760,-3,-10,2,11,13568253,228,4439627,116,,0,,0,0,0,205,2176,2108,TRUE,TRUE,TRUE,TRUE,TRUE,1,-168.7839355,155.5429535,1,0,1,FALSE,997.3803711,0,0.050000001,TRUE,0,0,0,0,0,0,0,0,0,1,1,FALSE,FALSE,FALSE,FALSE,FALSE,FALSE,FALSE,FALSE,FALSE,FALSE,FALSE,FALSE,FALSE,FALSE,FALSE,FALSE,FALSE,FALSE,FALSE,FALSE,FALSE,FALSE,FALSE,FALSE,FALSE,FALSE,FALSE,FALSE,FALSE,FALSE,FALSE,FALSE,FALSE,FALSE,FALSE,FALSE,FALSE,FALSE,FALSE,FALSE,FALSE,FALSE,FALSE,FALSE,TRUE,FALSE,FALSE,FALSE,FALSE,FALSE,FALSE,2.816664696,1.405331016,-1.341196656,1.367202878,TRUE,4,1,TRUE,60,56
1458980,1,1458014801,1458950076,4.416666508,3.943115234,-42.05712891,39.875,997.3143311,0.680817902,36.20203018,56.2661171,1.109326124,56.15999985,-0.22563,-0.480690002,10.18278027,0.349999994,-0.629999995,0.280000001,-2.17757082,0.55981344,-70.38064575,0,1,7,92,23648800,2022,7,24,6,33,50,55,4,799960446,3,1,10,17,1362544743,352941822,130137,95344,1391,1760,-3,-10,2,11,13568253,228,4439627,116,,0,,4.416666508,172.7270508,162.3999023,39.875,997.2561035,0,36.20203018,56.2661171,1.225000024,56.15999985,-0.22563,-0.480690002,10.18278027,0.349999994,-0.629999995,0.280000001,-2.17757082,0.55981344,-70.38064575,0,1,7,92,23648800,2022,7,24,6,33,50,55,4,799960446,3,1,10,17,1362544743,352941822,130137,95344,1391,1760,-3,-10,2,11,13568253,228,4439627,116,,0,,0,0,0,199,2175,2110,TRUE,TRUE,TRUE,TRUE,TRUE,1,-168.7839355,155.5429535,1,0,1,FALSE,997.3803711,0,0.050000001,TRUE,0,0,0,0,0,0,0,0,0,1,1,FALSE,FALSE,FALSE,FALSE,FALSE,FALSE,FALSE,FALSE,FALSE,FALSE,FALSE,FALSE,FALSE,FALSE,FALSE,FALSE,FALSE,FALSE,FALSE,FALSE,FALSE,FALSE,FALSE,FALSE,FALSE,FALSE,FALSE,FALSE,FALSE,FALSE,FALSE,FALSE,FALSE,FALSE,FALSE,FALSE,FALSE,FALSE,FALSE,FALSE,FALSE,FALSE,FALSE,FALSE,TRUE,FALSE,FALSE,FALSE,FALSE,FALSE,FALSE,2.821841955,1.906143069,-1.9699018,0.577873349,TRUE,4,1,TRUE,61,56
1459041,1,1459014816,1459034479,4.383333206,3.987060547,-42.01318359,39.86000061,997.3175659,0.652422309,36.18867874,56.10131836,1.109430313,56.15999985,-0.206009999,-0.382589996,9.868860245,0.839999974,-0.699999988,0.419999987,-2.205943108,0.657504082,-70.38095093,0,1,7,92,23648900,2022,7,24,6,33,50,55,4,899960437,3,1,10,17,1362544745,352941823,130168,95376,1390,1760,42,-14,-8,45,13568253,223,4439853,116,,0,,4.383333206,172.7709961,162.4438477,39.86000061,997.3205566,0,36.18867874,56.10131836,1.225000024,56.15999985,-0.206009999,-0.382589996,9.868860245,0.839999974,-0.699999988,0.419999987,-2.205943108,0.657504082,-70.38095093,0,1,7,92,23648900,2022,7,24,6,33,50,55,4,899960437,3,1,10,17,1362544745,352941823,130168,95376,1390,1760,42,-14,-8,45,13568253,223,4439853,116,,0,,0,0,0,198,2176,2109,TRUE,TRUE,TRUE,TRUE,TRUE,1,-168.7839355,155.5429535,1,0,1,FALSE,997.3803711,0,0.050000001,TRUE,0,0,0,0,0,0,0,0,0,1,1,FALSE,FALSE,FALSE,FALSE,FALSE,FALSE,FALSE,FALSE,FALSE,FALSE,FALSE,FALSE,FALSE,FALSE,FALSE,FALSE,FALSE,FALSE,FALSE,FALSE,FALSE,FALSE,FALSE,FALSE,FALSE,FALSE,FALSE,FALSE,FALSE,FALSE,FALSE,FALSE,FALSE,FALSE,FALSE,FALSE,FALSE,FALSE,FALSE,FALSE,FALSE,FALSE,FALSE,FALSE,TRUE,FALSE,FALSE,FALSE,FALSE,FALSE,FALSE,2.811041355,1.894082069,-1.989088893,0.277989179,TRUE,4,1,TRUE,60,56
1459101,1,1459014816,1459076713,4.349999905,3.965087891,-42.01318359,39.86500168,997.3243408,0.589960694,36.15930557,56.11962891,1.109561801,56.15999985,-0.235440001,-0.166769996,9.66285038,0.49000001,-0.699999988,0.349999994,-1.992444277,0.373943686,-70.36273193,0,1,7,92,23648900,2022,7,24,6,33,50,55,4,899960437,3,1,10,17,1362544745,352941823,130168,95376,1390,1760,42,-14,-8,45,13568253,223,4439853,116,,0,,4.349999905,172.7490234,162.4438477,39.86500168,997.388916,0,36.15930557,56.11962891,1.225000024,56.15999985,-0.235440001,-0.166769996,9.66285038,0.49000001,-0.699999988,0.349999994,-1.992444277,0.373943686,-70.36273193,0,1,7,92,23648900,2022,7,24,6,33,50,55,4,899960437,3,1,10,17,1362544745,352941823,130168,95376,1390,1760,42,-14,-8,45,13568253,223,4439853,116,,0,,0,0,0,198,2176,2110,TRUE,TRUE,TRUE,TRUE,TRUE,1,-168.7839355,155.5429535,1,0,1,FALSE,997.3803711,0,0.050000001,TRUE,0,0,0,0,0,0,0,0,0,1,1,FALSE,FALSE,FALSE,FALSE,FALSE,FALSE,FALSE,FALSE,FALSE,FALSE,FALSE,FALSE,FALSE,FALSE,FALSE,FALSE,FALSE,FALSE,FALSE,FALSE,FALSE,FALSE,FALSE,FALSE,FALSE,FALSE,FALSE,FALSE,FALSE,FALSE,FALSE,FALSE,FALSE,FALSE,FALSE,FALSE,FALSE,FALSE,FALSE,FALSE,FALSE,FALSE,FALSE,FALSE,TRUE,FALSE,FALSE,FALSE,FALSE,FALSE,FALSE,2.800166607,1.694061995,-1.996308684,0.924762845,TRUE,4,1,TRUE,61,56
1459161,1,1459014816,1459160579,4,3.921142578,-42.14501953,39.875,997.3198853,0.623905301,36.11390686,56.19440079,1.109737039,56.15999985,-0.068669997,-0.313919991,9.545129776,0.419999987,-0.209999993,-0.140000001,-1.908440471,0.163203433,-70.35110474,0,1,7,92,23649000,2022,7,24,6,33,51,55,4,-39571,3,1,10,17,1362544746,352941822,130162,95370,1390,1760,15,-5,0,16,13568253,222,4440078,116,,0,,4,172.7050781,162.3120117,39.875,997.2956543,0,36.11390686,56.19440079,1.225000024,56.15999985,-0.068669997,-0.313919991,9.545129776,0.419999987,-0.209999993,-0.140000001,-1.908440471,0.163203433,-70.35110474,0,1,7,92,23649000,2022,7,24,6,33,51,55,4,-39571,3,1,10,17,1362544746,352941822,130162,95370,1390,1760,15,-5,0,16,13568253,222,4440078,116,,0,,0,0,0,198,2176,2111,TRUE,TRUE,TRUE,TRUE,TRUE,1,-168.7839355,155.5429535,1,0,1,FALSE,997.3803711,0,0.050000001,TRUE,0,0,0,0,0,0,0,0,0,1,1,FALSE,FALSE,FALSE,FALSE,FALSE,FALSE,FALSE,FALSE,FALSE,FALSE,FALSE,FALSE,FALSE,FALSE,FALSE,FALSE,FALSE,FALSE,FALSE,FALSE,FALSE,FALSE,FALSE,FALSE,FALSE,FALSE,FALSE,FALSE,FALSE,FALSE,FALSE,FALSE,FALSE,FALSE,FALSE,FALSE,FALSE,FALSE,FALSE,FALSE,FALSE,FALSE,FALSE,FALSE,TRUE,FALSE,FALSE,FALSE,FALSE,FALSE,FALSE,2.684942245,1.251322389,-1.348546982,1.470929503,TRUE,4,1,TRUE,59,56
1459221,1,1459014816,1459202534,4.283333302,3.943115234,-41.96923828,39.86000061,997.3226318,0.60124898,36.1299324,56.17456436,1.109674454,56.15999985,0.04905,-0.176579997,9.702090263,0.280000001,-0.629999995,0.280000001,-1.386274815,0.047963623,-70.34506226,0,1,7,92,23649100,2022,7,24,6,33,51,55,4,99960419,3,1,10,17,1362544746,352941821,130168,95376,1390,1760,-2,-35,3,35,13568253,216,4440296,116,,0,,4.283333302,172.7270508,162.487793,39.86000061,997.3156738,0,36.1299324,56.17456436,1.225000024,56.15999985,0.04905,-0.176579997,9.702090263,0.280000001,-0.629999995,0.280000001,-1.386274815,0.047963623,-70.34506226,0,1,7,92,23649100,2022,7,24,6,33,51,55,4,99960419,3,1,10,17,1362544746,352941821,130168,95376,1390,1760,-2,-35,3,35,13568253,216,4440296,116,,0,,0,0,0,198,2176,2110,TRUE,TRUE,TRUE,TRUE,TRUE,1,-168.7839355,155.5429535,1,0,1,FALSE,997.3803711,0,0.050000001,TRUE,0,0,0,0,0,0,0,0,0,1,1,FALSE,FALSE,FALSE,FALSE,FALSE,FALSE,FALSE,FALSE,FALSE,FALSE,FALSE,FALSE,FALSE,FALSE,FALSE,FALSE,FALSE,FALSE,FALSE,FALSE,FALSE,FALSE,FALSE,FALSE,FALSE,FALSE,FALSE,FALSE,FALSE,FALSE,FALSE,FALSE,FALSE,FALSE,FALSE,FALSE,FALSE,FALSE,FALSE,FALSE,FALSE,FALSE,FALSE,FALSE,TRUE,FALSE,FALSE,FALSE,FALSE,FALSE,FALSE,2.778485537,0.797614396,-1.512801886,1.829070807,TRUE,4,1,TRUE,60,56
1459281,1,1459014816,1459244524,4.483333111,3.811279297,-41.859375,39.88000107,997.3206787,0.623937607,36.1299324,56.13946915,1.109680772,56.16999817,-0.039239999,-0.11772,9.721710205,0.560000002,-0.629999995,0.140000001,-1.268227935,0.216270447,-70.33059692,0,1,7,92,23649100,2022,7,24,6,33,51,55,4,99960419,3,1,10,17,1362544746,352941821,130168,95376,1390,1760,-2,-35,3,35,13568253,216,4440296,116,,0,,4.483333111,172.5952148,162.5976563,39.88000107,997.3564453,0,36.1299324,56.13946915,1.225000024,56.16999817,-0.039239999,-0.11772,9.721710205,0.560000002,-0.629999995,0.140000001,-1.268227935,0.216270447,-70.33059692,0,1,7,92,23649100,2022,7,24,6,33,51,55,4,99960419,3,1,10,17,1362544746,352941821,130168,95376,1390,1760,-2,-35,3,35,13568253,216,4440296,116,,0,,0,0,0,200,2176,2109,TRUE,TRUE,TRUE,TRUE,TRUE,1,-168.7839355,155.5429535,1,0,1,FALSE,997.3803711,0,0.050000001,TRUE,0,0,0,0,0,0,0,0,0,1,1,FALSE,FALSE,FALSE,FALSE,FALSE,FALSE,FALSE,FALSE,FALSE,FALSE,FALSE,FALSE,FALSE,FALSE,FALSE,FALSE,FALSE,FALSE,FALSE,FALSE,FALSE,FALSE,FALSE,FALSE,FALSE,FALSE,FALSE,FALSE,FALSE,FALSE,FALSE,FALSE,FALSE,FALSE,FALSE,FALSE,FALSE,FALSE,FALSE,FALSE,FALSE,FALSE,FALSE,FALSE,TRUE,FALSE,FALSE,FALSE,FALSE,FALSE,FALSE,2.842604637,0.853054404,-2.086940527,1.784615159,TRUE,4,1,TRUE,61,56
1459341,1,1459014816,1459328563,4.133333206,3.987060547,-41.46386719,39.86000061,997.3218384,0.607036412,36.18867874,56.15777969,1.109421253,56.15999985,0.068669997,-0.333539993,9.731519699,-0.140000001,-0.629999995,0.419999987,-1.231569648,0.302434027,-70.31481934,0,1,7,92,23649200,2022,7,24,6,33,51,55,4,199960410,3,1,10,17,1362544748,352941821,130180,95387,1389,1760,-8,22,5,24,13568253,194,4440492,116,,0,,4.133333206,172.7709961,162.9931641,39.86000061,997.3779297,0,36.18867874,56.15777969,1.225000024,56.15999985,0.068669997,-0.333539993,9.731519699,-0.140000001,-0.629999995,0.419999987,-1.231569648,0.302434027,-70.31481934,0,1,7,92,23649200,2022,7,24,6,33,51,55,4,199960410,3,1,10,17,1362544748,352941821,130180,95387,1389,1760,-8,22,5,24,13568253,194,4440492,116,,0,,0,0,0,198,2172,2110,TRUE,TRUE,TRUE,TRUE,TRUE,1,-168.7839355,155.5429535,1,0,1,FALSE,997.3803711,0,0.050000001,TRUE,0,0,0,0,0,0,0,0,0,1,1,FALSE,FALSE,FALSE,FALSE,FALSE,FALSE,FALSE,FALSE,FALSE,FALSE,FALSE,FALSE,FALSE,FALSE,FALSE,FALSE,FALSE,FALSE,FALSE,FALSE,FALSE,FALSE,FALSE,FALSE,FALSE,FALSE,FALSE,FALSE,FALSE,FALSE,FALSE,FALSE,FALSE,FALSE,FALSE,FALSE,FALSE,FALSE,FALSE,FALSE,FALSE,FALSE,FALSE,FALSE,TRUE,FALSE,FALSE,FALSE,FALSE,FALSE,FALSE,2.729712963,1.814136505,-3.090272188,1.035272956,TRUE,4,1,TRUE,60,56
1459401,1,1459014816,1459370595,4.099999905,4.009033203,-41.59570313,39.86000061,997.3199463,0.623937607,36.1299324,56.16235733,1.109674931,56.15999985,-0.078479998,-0.29429999,9.800189972,-0.209999993,-0.699999988,0.560000002,-1.714307547,0.426927328,-70.29342651,0,1,7,92,23649200,2022,7,24,6,33,51,55,4,199960410,3,1,10,17,1362544748,352941821,130180,95387,1389,1760,-8,22,5,24,13568253,194,4440492,116,,0,,4.099999905,172.7929688,162.8613281,39.86000061,997.2783203,0,36.1299324,56.16235733,1.225000024,56.15999985,-0.078479998,-0.29429999,9.800189972,-0.209999993,-0.699999988,0.560000002,-1.714307547,0.426927328,-70.29342651,0,1,7,92,23649200,2022,7,24,6,33,51,55,4,199960410,3,1,10,17,1362544748,352941821,130180,95387,1389,1760,-8,22,5,24,13568253,194,4440492,116,,0,,0,0,0,201,2173,2111,TRUE,TRUE,TRUE,TRUE,TRUE,1,-168.7839355,155.5429535,1,0,1,FALSE,997.3803711,0,0.050000001,TRUE,0,0,0,0,0,0,0,0,0,1,1,FALSE,FALSE,FALSE,FALSE,FALSE,FALSE,FALSE,FALSE,FALSE,FALSE,FALSE,FALSE,FALSE,FALSE,FALSE,FALSE,FALSE,FALSE,FALSE,FALSE,FALSE,FALSE,FALSE,FALSE,FALSE,FALSE,FALSE,FALSE,FALSE,FALSE,FALSE,FALSE,FALSE,FALSE,FALSE,FALSE,FALSE,FALSE,FALSE,FALSE,FALSE,FALSE,FALSE,FALSE,TRUE,FALSE,FALSE,FALSE,FALSE,FALSE,FALSE,2.718372822,2.148339033,-2.919221401,0.353686512,TRUE,4,1,TRUE,61,56
1459461,1,1459014816,1459455021,3.933333397,3.965087891,-41.90332031,39.86000061,997.3163452,0.652422309,36.18867874,56.20660782,1.109403133,56.15999985,0,-0.255059987,9.427410126,0.419999987,-0.629999995,0.629999995,-1.970528841,0.300811201,-70.26333618,0,1,7,92,23649300,2022,7,24,6,33,51,55,4,299960401,3,1,10,17,1362544749,352941821,130204,95412,1388,1759,11,14,-3,17,13568253,225,4440720,116,,0,,3.933333397,172.7490234,162.5537109,39.86000061,997.2556152,0,36.18867874,56.20660782,1.225000024,56.15999985,0,-0.255059987,9.427410126,0.419999987,-0.629999995,0.629999995,-1.970528841,0.300811201,-70.26333618,0,1,7,92,23649300,2022,7,24,6,33,51,55,4,299960401,3,1,10,17,1362544749,352941821,130204,95412,1388,1759,11,14,-3,17,13568253,225,4440720,116,,0,,0,0,0,198,2178,2109,TRUE,TRUE,TRUE,TRUE,TRUE,1,-168.7839355,155.5429535,1,0,1,FALSE,997.3803711,0,0.050000001,TRUE,0,0,0,0,0,0,0,0,0,1,1,FALSE,FALSE,FALSE,FALSE,FALSE,FALSE,FALSE,FALSE,FALSE,FALSE,FALSE,FALSE,FALSE,FALSE,FALSE,FALSE,FALSE,FALSE,FALSE,FALSE,FALSE,FALSE,FALSE,FALSE,FALSE,FALSE,FALSE,FALSE,FALSE,FALSE,FALSE,FALSE,FALSE,FALSE,FALSE,FALSE,FALSE,FALSE,FALSE,FALSE,FALSE,FALSE,FALSE,FALSE,TRUE,FALSE,FALSE,FALSE,FALSE,FALSE,FALSE,2.66287446,1.825664878,-2.125639439,0.779881775,TRUE,4,1,TRUE,59,56
1459522,1,1459014816,1459496812,4.033333302,3.965087891,-42.01318359,39.84000015,997.3196411,0.623937607,36.1299324,56.21118546,1.109662294,56.15999985,-0.382589996,-0.73575002,10.30049992,0.140000001,-0.49000001,-0.209999993,-2.14620924,0.327342659,-70.26361084,0,1,7,92,23649400,2022,7,24,6,33,51,55,4,399960392,3,1,10,17,1362544750,352941820,130193,95401,1388,1759,-9,16,6,18,13568253,187,4440910,116,,0,,4.033333302,172.7490234,162.4438477,39.84000015,997.3530273,0,36.1299324,56.21118546,1.225000024,56.15999985,-0.382589996,-0.73575002,10.30049992,0.140000001,-0.49000001,-0.209999993,-2.14620924,0.327342659,-70.26361084,0,1,7,92,23649400,2022,7,24,6,33,51,55,4,399960392,3,1,10,17,1362544750,352941820,130193,95401,1388,1759,-9,16,6,18,13568253,187,4440910,116,,0,,0,0,0,201,2172,2110,TRUE,TRUE,TRUE,TRUE,TRUE,1,-168.7839355,155.5429535,1,0,1,FALSE,997.3803711,0,0.050000001,TRUE,0,0,0,0,0,0,0,0,0,1,1,FALSE,FALSE,FALSE,FALSE,FALSE,FALSE,FALSE,FALSE,FALSE,FALSE,FALSE,FALSE,FALSE,FALSE,FALSE,FALSE,FALSE,FALSE,FALSE,FALSE,FALSE,FALSE,FALSE,FALSE,FALSE,FALSE,FALSE,FALSE,FALSE,FALSE,FALSE,FALSE,FALSE,FALSE,FALSE,FALSE,FALSE,FALSE,FALSE,FALSE,FALSE,FALSE,FALSE,FALSE,TRUE,FALSE,FALSE,FALSE,FALSE,FALSE,FALSE,2.696197033,1.841986179,-1.886808157,0.712001681,TRUE,4,1,TRUE,61,56
1459582,1,1459014816,1459580816,4.25,3.987060547,-41.99121094,39.88000107,997.3163452,0.658004642,36.14595413,56.11657715,1.109612107,56.15999985,-0.245250002,-0.402209997,10.34955025,-0.209999993,-0.699999988,-0.349999994,-1.887322187,0.504840791,-70.24472046,0,1,7,92,23649400,2022,7,24,6,33,51,55,4,399960392,3,1,10,17,1362544750,352941820,130193,95401,1388,1759,-9,16,6,18,13568253,187,4440910,116,,0,,4.25,172.7709961,162.4658203,39.88000107,997.3786621,0,36.14595413,56.11657715,1.225000024,56.15999985,-0.245250002,-0.402209997,10.34955025,-0.209999993,-0.699999988,-0.349999994,-1.887322187,0.504840791,-70.24472046,0,1,7,92,23649400,2022,7,24,6,33,51,55,4,399960392,3,1,10,17,1362544750,352941820,130193,95401,1388,1759,-9,16,6,18,13568253,187,4440910,116,,0,,0,0,0,198,2173,2111,TRUE,TRUE,TRUE,TRUE,TRUE,1,-168.7839355,155.5429535,1,0,1,FALSE,997.3803711,0,0.050000001,TRUE,0,0,0,0,0,0,0,0,0,1,1,FALSE,FALSE,FALSE,FALSE,FALSE,FALSE,FALSE,FALSE,FALSE,FALSE,FALSE,FALSE,FALSE,FALSE,FALSE,FALSE,FALSE,FALSE,FALSE,FALSE,FALSE,FALSE,FALSE,FALSE,FALSE,FALSE,FALSE,FALSE,FALSE,FALSE,FALSE,FALSE,FALSE,FALSE,FALSE,FALSE,FALSE,FALSE,FALSE,FALSE,FALSE,FALSE,FALSE,FALSE,TRUE,FALSE,FALSE,FALSE,FALSE,FALSE,FALSE,2.767730951,1.761597395,-2.139576197,0.795709431,TRUE,4,1,TRUE,60,56
1459642,1,1459014816,1459622568,4.449999809,3.899169922,-41.79345703,39.88499832,997.3223267,0.607062638,36.20203018,56.19440079,1.109353304,56.15999985,0.176579997,-0.45126,10.13372993,1.049999952,-0.699999988,-0.07,-1.89477241,0.247773096,-70.2137146,0,1,7,92,23649500,2022,7,24,6,33,51,55,4,499960383,3,1,10,17,1362544750,352941820,130207,95414,1387,1758,-7,-9,2,11,13568253,220,4441133,116,,0,,4.449999809,172.6831055,162.6635742,39.88499832,997.4206543,0,36.20203018,56.19440079,1.225000024,56.15999985,0.176579997,-0.45126,10.13372993,1.049999952,-0.699999988,-0.07,-1.89477241,0.247773096,-70.2137146,0,1,7,92,23649500,2022,7,24,6,33,51,55,4,499960383,3,1,10,17,1362544750,352941820,130207,95414,1387,1758,-7,-9,2,11,13568253,220,4441133,116,,0,,0,0,0,198,2175,2110,TRUE,TRUE,TRUE,TRUE,TRUE,1,-168.7839355,155.5429535,1,0,1,FALSE,997.3803711,0,0.050000001,TRUE,0,0,0,0,0,0,0,0,0,1,1,FALSE,FALSE,FALSE,FALSE,FALSE,FALSE,FALSE,FALSE,FALSE,FALSE,FALSE,FALSE,FALSE,FALSE,FALSE,FALSE,FALSE,FALSE,FALSE,FALSE,FALSE,FALSE,FALSE,FALSE,FALSE,FALSE,FALSE,FALSE,FALSE,FALSE,FALSE,FALSE,FALSE,FALSE,FALSE,FALSE,FALSE,FALSE,FALSE,FALSE,FALSE,FALSE,FALSE,FALSE,TRUE,FALSE,FALSE,FALSE,FALSE,FALSE,FALSE,2.832435608,2.097626925,-2.484297991,0.898834527,TRUE,4,1,TRUE,60,56
1459702,1,1459014816,1459664631,4.099999905,3.877197266,-41.70556641,39.86999893,997.3164063,0.652422309,36.18867874,56.21728897,1.109400034,56.15999985,0.206009999,-0.235440001,9.966959953,0.209999993,-0.629999995,0.349999994,-1.528551579,0.173754409,-70.1831665,0,1,7,92,23649500,2022,7,24,6,33,51,55,4,499960383,3,1,10,17,1362544750,352941820,130207,95414,1387,1758,-7,-9,2,11,13568253,220,4441133,116,,0,,4.099999905,172.6611328,162.7514648,39.86999893,997.2375488,0,36.18867874,56.21728897,1.225000024,56.15999985,0.206009999,-0.235440001,9.966959953,0.209999993,-0.629999995,0.349999994,-1.528551579,0.173754409,-70.1831665,0,1,7,92,23649500,2022,7,24,6,33,51,55,4,499960383,3,1,10,17,1362544750,352941820,130207,95414,1387,1758,-7,-9,2,11,13568253,220,4441133,116,,0,,0,0,0,198,2176,2109,TRUE,TRUE,TRUE,TRUE,TRUE,1,-168.7839355,155.5429535,1,0,1,FALSE,997.3803711,0,0.050000001,TRUE,0,0,0,0,0,0,0,0,0,1,1,FALSE,FALSE,FALSE,FALSE,FALSE,FALSE,FALSE,FALSE,FALSE,FALSE,FALSE,FALSE,FALSE,FALSE,FALSE,FALSE,FALSE,FALSE,FALSE,FALSE,FALSE,FALSE,FALSE,FALSE,FALSE,FALSE,FALSE,FALSE,FALSE,FALSE,FALSE,FALSE,FALSE,FALSE,FALSE,FALSE,FALSE,FALSE,FALSE,FALSE,FALSE,FALSE,FALSE,FALSE,TRUE,FALSE,FALSE,FALSE,FALSE,FALSE,FALSE,2.718709707,1.738764763,-2.364428759,1.330684304,TRUE,4,1,TRUE,61,56
1459762,1,1459014816,1459748574,3.883333445,4.009033203,-41.70556641,39.86999893,997.3165894,0.652388513,36.17265701,56.16998672,1.109482884,56.15999985,0.068669997,-0.098099999,9.78057003,0.629999995,-0.839999974,0,-1.207860708,0.371743828,-70.17556763,0,1,7,92,23649600,2022,7,24,6,33,51,55,4,599960375,3,1,10,17,1362544751,352941820,130232,95439,1386,1758,17,-22,-9,28,13568253,192,4441328,116,,0,,3.883333445,172.7929688,162.7514648,39.86999893,997.3681641,0,36.17265701,56.16998672,1.225000024,56.15999985,0.068669997,-0.098099999,9.78057003,0.629999995,-0.839999974,0,-1.207860708,0.371743828,-70.17556763,0,1,7,92,23649600,2022,7,24,6,33,51,55,4,599960375,3,1,10,17,1362544751,352941820,130232,95439,1386,1758,17,-22,-9,28,13568253,192,4441328,116,,0,,0,0,0,199,2176,2108,TRUE,TRUE,TRUE,TRUE,TRUE,1,-168.7839355,155.5429535,1,0,1,FALSE,997.3803711,0,0.050000001,TRUE,0,0,0,0,0,0,0,0,0,1,1,FALSE,FALSE,FALSE,FALSE,FALSE,FALSE,FALSE,FALSE,FALSE,FALSE,FALSE,FALSE,FALSE,FALSE,FALSE,FALSE,FALSE,FALSE,FALSE,FALSE,FALSE,FALSE,FALSE,FALSE,FALSE,FALSE,FALSE,FALSE,FALSE,FALSE,FALSE,FALSE,FALSE,FALSE,FALSE,FALSE,FALSE,FALSE,FALSE,FALSE,FALSE,FALSE,FALSE,FALSE,TRUE,FALSE,FALSE,FALSE,FALSE,FALSE,FALSE,2.645800114,1.451103806,-2.255894661,1.173036695,TRUE,4,1,TRUE,59,56
1459822,1,1459014816,1459790658,3.783333302,3.921142578,-41.72753906,39.85499954,997.3112183,0.697808206,36.18867874,56.25391006,1.10938561,56.15999985,0.166769996,-0.21582,9.643230438,1.25999999,-0.839999974,0.349999994,-1.345459819,0.391008437,-70.15634155,0,1,7,92,23649700,2022,7,24,6,33,51,55,4,699960366,3,1,10,17,1362544752,352941820,130233,95441,1385,1757,-1,-5,-4,5,13568253,217,4441548,116,,0,,3.783333302,172.7050781,162.7294922,39.85499954,997.2851563,0,36.18867874,56.25391006,1.225000024,56.15999985,0.166769996,-0.21582,9.643230438,1.25999999,-0.839999974,0.349999994,-1.345459819,0.391008437,-70.15634155,0,1,7,92,23649700,2022,7,24,6,33,51,55,4,699960366,3,1,10,17,1362544752,352941820,130233,95441,1385,1757,-1,-5,-4,5,13568253,217,4441548,116,,0,,0,0,0,197,2173,2109,TRUE,TRUE,TRUE,TRUE,TRUE,1,-168.7839355,155.5429535,1,0,1,FALSE,997.3803711,0,0.050000001,TRUE,0,0,0,0,0,0,0,0,0,1,1,FALSE,FALSE,FALSE,FALSE,FALSE,FALSE,FALSE,FALSE,FALSE,FALSE,FALSE,FALSE,FALSE,FALSE,FALSE,FALSE,FALSE,FALSE,FALSE,FALSE,FALSE,FALSE,FALSE,FALSE,FALSE,FALSE,FALSE,FALSE,FALSE,FALSE,FALSE,FALSE,FALSE,FALSE,FALSE,FALSE,FALSE,FALSE,FALSE,FALSE,FALSE,FALSE,FALSE,FALSE,TRUE,FALSE,FALSE,FALSE,FALSE,FALSE,FALSE,2.611626387,1.567347169,-2.291731834,1.0936836,TRUE,4,1,TRUE,61,56
1459882,1,1459014816,1459875233,3.799999952,4.009033203,-41.61767578,39.90000153,997.3077393,0.726174414,36.18867874,56.20660782,1.109393597,56.15999985,0.156959996,-0.402209997,10.22202015,0.910000026,-0.910000026,0.910000026,-1.416905522,0.156775504,-70.13467407,0,1,7,92,23649700,2022,7,24,6,33,51,55,4,699960366,3,1,10,17,1362544752,352941820,130233,95441,1385,1757,-1,-5,-4,5,13568253,217,4441548,116,,0,,3.799999952,172.7929688,162.8393555,39.90000153,997.3696289,0,36.18867874,56.20660782,1.225000024,56.15999985,0.156959996,-0.402209997,10.22202015,0.910000026,-0.910000026,0.910000026,-1.416905522,0.156775504,-70.13467407,0,1,7,92,23649700,2022,7,24,6,33,51,55,4,699960366,3,1,10,17,1362544752,352941820,130233,95441,1385,1757,-1,-5,-4,5,13568253,217,4441548,116,,0,,0,0,0,200,2175,2110,TRUE,TRUE,TRUE,TRUE,TRUE,1,-168.7839355,155.5429535,1,0,1,FALSE,997.3803711,0,0.050000001,TRUE,0,0,0,0,0,0,0,0,0,1,1,FALSE,FALSE,FALSE,FALSE,FALSE,FALSE,FALSE,FALSE,FALSE,FALSE,FALSE,FALSE,FALSE,FALSE,FALSE,FALSE,FALSE,FALSE,FALSE,FALSE,FALSE,FALSE,FALSE,FALSE,FALSE,FALSE,FALSE,FALSE,FALSE,FALSE,FALSE,FALSE,FALSE,FALSE,FALSE,FALSE,FALSE,FALSE,FALSE,FALSE,FALSE,FALSE,FALSE,FALSE,TRUE,FALSE,FALSE,FALSE,FALSE,FALSE,FALSE,2.617362976,1.782375455,-2.298737526,1.189530492,TRUE,4,1,TRUE,60,56
1459942,1,1459014816,1459916797,3.966666698,3.921142578,-41.79345703,39.88000107,997.3081055,0.726174414,36.18867874,56.229496,1.109387875,56.15000153,-0.21582,-0.461070001,10.11410999,0.49000001,-0.769999981,0.629999995,-1.42536819,0.239006191,-70.14108276,0,1,7,92,23649800,2022,7,24,6,33,51,55,4,799960357,3,1,10,17,1362544753,352941820,130246,95453,1385,1757,-2,20,-7,21,13568253,194,4441744,116,,0,,3.966666698,172.7050781,162.6635742,39.88000107,997.2692871,0,36.18867874,56.229496,1.225000024,56.15000153,-0.21582,-0.461070001,10.11410999,0.49000001,-0.769999981,0.629999995,-1.42536819,0.239006191,-70.14108276,0,1,7,92,23649800,2022,7,24,6,33,51,55,4,799960357,3,1,10,17,1362544753,352941820,130246,95453,1385,1757,-2,20,-7,21,13568253,194,4441744,116,,0,,0,0,0,199,2177,2109,TRUE,TRUE,TRUE,TRUE,TRUE,1,-168.7839355,155.5429535,1,0,1,FALSE,997.3803711,0,0.050000001,TRUE,0,0,0,0,0,0,0,0,0,1,1,FALSE,FALSE,FALSE,FALSE,FALSE,FALSE,FALSE,FALSE,FALSE,FALSE,FALSE,FALSE,FALSE,FALSE,FALSE,FALSE,FALSE,FALSE,FALSE,FALSE,FALSE,FALSE,FALSE,FALSE,FALSE,FALSE,FALSE,FALSE,FALSE,FALSE,FALSE,FALSE,FALSE,FALSE,FALSE,FALSE,FALSE,FALSE,FALSE,FALSE,FALSE,FALSE,FALSE,FALSE,TRUE,FALSE,FALSE,FALSE,FALSE,FALSE,FALSE,2.674152374,1.494013429,-2.083593369,1.389606237,TRUE,4,1,TRUE,61,56
1460002,1,1459014816,1460001255,4.066666603,3.833251953,-41.77148438,39.86999893,997.3074341,0.737419009,36.14595413,56.12878799,1.109599471,56.15999985,-0.245250002,-0.500310004,10.19258976,0.910000026,-0.419999987,-0.349999994,-1.706634641,-0.00200354,-70.16229248,0,1,7,92,23649800,2022,7,24,6,33,51,55,4,799960357,3,1,10,17,1362544753,352941820,130246,95453,1385,1757,-2,20,-7,21,13568253,194,4441744,116,,0,,4.066666603,172.6171875,162.6855469,39.86999893,997.2368164,0,36.14595413,56.12878799,1.225000024,56.15999985,-0.245250002,-0.500310004,10.19258976,0.910000026,-0.419999987,-0.349999994,-1.706634641,-0.00200354,-70.16229248,0,1,7,92,23649800,2022,7,24,6,33,51,55,4,799960357,3,1,10,17,1362544753,352941820,130246,95453,1385,1757,-2,20,-7,21,13568253,194,4441744,116,,0,,0,0,0,198,2177,2110,TRUE,TRUE,TRUE,TRUE,TRUE,1,-168.7839355,155.5429535,1,0,1,FALSE,997.3803711,0,0.050000001,TRUE,0,0,0,0,0,0,0,0,0,1,1,FALSE,FALSE,FALSE,FALSE,FALSE,FALSE,FALSE,FALSE,FALSE,FALSE,FALSE,FALSE,FALSE,FALSE,FALSE,FALSE,FALSE,FALSE,FALSE,FALSE,FALSE,FALSE,FALSE,FALSE,FALSE,FALSE,FALSE,FALSE,FALSE,FALSE,FALSE,FALSE,FALSE,FALSE,FALSE,FALSE,FALSE,FALSE,FALSE,FALSE,FALSE,FALSE,FALSE,FALSE,TRUE,FALSE,FALSE,FALSE,FALSE,FALSE,FALSE,2.707392216,1.704131961,-2.0940063,1.526941299,TRUE,4,1,TRUE,60,56
1460062,1,1460014830,1460043181,3.833333254,3.943115234,-41.81542969,39.875,997.3008423,0.794212103,36.17265701,56.16998672,1.109465241,56.15999985,-0.137339994,-0.58859998,10.29069042,0.280000001,-0.140000001,0.07,-1.511911392,-0.024883768,-70.14413452,0,1,7,92,23649900,2022,7,24,6,33,51,55,4,899960348,3,1,10,17,1362544754,352941820,130259,95467,1384,1756,32,33,-8,46,13568253,222,4441968,116,,0,,3.833333254,172.7270508,162.6416016,39.875,997.2907715,0,36.17265701,56.16998672,1.225000024,56.15999985,-0.137339994,-0.58859998,10.29069042,0.280000001,-0.140000001,0.07,-1.511911392,-0.024883768,-70.14413452,0,1,7,92,23649900,2022,7,24,6,33,51,55,4,899960348,3,1,10,17,1362544754,352941820,130259,95467,1384,1756,32,33,-8,46,13568253,222,4441968,116,,0,,0,0,0,198,2178,2107,TRUE,TRUE,TRUE,TRUE,TRUE,1,-168.7839355,155.5429535,1,0,1,FALSE,997.3803711,0,0.050000001,TRUE,0,0,0,0,0,0,0,0,0,1,1,FALSE,FALSE,FALSE,FALSE,FALSE,FALSE,FALSE,FALSE,FALSE,FALSE,FALSE,FALSE,FALSE,FALSE,FALSE,FALSE,FALSE,FALSE,FALSE,FALSE,FALSE,FALSE,FALSE,FALSE,FALSE,FALSE,FALSE,FALSE,FALSE,FALSE,FALSE,FALSE,FALSE,FALSE,FALSE,FALSE,FALSE,FALSE,FALSE,FALSE,FALSE,FALSE,FALSE,FALSE,TRUE,FALSE,FALSE,FALSE,FALSE,FALSE,FALSE,2.628732681,1.307485223,-1.739712954,1.606065631,TRUE,4,1,TRUE,60,56
1460123,1,1460014830,1460085179,3.866666555,3.965087891,-41.90332031,39.88000107,997.3088379,0.720463872,36.17265701,56.13336563,1.10948348,56.15999985,0.196199998,-0.362969995,10.12392044,0.839999974,-0.49000001,-0.419999987,-1.426545501,-0.296163917,-70.13693237,0,1,7,92,23650000,2022,7,24,6,33,52,55,4,-39660,3,1,10,17,1362544753,352941820,130254,95461,1383,1756,22,-28,-2,35,13568253,197,4442168,116,,0,,3.866666555,172.7490234,162.5537109,39.88000107,997.328125,0,36.17265701,56.13336563,1.225000024,56.15999985,0.196199998,-0.362969995,10.12392044,0.839999974,-0.49000001,-0.419999987,-1.426545501,-0.296163917,-70.13693237,0,1,7,92,23650000,2022,7,24,6,33,52,55,4,-39660,3,1,10,17,1362544753,352941820,130254,95461,1383,1756,22,-28,-2,35,13568253,197,4442168,116,,0,,0,0,0,199,2177,2110,TRUE,TRUE,TRUE,TRUE,TRUE,1,-168.7839355,155.5429535,1,0,1,FALSE,997.3803711,0,0.050000001,TRUE,0,0,0,0,0,0,0,0,0,1,1,FALSE,FALSE,FALSE,FALSE,FALSE,FALSE,FALSE,FALSE,FALSE,FALSE,FALSE,FALSE,FALSE,FALSE,FALSE,FALSE,FALSE,FALSE,FALSE,FALSE,FALSE,FALSE,FALSE,FALSE,FALSE,FALSE,FALSE,FALSE,FALSE,FALSE,FALSE,FALSE,FALSE,FALSE,FALSE,FALSE,FALSE,FALSE,FALSE,FALSE,FALSE,FALSE,FALSE,FALSE,TRUE,FALSE,FALSE,FALSE,FALSE,FALSE,FALSE,2.640115499,0.760163605,-0.942422152,1.870195746,TRUE,4,1,TRUE,61,56
1460183,1,1460014830,1460169099,3.849999905,3.965087891,-42.16699219,39.88999939,997.3101807,0.709056735,36.14595413,56.17609024,1.109590888,56.15000153,0.078479998,-0.304109991,9.849240303,0.49000001,-0.769999981,-0.209999993,-1.224121332,-0.202280253,-70.13949585,0,1,7,92,23650000,2022,7,24,6,33,52,55,4,-39660,3,1,10,17,1362544753,352941820,130254,95461,1383,1756,22,-28,-2,35,13568253,197,4442168,116,,0,,3.849999905,172.7490234,162.2900391,39.88999939,997.4020996,0,36.14595413,56.17609024,1.225000024,56.15000153,0.078479998,-0.304109991,9.849240303,0.49000001,-0.769999981,-0.209999993,-1.224121332,-0.202280253,-70.13949585,0,1,7,92,23650000,2022,7,24,6,33,52,55,4,-39660,3,1,10,17,1362544753,352941820,130254,95461,1383,1756,22,-28,-2,35,13568253,197,4442168,116,,0,,0,0,0,198,2174,2108,TRUE,TRUE,TRUE,TRUE,TRUE,1,-168.7839355,155.5429535,1,0,1,FALSE,997.3803711,0,0.050000001,TRUE,0,0,0,0,0,0,0,0,0,1,1,FALSE,FALSE,FALSE,FALSE,FALSE,FALSE,FALSE,FALSE,FALSE,FALSE,FALSE,FALSE,FALSE,FALSE,FALSE,FALSE,FALSE,FALSE,FALSE,FALSE,FALSE,FALSE,FALSE,FALSE,FALSE,FALSE,FALSE,FALSE,FALSE,FALSE,FALSE,FALSE,FALSE,FALSE,FALSE,FALSE,FALSE,FALSE,FALSE,FALSE,FALSE,FALSE,FALSE,FALSE,TRUE,FALSE,FALSE,FALSE,FALSE,FALSE,FALSE,2.634292126,-0.116950437,-0.096275508,1.84528625,TRUE,4,1,TRUE,60,56
1460243,1,1460014830,1460211120,3.766666651,3.943115234,-42.32080078,39.88000107,997.3053589,0.748867333,36.18867874,56.15777969,1.10940361,56.15999985,0.176579997,-0.21582,10.10429955,0.419999987,-1.120000005,0.07,-1.242683172,-0.050338876,-70.13885498,0,1,7,92,23650100,2022,7,24,6,33,52,55,4,99960330,3,1,10,17,1362544752,352941819,130240,95447,1383,1755,-40,-51,7,64,13568253,217,4442388,116,,0,,3.766666651,172.7270508,162.1362305,39.88000107,997.3137207,0,36.18867874,56.15777969,1.225000024,56.15999985,0.176579997,-0.21582,10.10429955,0.419999987,-1.120000005,0.07,-1.242683172,-0.050338876,-70.13885498,0,1,7,92,23650100,2022,7,24,6,33,52,55,4,99960330,3,1,10,17,1362544752,352941819,130240,95447,1383,1755,-40,-51,7,64,13568253,217,4442388,116,,0,,0,0,0,199,2176,2110,TRUE,TRUE,TRUE,TRUE,TRUE,1,-168.7839355,155.5429535,1,0,1,FALSE,997.3803711,0,0.050000001,TRUE,0,0,0,0,0,0,0,0,0,1,1,FALSE,FALSE,FALSE,FALSE,FALSE,FALSE,FALSE,FALSE,FALSE,FALSE,FALSE,FALSE,FALSE,FALSE,FALSE,FALSE,FALSE,FALSE,FALSE,FALSE,FALSE,FALSE,FALSE,FALSE,FALSE,FALSE,FALSE,FALSE,FALSE,FALSE,FALSE,FALSE,FALSE,FALSE,FALSE,FALSE,FALSE,FALSE,FALSE,FALSE,FALSE,FALSE,FALSE,FALSE,TRUE,FALSE,FALSE,FALSE,FALSE,FALSE,FALSE,2.605846405,-0.28063494,0.152210534,1.762578249,TRUE,4,1,TRUE,61,56
1460303,1,1460014830,1460295762,3.733333349,4.096923828,-42.16699219,39.90000153,997.3041992,0.760279477,36.21538162,56.09216309,1.109302282,56.15999985,-0.05886,-0.206009999,10.16316032,0.419999987,-1.190000057,-0.140000001,-1.255710959,-0.096029468,-70.13293457,0,1,7,92,23650100,2022,7,24,6,33,52,55,4,99960330,3,1,10,17,1362544752,352941819,130240,95447,1383,1755,-40,-51,7,64,13568253,217,4442388,116,,0,,3.733333349,172.8808594,162.2900391,39.90000153,997.3012695,0,36.21538162,56.09216309,1.225000024,56.15999985,-0.05886,-0.206009999,10.16316032,0.419999987,-1.190000057,-0.140000001,-1.255710959,-0.096029468,-70.13293457,0,1,7,92,23650100,2022,7,24,6,33,52,55,4,99960330,3,1,10,17,1362544752,352941819,130240,95447,1383,1755,-40,-51,7,64,13568253,217,4442388,116,,0,,0,0,0,198,2176,2109,TRUE,TRUE,TRUE,TRUE,TRUE,1,-168.7839355,155.5429535,1,0,1,FALSE,997.3803711,0,0.050000001,TRUE,0,0,0,0,0,0,0,0,0,1,1,FALSE,FALSE,FALSE,FALSE,FALSE,FALSE,FALSE,FALSE,FALSE,FALSE,FALSE,FALSE,FALSE,FALSE,FALSE,FALSE,FALSE,FALSE,FALSE,FALSE,FALSE,FALSE,FALSE,FALSE,FALSE,FALSE,FALSE,FALSE,FALSE,FALSE,FALSE,FALSE,FALSE,FALSE,FALSE,FALSE,FALSE,FALSE,FALSE,FALSE,FALSE,FALSE,FALSE,FALSE,TRUE,FALSE,FALSE,FALSE,FALSE,FALSE,FALSE,2.594408989,0.183614597,-0.308840752,1.561341166,TRUE,4,1,TRUE,60,56
1460363,1,1460014830,1460337705,3.866666555,4.206787109,-42.2109375,39.86000061,997.3047485,0.754468977,36.15930557,56.18982315,1.109522939,56.15000153,-0.480690002,-1.167389989,9.113490105,0.419999987,-1.190000057,0.419999987,-1.482509732,-0.165787697,-70.13519287,0,1,7,92,23650200,2022,7,24,6,33,52,55,4,199960321,3,1,10,17,1362544753,352941820,130264,95472,1382,1755,27,-26,-1,37,13568253,203,4442594,116,,0,,3.866666555,172.9907227,162.2460938,39.86000061,997.3149414,0,36.15930557,56.18982315,1.225000024,56.15000153,-0.480690002,-1.167389989,9.113490105,0.419999987,-1.190000057,0.419999987,-1.482509732,-0.165787697,-70.13519287,0,1,7,92,23650200,2022,7,24,6,33,52,55,4,199960321,3,1,10,17,1362544753,352941820,130264,95472,1382,1755,27,-26,-1,37,13568253,203,4442594,116,,0,,0,0,0,198,2176,2109,TRUE,TRUE,TRUE,TRUE,TRUE,1,-168.7839355,155.5429535,1,0,1,FALSE,997.3803711,0,0.050000001,TRUE,0,0,0,0,0,0,0,0,0,1,1,FALSE,FALSE,FALSE,FALSE,FALSE,FALSE,FALSE,FALSE,FALSE,FALSE,FALSE,FALSE,FALSE,FALSE,FALSE,FALSE,FALSE,FALSE,FALSE,FALSE,FALSE,FALSE,FALSE,FALSE,FALSE,FALSE,FALSE,FALSE,FALSE,FALSE,FALSE,FALSE,FALSE,FALSE,FALSE,FALSE,FALSE,FALSE,FALSE,FALSE,FALSE,FALSE,FALSE,FALSE,TRUE,FALSE,FALSE,FALSE,FALSE,FALSE,FALSE,2.640068531,0.289636195,-0.339667171,1.314105034,TRUE,4,1,TRUE,60,56
1460423,1,1460014830,1460421455,3.916666746,3.899169922,-42.18896484,39.88000107,997.3118286,0.691967666,36.11390686,56.18371964,1.10973084,56.15999985,-0.519930005,-0.804419994,9.564749718,0.560000002,-0.910000026,-0.349999994,-1.813484192,-0.045581486,-70.14178467,0,1,7,92,23650300,2022,7,24,6,33,52,55,4,299960313,3,1,10,17,1362544755,352941819,130282,95489,1381,1754,-7,37,-2,38,13568253,190,4442786,116,,0,,3.916666746,172.6831055,162.2680664,39.88000107,997.402832,0,36.11390686,56.18371964,1.225000024,56.15999985,-0.519930005,-0.804419994,9.564749718,0.560000002,-0.910000026,-0.349999994,-1.813484192,-0.045581486,-70.14178467,0,1,7,92,23650300,2022,7,24,6,33,52,55,4,299960313,3,1,10,17,1362544755,352941819,130282,95489,1381,1754,-7,37,-2,38,13568253,190,4442786,116,,0,,0,0,0,199,2175,2109,TRUE,TRUE,TRUE,TRUE,TRUE,1,-168.7839355,155.5429535,1,0,1,FALSE,997.3803711,0,0.050000001,TRUE,0,0,0,0,0,0,0,0,0,1,1,FALSE,FALSE,FALSE,FALSE,FALSE,FALSE,FALSE,FALSE,FALSE,FALSE,FALSE,FALSE,FALSE,FALSE,FALSE,FALSE,FALSE,FALSE,FALSE,FALSE,FALSE,FALSE,FALSE,FALSE,FALSE,FALSE,FALSE,FALSE,FALSE,FALSE,FALSE,FALSE,FALSE,FALSE,FALSE,FALSE,FALSE,FALSE,FALSE,FALSE,FALSE,FALSE,FALSE,FALSE,TRUE,FALSE,FALSE,FALSE,FALSE,FALSE,FALSE,2.656834364,0.908204138,-0.902473032,1.750215888,TRUE,4,1,TRUE,60,56
1460483,1,1460014830,1460463377,4.083333492,4.074951172,-42.10107422,39.84500122,997.3126831,0.68649137,36.20203018,56.24322891,1.109330773,56.15999985,0.333539993,-0.539550006,10.28087997,-0.07,-0.980000019,0.140000001,-1.632241726,-0.381445318,-70.13500977,0,1,7,92,23650300,2022,7,24,6,33,52,55,4,299960313,3,1,10,17,1362544755,352941819,130282,95489,1381,1754,-7,37,-2,38,13568253,190,4442786,116,,0,,4.083333492,172.8588867,162.355957,39.84500122,997.2741699,0,36.20203018,56.24322891,1.225000024,56.15999985,0.333539993,-0.539550006,10.28087997,-0.07,-0.980000019,0.140000001,-1.632241726,-0.381445318,-70.13500977,0,1,7,92,23650300,2022,7,24,6,33,52,55,4,299960313,3,1,10,17,1362544755,352941819,130282,95489,1381,1754,-7,37,-2,38,13568253,190,4442786,116,,0,,0,0,0,199,2175,2110,TRUE,TRUE,TRUE,TRUE,TRUE,1,-168.7839355,155.5429535,1,0,1,FALSE,997.3803711,0,0.050000001,TRUE,0,0,0,0,0,0,0,0,0,1,1,FALSE,FALSE,FALSE,FALSE,FALSE,FALSE,FALSE,FALSE,FALSE,FALSE,FALSE,FALSE,FALSE,FALSE,FALSE,FALSE,FALSE,FALSE,FALSE,FALSE,FALSE,FALSE,FALSE,FALSE,FALSE,FALSE,FALSE,FALSE,FALSE,FALSE,FALSE,FALSE,FALSE,FALSE,FALSE,FALSE,FALSE,FALSE,FALSE,FALSE,FALSE,FALSE,FALSE,FALSE,TRUE,FALSE,FALSE,FALSE,FALSE,FALSE,FALSE,2.713263035,0.602480054,-0.569140732,1.572043061,TRUE,4,1,TRUE,61,56
