# Time (s), Longitude (deg), Latitude (deg), Altitude (m), Ground Speed N (m/s), Ground Speed E (m/s), Ground Speed D (m/s), Yaw (deg), Pitch (deg), Roll (deg)
23647.666,136.2544519,35.2941749,130.631,0.01,0,-0.02,0.61,-1.39,0.31
23647.676,136.2544519,35.2941749,130.631,0.01,0,-0.02,0.61,-1.39,0.31
23647.687,136.254452,35.2941748,130.574,0.01,0,-0.02,0.61,-1.4,0.3
23647.699,136.254452,35.2941748,130.574,-0.02,0.02,-0.01,0.61,-1.4,0.3
23647.707,136.254452,35.2941748,130.574,-0.02,0.02,-0.01,0.61,-1.4,0.3
23647.717,136.254452,35.2941748,130.574,-0.02,0.02,-0.01,0.61,-1.4,0.31
23647.729,136.254452,35.2941748,130.574,-0.02,0.02,-0.01,0.61,-1.4,0.31
23647.737,136.254452,35.2941748,130.574,-0.02,0.02,-0.01,0.61,-1.4,0.31
23647.746,136.254452,35.2941748,130.574,-0.02,0.02,-0.01,0.61,-1.39,0.31
23647.759,136.254452,35.2941748,130.574,-0.02,0.02,-0.01,0.61,-1.39,0.3
23647.767,136.254452,35.2941748,130.574,-0.02,0.02,-0.01,0.61,-1.38,0.3
23647.777,136.254452,35.2941748,130.574,-0.02,0.02,-0.01,0.61,-1.38,0.3
23647.786,136.254452,35.2941748,130.574,-0.02,0.02,-0.01,0.61,-1.37,0.3
23647.796,136.254452,35.2941748,130.574,-0.02,0.02,-0.01,0.61,-1.37,0.29
23647.806,136.254452,35.2941748,130.574,-0.02,0.02,-0.01,0.61,-1.36,0.29
23647.816,136.254452,35.2941748,130.574,-0.02,0.02,-0.01,0.62,-1.36,0.29
23647.826,136.254452,35.2941748,130.574,-0.02,0.02,-0.01,0.62,-1.36,0.28
23647.836,136.254452,35.2941748,130.574,-0.02,0.02,-0.01,0.62,-1.36,0.28
23647.846,136.254452,35.2941748,130.574,-0.02,0.02,-0.01,0.62,-1.36,0.27
23647.856,136.254452,35.2941748,130.574,-0.02,0.02,-0.01,0.62,-1.36,0.27
23647.866,136.254452,35.2941748,130.574,-0.02,0.02,-0.01,0.62,-1.36,0.26
23647.876,136.254452,35.2941748,130.574,-0.02,0.02,-0.01,0.62,-1.36,0.26
23647.887,136.2544517,35.2941747,130.591,-0.02,0.02,-0.01,0.62,-1.37,0.26
23647.897,136.2544517,35.2941747,130.591,0.02,0.02,0,0.62,-1.37,0.25
23647.909,136.2544517,35.2941747,130.591,0.02,0.02,0,0.62,-1.38,0.25
23647.917,136.2544517,35.2941747,130.591,0.02,0.02,0,0.62,-1.39,0.25
23647.927,136.2544517,35.2941747,130.591,0.02,0.02,0,0.62,-1.39,0.25
23647.939,136.2544517,35.2941747,130.591,0.02,0.02,0,0.62,-1.4,0.25
23647.947,136.2544517,35.2941747,130.591,0.02,0.02,0,0.62,-1.4,0.24
23647.957,136.2544517,35.2941747,130.591,0.02,0.02,0,0.62,-1.4,0.24
23647.968,136.2544517,35.2941747,130.591,0.02,0.02,0,0.62,-1.41,0.23
23647.976,136.2544517,35.2941747,130.591,0.02,0.02,0,0.62,-1.42,0.23
23647.986,136.2544517,35.2941747,130.591,0.02,0.02,0,0.62,-1.42,0.22
23647.996,136.2544517,35.2941747,130.591,0.02,0.02,0,0.62,-1.43,0.22
23648.006,136.2544517,35.2941747,130.591,0.02,0.02,0,0.62,-1.44,0.22
23648.016,136.2544517,35.2941747,130.591,0.02,0.02,0,0.62,-1.45,0.21
23648.026,136.2544517,35.2941747,130.591,0.02,0.02,0,0.62,-1.46,0.21
23648.036,136.2544517,35.2941747,130.591,0.02,0.02,0,0.62,-1.46,0.21
23648.046,136.2544517,35.2941747,130.591,0.02,0.02,0,0.62,-1.47,0.2
23648.056,136.2544517,35.2941747,130.591,0.02,0.02,0,0.62,-1.47,0.2
23648.066,136.2544517,35.2941747,130.591,0.02,0.02,0,0.62,-1.48,0.19
23648.076,136.2544517,35.2941747,130.591,0.02,0.02,0,0.62,-1.48,0.18
23648.087,136.2544513,35.2941745,130.602,-0.03,0.02,0,0.62,-1.49,0.18
23648.097,136.2544513,35.2941745,130.602,-0.03,-0.01,0,0.62,-1.49,0.17
23648.107,136.2544513,35.2941745,130.602,-0.03,-0.01,0,0.62,-1.5,0.17
23648.117,136.2544513,35.2941745,130.602,-0.03,-0.01,0,0.62,-1.5,0.16
23648.127,136.2544513,35.2941745,130.602,-0.03,-0.01,0,0.62,-1.5,0.16
23648.137,136.2544513,35.2941745,130.602,-0.03,-0.01,0,0.62,-1.5,0.15
23648.147,136.2544513,35.2941745,130.602,-0.03,-0.01,0,0.62,-1.5,0.15
23648.157,136.2544513,35.2941745,130.602,-0.03,-0.01,0,0.62,-1.49,0.14
23648.166,136.2544513,35.2941745,130.602,-0.03,-0.01,0,0.62,-1.49,0.14
23648.176,136.2544513,35.2941745,130.602,-0.03,-0.01,0,0.62,-1.49,0.13
23648.186,136.2544513,35.2941745,130.602,-0.03,-0.01,0,0.62,-1.49,0.13
23648.196,136.2544513,35.2941745,130.602,-0.03,-0.01,0,0.62,-1.49,0.13
23648.206,136.2544513,35.2941745,130.602,-0.03,-0.01,0,0.62,-1.48,0.12
23648.216,136.2544513,35.2941745,130.602,-0.03,-0.01,0,0.62,-1.47,0.12
23648.226,136.2544513,35.2941745,130.602,-0.03,-0.01,0,0.62,-1.46,0.11
23648.236,136.2544513,35.2941745,130.602,-0.03,-0.01,0,0.62,-1.45,0.11
23648.246,136.2544513,35.2941745,130.602,-0.03,-0.01,0,0.62,-1.43,0.1
23648.256,136.2544513,35.2941745,130.602,-0.03,-0.01,0,0.61,-1.42,0.1
23648.266,136.2544513,35.2941745,130.602,-0.03,-0.01,0,0.61,-1.41,0.1
23648.276,136.2544513,35.2941745,130.602,-0.03,-0.01,0,0.61,-1.4,0.09
23648.287,136.2544512,35.2941745,130.598,0.01,0,-0.01,0.61,-1.38,0.08
23648.299,136.2544512,35.2941745,130.598,0.01,0,-0.01,0.61,-1.37,0.08
23648.307,136.2544512,35.2941745,130.598,0.01,0,-0.01,0.61,-1.36,0.07
23648.316,136.2544512,35.2941745,130.598,0.01,0,-0.01,0.61,-1.35,0.07
23648.329,136.2544512,35.2941745,130.598,0.01,0,-0.01,0.61,-1.34,0.06
23648.337,136.2544512,35.2941745,130.598,0.01,0,-0.01,0.61,-1.34,0.06
23648.347,136.2544512,35.2941745,130.598,0.01,0,-0.01,0.61,-1.33,0.06
23648.359,136.2544512,35.2941745,130.598,0.01,0,-0.01,0.61,-1.32,0.06
23648.367,136.2544512,35.2941745,130.598,0.01,0,-0.01,0.61,-1.32,0.06
23648.376,136.2544512,35.2941745,130.598,0.01,0,-0.01,0.61,-1.31,0.06
23648.386,136.2544512,35.2941745,130.598,0.01,0,-0.01,0.61,-1.31,0.06
23648.397,136.2544512,35.2941745,130.598,0.01,0,-0.01,0.6,-1.3,0.05
23648.406,136.2544512,35.2941745,130.598,0.01,0,-0.01,0.6,-1.3,0.05
23648.416,136.2544512,35.2941745,130.598,0.01,0,-0.01,0.6,-1.3,0.05
23648.426,136.2544512,35.2941745,130.598,0.01,0,-0.01,0.6,-1.3,0.05
23648.436,136.2544512,35.2941745,130.598,0.01,0,-0.01,0.59,-1.3,0.04
23648.446,136.2544512,35.2941745,130.598,0.01,0,-0.01,0.59,-1.3,0.04
23648.456,136.2544512,35.2941745,130.598,0.01,0,-0.01,0.59,-1.3,0.03
23648.466,136.2544512,35.2941745,130.598,0.01,0,-0.01,0.59,-1.31,0.03
23648.476,136.2544512,35.2941745,130.598,0.01,0,-0.01,0.59,-1.31,0.02
23648.487,136.2544511,35.2941744,130.608,0.01,0,-0.01,0.59,-1.31,0.02
23648.499,136.2544511,35.2941744,130.608,0.03,0.01,-0.02,0.59,-1.31,0.02
23648.507,136.2544511,35.2941744,130.608,0.03,0.01,-0.02,0.59,-1.31,0.01
23648.517,136.2544511,35.2941744,130.608,0.03,0.01,-0.02,0.59,-1.31,0.01
23648.529,136.2544511,35.2941744,130.608,0.03,0.01,-0.02,0.59,-1.3,0.01
23648.537,136.2544511,35.2941744,130.608,0.03,0.01,-0.02,0.59,-1.3,0.01
23648.547,136.2544511,35.2941744,130.608,0.03,0.01,-0.02,0.59,-1.3,0
23648.557,136.2544511,35.2941744,130.608,0.03,0.01,-0.02,0.59,-1.3,0
23648.567,136.2544511,35.2941744,130.608,0.03,0.01,-0.02,0.59,-1.3,0
23648.576,136.2544511,35.2941744,130.608,0.03,0.01,-0.02,0.59,-1.29,0
23648.586,136.2544511,35.2941744,130.608,0.03,0.01,-0.02,0.58,-1.29,0.01
23648.596,136.2544511,35.2941744,130.608,0.03,0.01,-0.02,0.58,-1.29,0.01
23648.606,136.2544511,35.2941744,130.608,0.03,0.01,-0.02,0.58,-1.29,0.01
23648.616,136.2544511,35.2941744,130.608,0.03,0.01,-0.02,0.58,-1.29,0.02
23648.626,136.2544511,35.2941744,130.608,0.03,0.01,-0.02,0.57,-1.28,0.02
23648.636,136.2544511,35.2941744,130.608,0.03,0.01,-0.02,0.57,-1.28,0.03
23648.646,136.2544511,35.2941744,130.608,0.03,0.01,-0.02,0.57,-1.28,0.03
23648.656,136.2544511,35.2941744,130.608,0.03,0.01,-0.02,0.56,-1.28,0.04
23648.666,136.2544511,35.2941744,130.608,0.03,0.01,-0.02,0.56,-1.28,0.04
23648.676,136.2544511,35.2941744,130.608,0.03,0.01,-0.02,0.56,-1.28,0.04
23648.687,136.2544511,35.2941744,130.608,0.03,0.01,-0.02,0.56,-1.28,0.05
23648.697,136.2544511,35.2941744,130.608,0.03,0.01,-0.02,0.55,-1.28,0.05
23648.707,136.2544509,35.2941744,130.64,0.03,0.01,-0.02,0.55,-1.28,0.05
23648.719,136.2544509,35.2941744,130.64,0.03,0.02,-0.03,0.55,-1.28,0.05
23648.727,136.2544509,35.2941744,130.64,0.03,0.02,-0.03,0.55,-1.28,0.05
23648.737,136.2544509,35.2941744,130.64,0.03,0.02,-0.03,0.54,-1.28,0.05
23648.749,136.2544509,35.2941744,130.64,0.03,0.02,-0.03,0.54,-1.29,0.05
23648.757,136.2544509,35.2941744,130.64,0.03,0.02,-0.03,0.54,-1.28,0.05
23648.767,136.2544509,35.2941744,130.64,0.03,0.02,-0.03,0.54,-1.28,0.05
23648.777,136.2544509,35.2941744,130.64,0.03,0.02,-0.03,0.54,-1.28,0.05
23648.787,136.2544509,35.2941744,130.64,0.03,0.02,-0.03,0.54,-1.28,0.05
23648.797,136.2544509,35.2941744,130.64,0.03,0.02,-0.03,0.54,-1.29,0.05
23648.807,136.2544509,35.2941744,130.64,0.03,0.02,-0.03,0.54,-1.29,0.05
23648.816,136.2544509,35.2941744,130.64,0.03,0.02,-0.03,0.54,-1.3,0.05
23648.826,136.2544509,35.2941744,130.64,0.03,0.02,-0.03,0.53,-1.31,0.05
23648.836,136.2544509,35.2941744,130.64,0.03,0.02,-0.03,0.53,-1.32,0.05
23648.846,136.2544509,35.2941744,130.64,0.03,0.02,-0.03,0.53,-1.33,0.05
23648.856,136.2544509,35.2941744,130.64,0.03,0.02,-0.03,0.53,-1.34,0.05
23648.866,136.2544509,35.2941744,130.64,0.03,0.02,-0.03,0.52,-1.35,0.05
23648.876,136.2544509,35.2941744,130.64,0.03,0.02,-0.03,0.52,-1.35,0.05
23648.887,136.2544508,35.2941743,130.643,0.03,0.02,-0.03,0.52,-1.36,0.05
23648.899,136.2544508,35.2941743,130.643,0.02,-0.02,-0.02,0.52,-1.36,0.05
23648.907,136.2544508,35.2941743,130.643,0.02,-0.02,-0.02,0.52,-1.37,0.05
23648.916,136.2544508,35.2941743,130.643,0.02,-0.02,-0.02,0.51,-1.38,0.05
23648.929,136.2544508,35.2941743,130.643,0.02,-0.02,-0.02,0.51,-1.39,0.05
23648.937,136.2544508,35.2941743,130.643,0.02,-0.02,-0.02,0.51,-1.39,0.05
23648.947,136.2544508,35.2941743,130.643,0.02,-0.02,-0.02,0.51,-1.4,0.05
23648.959,136.2544508,35.2941743,130.643,0.02,-0.02,-0.02,0.51,-1.41,0.05
23648.967,136.2544508,35.2941743,130.643,0.02,-0.02,-0.02,0.51,-1.42,0.05
23648.976,136.2544508,35.2941743,130.643,0.02,-0.02,-0.02,0.51,-1.43,0.05
23648.986,136.2544508,35.2941743,130.643,0.02,-0.02,-0.02,0.5,-1.43,0.05
23648.996,136.2544508,35.2941743,130.643,0.02,-0.02,-0.02,0.5,-1.43,0.06
23649.006,136.2544508,35.2941743,130.643,0.02,-0.02,-0.02,0.5,-1.44,0.06
23649.016,136.2544508,35.2941743,130.643,0.02,-0.02,-0.02,0.5,-1.44,0.06
23649.026,136.2544508,35.2941743,130.643,0.02,-0.02,-0.02,0.49,-1.44,0.07
23649.036,136.2544508,35.2941743,130.643,0.02,-0.02,-0.02,0.49,-1.45,0.07
23649.046,136.2544508,35.2941743,130.643,0.02,-0.02,-0.02,0.49,-1.45,0.06
23649.056,136.2544508,35.2941743,130.643,0.02,-0.02,-0.02,0.49,-1.45,0.06
23649.066,136.2544508,35.2941743,130.643,0.02,-0.02,-0.02,0.49,-1.45,0.06
23649.076,136.2544508,35.2941743,130.643,0.02,-0.02,-0.02,0.48,-1.46,0.06
23649.089,136.2544509,35.2941743,130.618,0.05,-0.01,-0.03,0.48,-1.46,0.06
23649.097,136.2544509,35.2941743,130.618,0.05,-0.01,-0.03,0.48,-1.46,0.06
23649.106,136.2544509,35.2941743,130.618,0.05,-0.01,-0.03,0.48,-1.46,0.06
23649.119,136.2544509,35.2941743,130.618,0.05,-0.01,-0.03,0.48,-1.46,0.05
23649.127,136.2544509,35.2941743,130.618,0.05,-0.01,-0.03,0.48,-1.46,0.05
23649.137,136.2544509,35.2941743,130.618,0.05,-0.01,-0.03,0.48,-1.46,0.05
23649.149,136.2544509,35.2941743,130.618,0.05,-0.01,-0.03,0.48,-1.47,0.05
23649.157,136.2544509,35.2941743,130.618,0.05,-0.01,-0.03,0.48,-1.47,0.05
23649.168,136.2544509,35.2941743,130.618,0.05,-0.01,-0.03,0.47,-1.47,0.05
23649.176,136.2544509,35.2941743,130.618,0.05,-0.01,-0.03,0.47,-1.47,0.05
23649.186,136.2544509,35.2941743,130.618,0.05,-0.01,-0.03,0.47,-1.48,0.04
23649.196,136.2544509,35.2941743,130.618,0.05,-0.01,-0.03,0.47,-1.48,0.04
23649.206,136.2544509,35.2941743,130.618,0.05,-0.01,-0.03,0.47,-1.48,0.04
23649.216,136.2544509,35.2941743,130.618,0.05,-0.01,-0.03,0.46,-1.48,0.04
23649.226,136.2544509,35.2941743,130.618,0.05,-0.01,-0.03,0.46,-1.48,0.03
23649.236,136.2544509,35.2941743,130.618,0.05,-0.01,-0.03,0.46,-1.48,0.03
23649.246,136.2544509,35.2941743,130.618,0.05,-0.01,-0.03,0.46,-1.48,0.02
23649.256,136.2544509,35.2941743,130.618,0.05,-0.01,-0.03,0.46,-1.48,0.01
23649.266,136.2544509,35.2941743,130.618,0.05,-0.01,-0.03,0.46,-1.48,0.01
23649.276,136.2544509,35.2941743,130.618,0.05,-0.01,-0.03,0.46,-1.47,0.01
23649.287,136.2544509,35.2941742,130.618,0.05,-0.01,-0.03,0.45,-1.47,0.01
23649.299,136.2544509,35.2941742,130.618,0.03,0.01,-0.04,0.45,-1.47,0.01
23649.307,136.2544509,35.2941742,130.618,0.03,0.01,-0.04,0.45,-1.48,0.01
23649.319,136.2544509,35.2941742,130.618,0.03,0.01,-0.04,0.45,-1.48,0.02
23649.327,136.2544509,35.2941742,130.618,0.03,0.01,-0.04,0.45,-1.48,0.02
23649.337,136.2544509,35.2941742,130.618,0.03,0.01,-0.04,0.45,-1.48,0.01
23649.347,136.2544509,35.2941742,130.618,0.03,0.01,-0.04,0.45,-1.48,0.01
23649.357,136.2544509,35.2941742,130.618,0.03,0.01,-0.04,0.45,-1.48,0.01
23649.367,136.2544509,35.2941742,130.618,0.03,0.01,-0.04,0.45,-1.48,0
23649.376,136.2544509,35.2941742,130.618,0.03,0.01,-0.04,0.45,-1.49,0
23649.386,136.2544509,35.2941742,130.618,0.03,0.01,-0.04,0.45,-1.49,0
23649.397,136.2544509,35.2941742,130.618,0.03,0.01,-0.04,0.45,-1.5,0
23649.406,136.2544509,35.2941742,130.618,0.03,0.01,-0.04,0.45,-1.51,-0.01
23649.416,136.2544509,35.2941742,130.618,0.03,0.01,-0.04,0.45,-1.52,-0.01
23649.426,136.2544509,35.2941742,130.618,0.03,0.01,-0.04,0.45,-1.53,-0.01
23649.436,136.2544509,35.2941742,130.618,0.03,0.01,-0.04,0.45,-1.54,0
23649.446,136.2544509,35.2941742,130.618,0.03,0.01,-0.04,0.45,-1.56,0
23649.456,136.2544509,35.2941742,130.618,0.03,0.01,-0.04,0.45,-1.57,0
23649.466,136.2544509,35.2941742,130.618,0.03,0.01,-0.04,0.45,-1.58,0
23649.477,136.2544509,35.2941742,130.618,0.03,0.01,-0.04,0.45,-1.59,0
23649.487,136.2544508,35.294174,130.611,-0.01,0.01,-0.04,0.44,-1.6,0
23649.499,136.2544508,35.294174,130.611,-0.01,0.01,-0.04,0.44,-1.61,0
23649.507,136.2544508,35.294174,130.611,-0.01,0.01,-0.04,0.44,-1.61,0
23649.517,136.2544508,35.294174,130.611,-0.01,0.01,-0.04,0.44,-1.62,0
23649.527,136.2544508,35.294174,130.611,-0.01,0.01,-0.04,0.44,-1.63,0
23649.537,136.2544508,35.294174,130.611,-0.01,0.01,-0.04,0.44,-1.64,0
23649.547,136.2544508,35.294174,130.611,-0.01,0.01,-0.04,0.43,-1.65,0
23649.557,136.2544508,35.294174,130.611,-0.01,0.01,-0.04,0.43,-1.66,0
23649.566,136.2544508,35.294174,130.611,-0.01,0.01,-0.04,0.43,-1.67,0.01
23649.576,136.2544508,35.294174,130.611,-0.01,0.01,-0.04,0.43,-1.68,0.01
23649.586,136.2544508,35.294174,130.611,-0.01,0.01,-0.04,0.43,-1.68,0.01
23649.596,136.2544508,35.294174,130.611,-0.01,0.01,-0.04,0.43,-1.68,0.01
23649.606,136.2544508,35.294174,130.611,-0.01,0.01,-0.04,0.43,-1.68,0.01
23649.616,136.2544508,35.294174,130.611,-0.01,0.01,-0.04,0.43,-1.69,0.01
23649.626,136.2544508,35.294174,130.611,-0.01,0.01,-0.04,0.43,-1.69,0.01
23649.636,136.2544508,35.294174,130.611,-0.01,0.01,-0.04,0.43,-1.69,0.01
23649.646,136.2544508,35.294174,130.611,-0.01,0.01,-0.04,0.44,-1.7,0.01
23649.656,136.2544508,35.294174,130.611,-0.01,0.01,-0.04,0.44,-1.7,0.01
23649.666,136.2544508,35.294174,130.611,-0.01,0.01,-0.04,0.44,-1.7,0
23649.677,136.2544508,35.294174,130.611,-0.01,0.01,-0.04,0.44,-1.69,0
23649.688,136.2544512,35.294174,130.587,-0.02,0.04,-0.01,0.44,-1.69,0.01
23649.699,136.2544512,35.294174,130.587,-0.02,0.04,-0.01,0.44,-1.68,0.01
23649.707,136.2544512,35.294174,130.587,-0.02,0.04,-0.01,0.43,-1.67,0.01
23649.716,136.2544512,35.294174,130.587,-0.02,0.04,-0.01,0.43,-1.66,0.01
23649.729,136.2544512,35.294174,130.587,-0.02,0.04,-0.01,0.43,-1.65,0.02
23649.737,136.2544512,35.294174,130.587,-0.02,0.04,-0.01,0.43,-1.64,0.02
23649.747,136.2544512,35.294174,130.587,-0.02,0.04,-0.01,0.43,-1.63,0.03
23649.759,136.2544512,35.294174,130.587,-0.02,0.04,-0.01,0.42,-1.62,0.03
23649.767,136.2544512,35.294174,130.587,-0.02,0.04,-0.01,0.42,-1.61,0.04
23649.776,136.2544512,35.294174,130.587,-0.02,0.04,-0.01,0.42,-1.6,0.04
23649.786,136.2544512,35.294174,130.587,-0.02,0.04,-0.01,0.42,-1.59,0.04
23649.796,136.2544512,35.294174,130.587,-0.02,0.04,-0.01,0.42,-1.58,0.04
23649.806,136.2544512,35.294174,130.587,-0.02,0.04,-0.01,0.42,-1.56,0.03
23649.817,136.2544512,35.294174,130.587,-0.02,0.04,-0.01,0.41,-1.55,0.03
23649.829,136.2544512,35.294174,130.587,-0.02,0.04,-0.01,0.41,-1.54,0.03
23649.836,136.2544512,35.294174,130.587,-0.02,0.04,-0.01,0.41,-1.53,0.03
23649.846,136.2544512,35.294174,130.587,-0.02,0.04,-0.01,0.41,-1.52,0.02
23649.856,136.2544512,35.294174,130.587,-0.02,0.04,-0.01,0.41,-1.51,0.02
23649.866,136.2544512,35.294174,130.587,-0.02,0.04,-0.01,0.41,-1.5,0.01
23649.876,136.2544512,35.294174,130.587,-0.02,0.04,-0.01,0.41,-1.49,0.01
23649.887,136.2544513,35.2941738,130.544,-0.02,0.01,0,0.41,-1.48,0
23649.897,136.2544513,35.2941738,130.544,-0.02,0.01,0,0.41,-1.48,0
23649.907,136.2544513,35.2941738,130.544,-0.02,0.01,0,0.41,-1.47,0
23649.917,136.2544513,35.2941738,130.544,-0.02,0.01,0,0.41,-1.46,0
23649.927,136.2544513,35.2941738,130.544,-0.02,0.01,0,0.41,-1.45,0
23649.937,136.2544513,35.2941738,130.544,-0.02,0.01,0,0.41,-1.44,0
23649.947,136.2544513,35.2941738,130.544,-0.02,0.01,0,0.4,-1.43,0
23649.959,136.2544513,35.2941738,130.544,-0.02,0.01,0,0.4,-1.43,0.01
23649.966,136.2544513,35.2941738,130.544,-0.02,0.01,0,0.4,-1.42,0.01
23649.976,136.2544513,35.2941738,130.544,-0.02,0.01,0,0.39,-1.42,0.01
23649.986,136.2544513,35.2941738,130.544,-0.02,0.01,0,0.39,-1.42,0.01
23649.996,136.2544513,35.2941738,130.544,-0.02,0.01,0,0.38,-1.42,0.01
23650.006,136.2544513,35.2941738,130.544,-0.02,0.01,0,0.38,-1.42,0
23650.016,136.2544513,35.2941738,130.544,-0.02,0.01,0,0.38,-1.42,0
23650.026,136.2544513,35.2941738,130.544,-0.02,0.01,0,0.37,-1.42,0
23650.036,136.2544513,35.2941738,130.544,-0.02,0.01,0,0.37,-1.42,0
23650.046,136.2544513,35.2941738,130.544,-0.02,0.01,0,0.37,-1.42,0
23650.056,136.2544513,35.2941738,130.544,-0.02,0.01,0,0.37,-1.42,0
23650.066,136.2544513,35.2941738,130.544,-0.02,0.01,0,0.37,-1.42,0
23650.077,136.2544513,35.2941738,130.544,-0.02,0.01,0,0.37,-1.42,0
23650.087,136.2544515,35.2941737,130.518,-0.02,0.01,0.01,0.36,-1.42,0
23650.098,136.2544515,35.2941737,130.518,-0.02,0.01,0.01,0.36,-1.42,0
23650.109,136.2544515,35.2941737,130.518,-0.02,0.01,0.01,0.36,-1.42,0
23650.117,136.2544515,35.2941737,130.518,-0.02,0.01,0.01,0.36,-1.42,0
23650.127,136.2544515,35.2941737,130.518,-0.02,0.01,0.01,0.36,-1.41,0
23650.139,136.2544515,35.2941737,130.518,-0.02,0.01,0.01,0.36,-1.41,-0.01
23650.147,136.2544515,35.2941737,130.518,-0.02,0.01,0.01,0.35,-1.41,-0.01
23650.158,136.2544515,35.2941737,130.518,-0.02,0.01,0.01,0.35,-1.41,-0.01
23650.166,136.2544515,35.2941737,130.518,-0.02,0.01,0.01,0.35,-1.4,-0.01
23650.176,136.2544515,35.2941737,130.518,-0.02,0.01,0.01,0.34,-1.4,-0.01
23650.186,136.2544515,35.2941737,130.518,-0.02,0.01,0.01,0.34,-1.4,-0.01
23650.196,136.2544515,35.2941737,130.518,-0.02,0.01,0.01,0.33,-1.4,-0.01
23650.206,136.2544515,35.2941737,130.518,-0.02,0.01,0.01,0.33,-1.4,-0.01
23650.216,136.2544515,35.2941737,130.518,-0.02,0.01,0.01,0.32,-1.4,-0.01
23650.226,136.2544515,35.2941737,130.518,-0.02,0.01,0.01,0.32,-1.4,-0.02
23650.236,136.2544515,35.2941737,130.518,-0.02,0.01,0.01,0.32,-1.4,-0.02
23650.246,136.2544515,35.2941737,130.518,-0.02,0.01,0.01,0.31,-1.4,-0.03
23650.256,136.2544515,35.2941737,130.518,-0.02,0.01,0.01,0.31,-1.39,-0.03
23650.266,136.2544515,35.2941737,130.518,-0.02,0.01,0.01,0.31,-1.39,-0.04
23650.277,136.2544515,35.2941737,130.518,-0.02,0.01,0.01,0.31,-1.38,-0.05
23650.287,136.2544517,35.2941736,130.51,-0.02,-0.02,0.01,0.3,-1.38,-0.06
23650.299,136.2544517,35.2941736,130.51,-0.02,-0.02,0.01,0.3,-1.38,-0.07
23650.307,136.2544517,35.2941736,130.51,-0.02,-0.02,0.01,0.3,-1.38,-0.08
23650.317,136.2544517,35.2941736,130.51,-0.02,-0.02,0.01,0.3,-1.38,-0.09
23650.329,136.2544517,35.2941736,130.51,-0.02,-0.02,0.01,0.3,-1.38,-0.09
23650.337,136.2544517,35.2941736,130.51,-0.02,-0.02,0.01,0.29,-1.38,-0.1
23650.349,136.2544517,35.2941736,130.51,-0.02,-0.02,0.01,0.29,-1.38,-0.1
23650.357,136.2544517,35.2941736,130.51,-0.02,-0.02,0.01,0.29,-1.38,-0.11
23650.366,136.2544517,35.2941736,130.51,-0.02,-0.02,0.01,0.28,-1.39,-0.11
23650.376,136.2544517,35.2941736,130.51,-0.02,-0.02,0.01,0.28,-1.39,-0.12
23650.386,136.2544517,35.2941736,130.51,-0.02,-0.02,0.01,0.27,-1.4,-0.12
23650.397,136.2544517,35.2941736,130.51,-0.02,-0.02,0.01,0.27,-1.41,-0.13
23650.406,136.2544517,35.2941736,130.51,-0.02,-0.02,0.01,0.27,-1.41,-0.14
23650.416,136.2544517,35.2941736,130.51,-0.02,-0.02,0.01,0.26,-1.42,-0.14
23650.426,136.2544517,35.2941736,130.51,-0.02,-0.02,0.01,0.26,-1.43,-0.14
23650.436,136.2544517,35.2941736,130.51,-0.02,-0.02,0.01,0.25,-1.43,-0.15
23650.446,136.2544517,35.2941736,130.51,-0.02,-0.02,0.01,0.25,-1.44,-0.15
23650.456,136.2544517,35.2941736,130.51,-0.02,-0.02,0.01,0.25,-1.44,-0.16
23650.466,136.2544517,35.2941736,130.51,-0.02,-0.02,0.01,0.25,-1.45,-0.16
23650.477,136.2544517,35.2941736,130.51,-0.02,-0.02,0.01,0.24,-1.45,-0.17
23650.489,136.2544518,35.2941735,130.498,-0.02,-0.02,0.01,0.24,-1.46,-0.18
23650.497,136.2544518,35.2941735,130.498,0.03,0,0.01,0.24,-1.47,-0.19
23650.507,136.2544518,35.2941735,130.498,0.03,0,0.01,0.24,-1.47,-0.2
23650.517,136.2544518,35.2941735,130.498,0.03,0,0.01,0.24,-1.48,-0.2
23650.527,136.2544518,35.2941735,130.498,0.03,0,0.01,0.23,-1.48,-0.2
23650.537,136.2544518,35.2941735,130.498,0.03,0,0.01,0.23,-1.49,-0.21
23650.547,136.2544518,35.2941735,130.498,0.03,0,0.01,0.23,-1.5,-0.21
23650.557,136.2544518,35.2941735,130.498,0.03,0,0.01,0.22,-1.51,-0.22
23650.567,136.2544518,35.2941735,130.498,0.03,0,0.01,0.22,-1.51,-0.22
23650.578,136.2544518,35.2941735,130.498,0.03,0,0.01,0.21,-1.52,-0.22
23650.586,136.2544518,35.2941735,130.498,0.03,0,0.01,0.21,-1.53,-0.23
23650.596,136.2544518,35.2941735,130.498,0.03,0,0.01,0.2,-1.54,-0.23
23650.606,136.2544518,35.2941735,130.498,0.03,0,0.01,0.2,-1.53,-0.23
23650.616,136.2544518,35.2941735,130.498,0.03,0,0.01,0.2,-1.53,-0.23
23650.626,136.2544518,35.2941735,130.498,0.03,0,0.01,0.19,-1.53,-0.23
23650.636,136.2544518,35.2941735,130.498,0.03,0,0.01,0.19,-1.53,-0.23
23650.646,136.2544518,35.2941735,130.498,0.03,0,0.01,0.19,-1.53,-0.24
23650.656,136.2544518,35.2941735,130.498,0.03,0,0.01,0.18,-1.53,-0.24
23650.666,136.2544518,35.2941735,130.498,0.03,0,0.01,0.18,-1.53,-0.24
23650.677,136.2544518,35.2941735,130.498,0.03,0,0.01,0.18,-1.53,-0.25
23650.689,136.2544518,35.2941735,130.498,0.03,0,0.01,0.18,-1.52,-0.26
23650.697,136.2544518,35.2941735,130.498,0.03,0,0.01,0.18,-1.52,-0.26
23650.706,136.2544519,35.2941735,130.46,0.06,0.02,0.01,0.18,-1.51,-0.27
23650.719,136.2544519,35.2941735,130.46,0.06,0.02,0.01,0.18,-1.51,-0.28
23650.727,136.2544519,35.2941735,130.46,0.06,0.02,0.01,0.18,-1.51,-0.28
23650.737,136.2544519,35.2941735,130.46,0.06,0.02,0.01,0.18,-1.52,-0.29
23650.749,136.2544519,35.2941735,130.46,0.06,0.02,0.01,0.18,-1.52,-0.29
23650.757,136.2544519,35.2941735,130.46,0.06,0.02,0.01,0.17,-1.52,-0.29
23650.767,136.2544519,35.2941735,130.46,0.06,0.02,0.01,0.17,-1.52,-0.28
23650.779,136.2544519,35.2941735,130.46,0.06,0.02,0.01,0.16,-1.52,-0.28
23650.787,136.2544519,35.2941735,130.46,0.06,0.02,0.01,0.16,-1.52,-0.28
23650.799,136.2544519,35.2941735,130.46,0.06,0.02,0.01,0.15,-1.51,-0.28
23650.807,136.2544519,35.2941735,130.46,0.06,0.02,0.01,0.15,-1.51,-0.28
23650.817,136.2544519,35.2941735,130.46,0.06,0.02,0.01,0.14,-1.51,-0.28
23650.826,136.2544519,35.2941735,130.46,0.06,0.02,0.01,0.14,-1.51,-0.28
23650.836,136.2544519,35.2941735,130.46,0.06,0.02,0.01,0.13,-1.51,-0.28
23650.846,136.2544519,35.2941735,130.46,0.06,0.02,0.01,0.13,-1.51,-0.28
23650.856,136.2544519,35.2941735,130.46,0.06,0.02,0.01,0.13,-1.51,-0.28
23650.876,136.2544519,35.2941735,130.46,0.06,0.02,0.01,0.13,-1.5,-0.28
23650.887,136.254452,35.2941734,130.445,0.01,0.02,0.01,0.12,-1.5,-0.28
23650.897,136.254452,35.2941734,130.445,0.01,0.02,0.01,0.12,-1.49,-0.28
23650.907,136.254452,35.2941734,130.445,0.01,0.02,0.01,0.12,-1.48,-0.28
23650.917,136.254452,35.2941734,130.445,0.01,0.02,0.01,0.12,-1.46,-0.28
23650.929,136.254452,35.2941734,130.445,0.01,0.02,0.01,0.13,-1.45,-0.29
23650.937,136.254452,35.2941734,130.445,0.01,0.02,0.01,0.13,-1.44,-0.29
23650.947,136.254452,35.2941734,130.445,0.01,0.02,0.01,0.13,-1.43,-0.3
23650.956,136.254452,35.2941734,130.445,0.01,0.02,0.01,0.13,-1.43,-0.3
23650.966,136.254452,35.2941734,130.445,0.01,0.02,0.01,0.13,-1.42,-0.3
23650.976,136.254452,35.2941734,130.445,0.01,0.02,0.01,0.13,-1.42,-0.3
23650.986,136.254452,35.2941734,130.445,0.01,0.02,0.01,0.13,-1.41,-0.31
23650.996,136.254452,35.2941734,130.445,0.01,0.02,0.01,0.13,-1.41,-0.31
23651.006,136.254452,35.2941734,130.445,0.01,0.02,0.01,0.13,-1.4,-0.31
23651.016,136.254452,35.2941734,130.445,0.01,0.02,0.01,0.13,-1.4,-0.3
23651.026,136.254452,35.2941734,130.445,0.01,0.02,0.01,0.13,-1.4,-0.3
23651.036,136.254452,35.2941734,130.445,0.01,0.02,0.01,0.13,-1.39,-0.29
23651.046,136.254452,35.2941734,130.445,0.01,0.02,0.01,0.12,-1.4,-0.29
23651.056,136.254452,35.2941734,130.445,0.01,0.02,0.01,0.12,-1.4,-0.29
23651.066,136.254452,35.2941734,130.445,0.01,0.02,0.01,0.12,-1.41,-0.28
23651.077,136.254452,35.2941734,130.445,0.01,0.02,0.01,0.11,-1.41,-0.27
23651.087,136.2544522,35.2941734,130.422,-0.06,0.03,0.03,0.11,-1.41,-0.26
23651.099,136.2544522,35.2941734,130.422,-0.06,0.03,0.03,0.11,-1.41,-0.26
23651.107,136.2544522,35.2941734,130.422,-0.06,0.03,0.03,0.1,-1.41,-0.26
23651.117,136.2544522,35.2941734,130.422,-0.06,0.03,0.03,0.1,-1.4,-0.25
23651.127,136.2544522,35.2941734,130.422,-0.06,0.03,0.03,0.1,-1.4,-0.25
23651.137,136.2544522,35.2941734,130.422,-0.06,0.03,0.03,0.1,-1.41,-0.24
23651.147,136.2544522,35.2941734,130.422,-0.06,0.03,0.03,0.1,-1.41,-0.24
23651.159,136.2544522,35.2941734,130.422,-0.06,0.03,0.03,0.1,-1.42,-0.23
23651.166,136.2544522,35.2941734,130.422,-0.06,0.03,0.03,0.1,-1.43,-0.23
23651.176,136.2544522,35.2941734,130.422,-0.06,0.03,0.03,0.1,-1.43,-0.22
23651.186,136.2544522,35.2941734,130.422,-0.06,0.03,0.03,0.1,-1.44,-0.22
23651.196,136.2544522,35.2941734,130.422,-0.06,0.03,0.03,0.11,-1.44,-0.22
23651.206,136.2544522,35.2941734,130.422,-0.06,0.03,0.03,0.11,-1.44,-0.21
23651.216,136.2544522,35.2941734,130.422,-0.06,0.03,0.03,0.11,-1.44,-0.21
23651.226,136.2544522,35.2941734,130.422,-0.06,0.03,0.03,0.11,-1.43,-0.2
23651.236,136.2544522,35.2941734,130.422,-0.06,0.03,0.03,0.11,-1.43,-0.19
23651.246,136.2544522,35.2941734,130.422,-0.06,0.03,0.03,0.12,-1.43,-0.19
23651.256,136.2544522,35.2941734,130.422,-0.06,0.03,0.03,0.12,-1.43,-0.19
23651.266,136.2544522,35.2941734,130.422,-0.06,0.03,0.03,0.12,-1.43,-0.19
23651.276,136.2544522,35.2941734,130.422,-0.06,0.03,0.03,0.13,-1.42,-0.19
23651.287,136.2544525,35.2941734,130.406,-0.05,0.02,0.04,0.13,-1.42,-0.18
23651.297,136.2544525,35.2941734,130.406,-0.05,0.02,0.04,0.13,-1.4,-0.17
23651.307,136.2544525,35.2941734,130.406,-0.05,0.02,0.04,0.13,-1.39,-0.15
23651.317,136.2544525,35.2941734,130.406,-0.05,0.02,0.04,0.13,-1.37,-0.14
23651.329,136.2544525,35.2941734,130.406,-0.05,0.02,0.04,0.14,-1.35,-0.13
23651.337,136.2544525,35.2941734,130.406,-0.05,0.02,0.04,0.14,-1.34,-0.12
23651.347,136.2544525,35.2941734,130.406,-0.05,0.02,0.04,0.14,-1.33,-0.12
23651.356,136.2544525,35.2941734,130.406,-0.05,0.02,0.04,0.14,-1.32,-0.11
23651.366,136.2544525,35.2941734,130.406,-0.05,0.02,0.04,0.15,-1.31,-0.11
23651.376,136.2544525,35.2941734,130.406,-0.05,0.02,0.04,0.15,-1.29,-0.1
23651.386,136.2544525,35.2941734,130.406,-0.05,0.02,0.04,0.15,-1.29,-0.1
23651.397,136.2544525,35.2941734,130.406,-0.05,0.02,0.04,0.16,-1.28,-0.09
23651.406,136.2544525,35.2941734,130.406,-0.05,0.02,0.04,0.16,-1.28,-0.08
23651.416,136.2544525,35.2941734,130.406,-0.05,0.02,0.04,0.16,-1.28,-0.07
23651.426,136.2544525,35.2941734,130.406,-0.05,0.02,0.04,0.17,-1.27,-0.06
23651.436,136.2544525,35.2941734,130.406,-0.05,0.02,0.04,0.17,-1.27,-0.06
23651.446,136.2544525,35.2941734,130.406,-0.05,0.02,0.04,0.18,-1.26,-0.05
23651.456,136.2544525,35.2941734,130.406,-0.05,0.02,0.04,0.18,-1.25,-0.05
23651.466,136.2544525,35.2941734,130.406,-0.05,0.02,0.04,0.19,-1.24,-0.04
23651.477,136.2544525,35.2941734,130.406,-0.05,0.02,0.04,0.19,-1.22,-0.04
23651.487,136.2544525,35.2941734,130.406,-0.05,0.02,0.04,0.2,-1.21,-0.03
23651.499,136.2544526,35.2941734,130.378,-0.03,0,0.05,0.2,-1.2,-0.03
23651.507,136.2544526,35.2941734,130.378,-0.03,0,0.05,0.2,-1.19,-0.02
23651.519,136.2544526,35.2941734,130.378,-0.03,0,0.05,0.21,-1.18,-0.01
23651.527,136.2544526,35.2941734,130.378,-0.03,0,0.05,0.21,-1.17,0
23651.537,136.2544526,35.2941734,130.378,-0.03,0,0.05,0.22,-1.16,0
23651.547,136.2544526,35.2941734,130.378,-0.03,0,0.05,0.23,-1.16,0
23651.557,136.2544526,35.2941734,130.378,-0.03,0,0.05,0.23,-1.16,0
23651.567,136.2544526,35.2941734,130.378,-0.03,0,0.05,0.24,-1.15,0
23651.576,136.2544526,35.2941734,130.378,-0.03,0,0.05,0.24,-1.15,0
23651.586,136.2544526,35.2941734,130.378,-0.03,0,0.05,0.25,-1.15,0
23651.596,136.2544526,35.2941734,130.378,-0.03,0,0.05,0.26,-1.14,0.01
23651.606,136.2544526,35.2941734,130.378,-0.03,0,0.05,0.26,-1.14,0.01
23651.616,136.2544526,35.2941734,130.378,-0.03,0,0.05,0.27,-1.14,0.01
23651.626,136.2544526,35.2941734,130.378,-0.03,0,0.05,0.28,-1.14,0.02
23651.636,136.2544526,35.2941734,130.378,-0.03,0,0.05,0.29,-1.14,0.02
23651.646,136.2544526,35.2941734,130.378,-0.03,0,0.05,0.29,-1.14,0.03
23651.656,136.2544526,35.2941734,130.378,-0.03,0,0.05,0.3,-1.14,0.04
23651.666,136.2544526,35.2941734,130.378,-0.03,0,0.05,0.31,-1.13,0.04
23651.677,136.2544526,35.2941734,130.378,-0.03,0,0.05,0.31,-1.12,0.05
23651.689,136.2544527,35.2941733,130.365,-0.1,0,0.07,0.32,-1.12,0.05
23651.697,136.2544527,35.2941733,130.365,-0.1,0,0.07,0.32,-1.11,0.06
23651.707,136.2544527,35.2941733,130.365,-0.1,0,0.07,0.33,-1.1,0.06
23651.719,136.2544527,35.2941733,130.365,-0.1,0,0.07,0.34,-1.1,0.07
23651.727,136.2544527,35.2941733,130.365,-0.1,0,0.07,0.34,-1.09,0.07
23651.736,136.2544527,35.2941733,130.365,-0.1,0,0.07,0.35,-1.09,0.08
23651.749,136.2544527,35.2941733,130.365,-0.1,0,0.07,0.36,-1.09,0.08
23651.757,136.2544527,35.2941733,130.365,-0.1,0,0.07,0.36,-1.08,0.08
23651.766,136.2544527,35.2941733,130.365,-0.1,0,0.07,0.37,-1.07,0.08
23651.776,136.2544527,35.2941733,130.365,-0.1,0,0.07,0.38,-1.06,0.07
23651.786,136.2544527,35.2941733,130.365,-0.1,0,0.07,0.38,-1.05,0.07
23651.796,136.2544527,35.2941733,130.365,-0.1,0,0.07,0.39,-1.04,0.06
23651.806,136.2544527,35.2941733,130.365,-0.1,0,0.07,0.4,-1.02,0.06
23651.816,136.2544527,35.2941733,130.365,-0.1,0,0.07,0.41,-1.01,0.06
23651.826,136.2544527,35.2941733,130.365,-0.1,0,0.07,0.41,-1,0.06
23651.836,136.2544527,35.2941733,130.365,-0.1,0,0.07,0.42,-0.99,0.06
23651.846,136.2544527,35.2941733,130.365,-0.1,0,0.07,0.43,-0.97,0.07
23651.856,136.2544527,35.2941733,130.365,-0.1,0,0.07,0.43,-0.95,0.07
23651.866,136.2544527,35.2941733,130.365,-0.1,0,0.07,0.44,-0.93,0.07
23651.877,136.2544527,35.2941733,130.365,-0.1,0,0.07,0.44,-0.91,0.07
23651.889,136.2544529,35.2941732,130.345,-0.08,0.03,0.08,0.45,-0.88,0.07
23651.897,136.2544529,35.2941732,130.345,-0.08,0.03,0.08,0.45,-0.86,0.07
23651.909,136.2544529,35.2941732,130.345,-0.08,0.03,0.08,0.46,-0.85,0.07
23651.917,136.2544529,35.2941732,130.345,-0.08,0.03,0.08,0.46,-0.83,0.07
23651.926,136.2544529,35.2941732,130.345,-0.08,0.03,0.08,0.47,-0.82,0.07
23651.939,136.2544529,35.2941732,130.345,-0.08,0.03,0.08,0.47,-0.81,0.07
23651.947,136.2544529,35.2941732,130.345,-0.08,0.03,0.08,0.48,-0.8,0.06
23651.957,136.2544529,35.2941732,130.345,-0.08,0.03,0.08,0.48,-0.79,0.06
23651.968,136.2544529,35.2941732,130.345,-0.08,0.03,0.08,0.49,-0.78,0.05
23651.976,136.2544529,35.2941732,130.345,-0.08,0.03,0.08,0.5,-0.77,0.05
23651.986,136.2544529,35.2941732,130.345,-0.08,0.03,0.08,0.5,-0.76,0.04
23651.996,136.2544529,35.2941732,130.345,-0.08,0.03,0.08,0.51,-0.75,0.03
23652.006,136.2544529,35.2941732,130.345,-0.08,0.03,0.08,0.51,-0.75,0.03
23652.016,136.2544529,35.2941732,130.345,-0.08,0.03,0.08,0.52,-0.75,0.03
23652.026,136.2544529,35.2941732,130.345,-0.08,0.03,0.08,0.52,-0.75,0.02
23652.036,136.2544529,35.2941732,130.345,-0.08,0.03,0.08,0.53,-0.75,0.02
23652.046,136.2544529,35.2941732,130.345,-0.08,0.03,0.08,0.53,-0.75,0.02
23652.056,136.2544529,35.2941732,130.345,-0.08,0.03,0.08,0.54,-0.74,0.02
23652.066,136.2544529,35.2941732,130.345,-0.08,0.03,0.08,0.54,-0.74,0.02
23652.076,136.2544529,35.2941732,130.345,-0.08,0.03,0.08,0.54,-0.73,0.02
23652.087,136.254453,35.294173,130.325,-0.08,-0.01,0.09,0.54,-0.73,0.02
23652.097,136.254453,35.294173,130.325,-0.08,-0.01,0.09,0.54,-0.74,0.02
23652.107,136.254453,35.294173,130.325,-0.08,-0.01,0.09,0.55,-0.73,0.02
23652.117,136.254453,35.294173,130.325,-0.08,-0.01,0.09,0.55,-0.73,0.02
23652.129,136.254453,35.294173,130.325,-0.08,-0.01,0.09,0.55,-0.73,0.01
23652.137,136.254453,35.294173,130.325,-0.08,-0.01,0.09,0.55,-0.72,0.01
23652.147,136.254453,35.294173,130.325,-0.08,-0.01,0.09,0.55,-0.72,0
23652.159,136.254453,35.294173,130.325,-0.08,-0.01,0.09,0.55,-0.72,0
23652.166,136.254453,35.294173,130.325,-0.08,-0.01,0.09,0.56,-0.72,-0.01
23652.176,136.254453,35.294173,130.325,-0.08,-0.01,0.09,0.56,-0.72,-0.01
23652.186,136.254453,35.294173,130.325,-0.08,-0.01,0.09,0.56,-0.72,-0.02
23652.196,136.254453,35.294173,130.325,-0.08,-0.01,0.09,0.56,-0.72,-0.03
23652.206,136.254453,35.294173,130.325,-0.08,-0.01,0.09,0.57,-0.72,-0.04
23652.216,136.254453,35.294173,130.325,-0.08,-0.01,0.09,0.57,-0.72,-0.05
23652.226,136.254453,35.294173,130.325,-0.08,-0.01,0.09,0.57,-0.71,-0.06
23652.236,136.254453,35.294173,130.325,-0.08,-0.01,0.09,0.57,-0.7,-0.07
23652.246,136.254453,35.294173,130.325,-0.08,-0.01,0.09,0.57,-0.69,-0.08
23652.256,136.254453,35.294173,130.325,-0.08,-0.01,0.09,0.57,-0.69,-0.09
23652.266,136.254453,35.294173,130.325,-0.08,-0.01,0.09,0.57,-0.68,-0.1
23652.276,136.254453,35.294173,130.325,-0.08,-0.01,0.09,0.57,-0.68,-0.1
23652.287,136.2544532,35.2941729,130.292,-0.03,0.01,0.1,0.57,-0.68,-0.11
23652.297,136.2544532,35.2941729,130.292,-0.03,0.01,0.1,0.57,-0.67,-0.11
23652.307,136.2544532,35.2941729,130.292,-0.03,0.01,0.1,0.56,-0.67,-0.12
23652.319,136.2544532,35.2941729,130.292,-0.03,0.01,0.1,0.56,-0.67,-0.13
23652.327,136.2544532,35.2941729,130.292,-0.03,0.01,0.1,0.56,-0.66,-0.14
23652.337,136.2544532,35.2941729,130.292,-0.03,0.01,0.1,0.56,-0.66,-0.14
23652.349,136.2544532,35.2941729,130.292,-0.03,0.01,0.1,0.56,-0.66,-0.15
23652.357,136.2544532,35.2941729,130.292,-0.03,0.01,0.1,0.55,-0.67,-0.16
23652.366,136.2544532,35.2941729,130.292,-0.03,0.01,0.1,0.55,-0.68,-0.16
23652.376,136.2544532,35.2941729,130.292,-0.03,0.01,0.1,0.55,-0.68,-0.17
23652.386,136.2544532,35.2941729,130.292,-0.03,0.01,0.1,0.54,-0.69,-0.17
23652.397,136.2544532,35.2941729,130.292,-0.03,0.01,0.1,0.54,-0.69,-0.18
23652.406,136.2544532,35.2941729,130.292,-0.03,0.01,0.1,0.54,-0.7,-0.18
23652.416,136.2544532,35.2941729,130.292,-0.03,0.01,0.1,0.53,-0.7,-0.19
23652.426,136.2544532,35.2941729,130.292,-0.03,0.01,0.1,0.53,-0.69,-0.19
23652.436,136.2544532,35.2941729,130.292,-0.03,0.01,0.1,0.53,-0.69,-0.19
23652.446,136.2544532,35.2941729,130.292,-0.03,0.01,0.1,0.52,-0.68,-0.19
23652.456,136.2544532,35.2941729,130.292,-0.03,0.01,0.1,0.52,-0.67,-0.19
23652.466,136.2544532,35.2941729,130.292,-0.03,0.01,0.1,0.51,-0.66,-0.19
23652.477,136.2544532,35.2941729,130.292,-0.03,0.01,0.1,0.51,-0.65,-0.19
23652.487,136.2544532,35.2941729,130.292,-0.03,0.01,0.1,0.51,-0.65,-0.19
23652.497,136.2544532,35.2941727,130.271,-0.05,0,0.1,0.5,-0.64,-0.19
23652.507,136.2544532,35.2941727,130.271,-0.05,0,0.1,0.5,-0.64,-0.19
23652.519,136.2544532,35.2941727,130.271,-0.05,0,0.1,0.49,-0.64,-0.18
23652.527,136.2544532,35.2941727,130.271,-0.05,0,0.1,0.49,-0.63,-0.18
23652.536,136.2544532,35.2941727,130.271,-0.05,0,0.1,0.48,-0.63,-0.18
23652.549,136.2544532,35.2941727,130.271,-0.05,0,0.1,0.48,-0.63,-0.18
23652.557,136.2544532,35.2941727,130.271,-0.05,0,0.1,0.47,-0.63,-0.17
23652.567,136.2544532,35.2941727,130.271,-0.05,0,0.1,0.47,-0.64,-0.17
23652.578,136.2544532,35.2941727,130.271,-0.05,0,0.1,0.46,-0.65,-0.17
23652.586,136.2544532,35.2941727,130.271,-0.05,0,0.1,0.46,-0.66,-0.16
23652.596,136.2544532,35.2941727,130.271,-0.05,0,0.1,0.45,-0.67,-0.16
23652.606,136.2544532,35.2941727,130.271,-0.05,0,0.1,0.44,-0.66,-0.16
23652.616,136.2544532,35.2941727,130.271,-0.05,0,0.1,0.43,-0.66,-0.15
23652.626,136.2544532,35.2941727,130.271,-0.05,0,0.1,0.43,-0.65,-0.15
23652.636,136.2544532,35.2941727,130.271,-0.05,0,0.1,0.42,-0.64,-0.14
23652.646,136.2544532,35.2941727,130.271,-0.05,0,0.1,0.41,-0.63,-0.13
23652.656,136.2544532,35.2941727,130.271,-0.05,0,0.1,0.41,-0.62,-0.13
23652.669,136.2544532,35.2941727,130.271,-0.05,0,0.1,0.4,-0.62,-0.12
23652.676,136.2544532,35.2941727,130.271,-0.05,0,0.1,0.39,-0.62,-0.12
23652.689,136.2544532,35.2941727,130.271,-0.05,0,0.1,0.38,-0.62,-0.11
23652.697,136.2544532,35.2941727,130.271,-0.05,0,0.1,0.37,-0.62,-0.11
23652.709,136.2544532,35.2941725,130.246,-0.07,0,0.1,0.37,-0.63,-0.11
23652.717,136.2544532,35.2941725,130.246,-0.07,0,0.1,0.36,-0.63,-0.11
23652.727,136.2544532,35.2941725,130.246,-0.07,0,0.1,0.35,-0.63,-0.1
23652.739,136.2544532,35.2941725,130.246,-0.07,0,0.1,0.34,-0.63,-0.1
23652.747,136.2544532,35.2941725,130.246,-0.07,0,0.1,0.34,-0.63,-0.09
23652.756,136.2544532,35.2941725,130.246,-0.07,0,0.1,0.33,-0.63,-0.09
23652.767,136.2544532,35.2941725,130.246,-0.07,0,0.1,0.32,-0.63,-0.08
23652.777,136.2544532,35.2941725,130.246,-0.07,0,0.1,0.31,-0.63,-0.08
23652.789,136.2544532,35.2941725,130.246,-0.07,0,0.1,0.3,-0.63,-0.07
23652.796,136.2544532,35.2941725,130.246,-0.07,0,0.1,0.29,-0.62,-0.07
23652.806,136.2544532,35.2941725,130.246,-0.07,0,0.1,0.29,-0.62,-0.07
23652.816,136.2544532,35.2941725,130.246,-0.07,0,0.1,0.28,-0.62,-0.07
23652.826,136.2544532,35.2941725,130.246,-0.07,0,0.1,0.27,-0.62,-0.07
23652.836,136.2544532,35.2941725,130.246,-0.07,0,0.1,0.26,-0.61,-0.06
23652.846,136.2544532,35.2941725,130.246,-0.07,0,0.1,0.25,-0.61,-0.06
23652.856,136.2544532,35.2941725,130.246,-0.07,0,0.1,0.24,-0.61,-0.06
23652.869,136.2544532,35.2941725,130.246,-0.07,0,0.1,0.23,-0.6,-0.05
23652.876,136.2544532,35.2941725,130.246,-0.07,0,0.1,0.22,-0.59,-0.05
23652.889,136.2544533,35.2941723,130.219,0.02,0.01,0.09,0.21,-0.59,-0.05
23652.897,136.2544533,35.2941723,130.219,0.02,0.01,0.09,0.2,-0.58,-0.05
23652.906,136.2544533,35.2941723,130.219,0.02,0.01,0.09,0.2,-0.58,-0.05
23652.919,136.2544533,35.2941723,130.219,0.02,0.01,0.09,0.19,-0.58,-0.04
23652.927,136.2544533,35.2941723,130.219,0.02,0.01,0.09,0.18,-0.58,-0.04
23652.937,136.2544533,35.2941723,130.219,0.02,0.01,0.09,0.17,-0.58,-0.04
23652.946,136.2544533,35.2941723,130.219,0.02,0.01,0.09,0.16,-0.58,-0.04
23652.956,136.2544533,35.2941723,130.219,0.02,0.01,0.09,0.16,-0.58,-0.04
23652.966,136.2544533,35.2941723,130.219,0.02,0.01,0.09,0.15,-0.58,-0.04
23652.976,136.2544533,35.2941723,130.219,0.02,0.01,0.09,0.14,-0.57,-0.04
23652.986,136.2544533,35.2941723,130.219,0.02,0.01,0.09,0.13,-0.57,-0.03
23652.996,136.2544533,35.2941723,130.219,0.02,0.01,0.09,0.12,-0.57,-0.03
23653.006,136.2544533,35.2941723,130.219,0.02,0.01,0.09,0.11,-0.57,-0.03
23653.016,136.2544533,35.2941723,130.219,0.02,0.01,0.09,0.11,-0.57,-0.03
23653.026,136.2544533,35.2941723,130.219,0.02,0.01,0.09,0.1,-0.57,-0.03
23653.036,136.2544533,35.2941723,130.219,0.02,0.01,0.09,0.09,-0.57,-0.02
23653.046,136.2544533,35.2941723,130.219,0.02,0.01,0.09,0.08,-0.58,-0.02
23653.056,136.2544533,35.2941723,130.219,0.02,0.01,0.09,0.07,-0.58,-0.02
23653.067,136.2544533,35.2941723,130.219,0.02,0.01,0.09,0.06,-0.59,-0.02
23653.077,136.2544533,35.2941723,130.219,0.02,0.01,0.09,0.05,-0.59,-0.02
23653.087,136.2544534,35.2941722,130.202,0.09,0.03,0.07,0.05,-0.59,-0.02
23653.097,136.2544534,35.2941722,130.202,0.09,0.03,0.07,0.04,-0.59,-0.02
23653.109,136.2544534,35.2941722,130.202,0.09,0.03,0.07,0.03,-0.59,-0.02
23653.117,136.2544534,35.2941722,130.202,0.09,0.03,0.07,0.02,-0.59,-0.02
23653.127,136.2544534,35.2941722,130.202,0.09,0.03,0.07,0.01,-0.59,-0.02
23653.139,136.2544534,35.2941722,130.202,0.09,0.03,0.07,0,-0.58,-0.01
23653.146,136.2544534,35.2941722,130.202,0.09,0.03,0.07,0,-0.58,-0.01
23653.156,136.2544534,35.2941722,130.202,0.09,0.03,0.07,0,-0.58,-0.01
23653.166,136.2544534,35.2941722,130.202,0.09,0.03,0.07,0,-0.58,-0.01
23653.176,136.2544534,35.2941722,130.202,0.09,0.03,0.07,-0.01,-0.58,-0.01
23653.186,136.2544534,35.2941722,130.202,0.09,0.03,0.07,-0.02,-0.58,0
23653.196,136.2544534,35.2941722,130.202,0.09,0.03,0.07,-0.02,-0.59,0
23653.206,136.2544534,35.2941722,130.202,0.09,0.03,0.07,-0.03,-0.59,0
23653.216,136.2544534,35.2941722,130.202,0.09,0.03,0.07,-0.03,-0.59,0
23653.226,136.2544534,35.2941722,130.202,0.09,0.03,0.07,-0.04,-0.6,0
23653.236,136.2544534,35.2941722,130.202,0.09,0.03,0.07,-0.04,-0.6,0
23653.246,136.2544534,35.2941722,130.202,0.09,0.03,0.07,-0.05,-0.61,0
23653.256,136.2544534,35.2941722,130.202,0.09,0.03,0.07,-0.06,-0.61,0
23653.269,136.2544534,35.2941722,130.202,0.09,0.03,0.07,-0.06,-0.6,0
23653.276,136.2544534,35.2941722,130.202,0.09,0.03,0.07,-0.07,-0.6,0
23653.287,136.2544534,35.294172,130.185,0.06,0.01,0.05,-0.07,-0.59,0.01
23653.296,136.2544534,35.294172,130.185,0.06,0.01,0.05,-0.08,-0.59,0.01
23653.309,136.2544534,35.294172,130.185,0.06,0.01,0.05,-0.09,-0.58,0.01
23653.317,136.2544534,35.294172,130.185,0.06,0.01,0.05,-0.09,-0.57,0.01
23653.327,136.2544534,35.294172,130.185,0.06,0.01,0.05,-0.1,-0.56,0.01
23653.337,136.2544534,35.294172,130.185,0.06,0.01,0.05,-0.1,-0.55,0.01
23653.346,136.2544534,35.294172,130.185,0.06,0.01,0.05,-0.1,-0.54,0.01
23653.356,136.2544534,35.294172,130.185,0.06,0.01,0.05,-0.11,-0.53,0.01
23653.366,136.2544534,35.294172,130.185,0.06,0.01,0.05,-0.11,-0.52,0.01
23653.376,136.2544534,35.294172,130.185,0.06,0.01,0.05,-0.11,-0.51,0.01
23653.386,136.2544534,35.294172,130.185,0.06,0.01,0.05,-0.12,-0.51,0.01
23653.397,136.2544534,35.294172,130.185,0.06,0.01,0.05,-0.12,-0.51,0.01
23653.406,136.2544534,35.294172,130.185,0.06,0.01,0.05,-0.12,-0.51,0.01
23653.416,136.2544534,35.294172,130.185,0.06,0.01,0.05,-0.13,-0.51,0.01
23653.426,136.2544534,35.294172,130.185,0.06,0.01,0.05,-0.13,-0.52,0.01
23653.436,136.2544534,35.294172,130.185,0.06,0.01,0.05,-0.13,-0.52,0.02
23653.446,136.2544534,35.294172,130.185,0.06,0.01,0.05,-0.13,-0.52,0.03
23653.456,136.2544534,35.294172,130.185,0.06,0.01,0.05,-0.14,-0.52,0.03
23653.469,136.2544534,35.294172,130.185,0.06,0.01,0.05,-0.14,-0.52,0.04
23653.477,136.2544534,35.294172,130.185,0.06,0.01,0.05,-0.14,-0.51,0.04
23653.487,136.2544536,35.2941719,130.167,0.11,0.06,0.04,-0.15,-0.51,0.05
23653.497,136.2544536,35.2941719,130.167,0.11,0.06,0.04,-0.15,-0.5,0.05
23653.507,136.2544536,35.2941719,130.167,0.11,0.06,0.04,-0.15,-0.5,0.05
23653.517,136.2544536,35.2941719,130.167,0.11,0.06,0.04,-0.15,-0.5,0.05
23653.529,136.2544536,35.2941719,130.167,0.11,0.06,0.04,-0.15,-0.49,0.05
23653.537,136.2544536,35.2941719,130.167,0.11,0.06,0.04,-0.16,-0.49,0.05
23653.546,136.2544536,35.2941719,130.167,0.11,0.06,0.04,-0.16,-0.49,0.05
23653.556,136.2544536,35.2941719,130.167,0.11,0.06,0.04,-0.16,-0.49,0.05
23653.566,136.2544536,35.2941719,130.167,0.11,0.06,0.04,-0.16,-0.49,0.05
23653.576,136.2544536,35.2941719,130.167,0.11,0.06,0.04,-0.16,-0.49,0.05
23653.586,136.2544536,35.2941719,130.167,0.11,0.06,0.04,-0.16,-0.49,0.05
23653.596,136.2544536,35.2941719,130.167,0.11,0.06,0.04,-0.16,-0.49,0.05
23653.606,136.2544536,35.2941719,130.167,0.11,0.06,0.04,-0.16,-0.49,0.06
23653.616,136.2544536,35.2941719,130.167,0.11,0.06,0.04,-0.16,-0.49,0.06
23653.626,136.2544536,35.2941719,130.167,0.11,0.06,0.04,-0.16,-0.48,0.06
23653.636,136.2544536,35.2941719,130.167,0.11,0.06,0.04,-0.16,-0.48,0.06
23653.646,136.2544536,35.2941719,130.167,0.11,0.06,0.04,-0.16,-0.47,0.06
23653.656,136.2544536,35.2941719,130.167,0.11,0.06,0.04,-0.16,-0.47,0.07
23653.669,136.2544536,35.2941719,130.167,0.11,0.06,0.04,-0.16,-0.46,0.07
23653.676,136.2544536,35.2941719,130.167,0.11,0.06,0.04,-0.16,-0.46,0.08
23653.687,136.2544536,35.2941717,130.158,0.11,0.06,0.04,-0.16,-0.45,0.09
23653.697,136.2544536,35.2941717,130.158,0.02,0.02,0.04,-0.16,-0.44,0.1
23653.709,136.2544536,35.2941717,130.158,0.02,0.02,0.04,-0.16,-0.43,0.1
23653.717,136.2544536,35.2941717,130.158,0.02,0.02,0.04,-0.16,-0.42,0.11
23653.729,136.2544536,35.2941717,130.158,0.02,0.02,0.04,-0.16,-0.41,0.11
23653.737,136.2544536,35.2941717,130.158,0.02,0.02,0.04,-0.16,-0.39,0.11
23653.747,136.2544536,35.2941717,130.158,0.02,0.02,0.04,-0.16,-0.38,0.11
23653.756,136.2544536,35.2941717,130.158,0.02,0.02,0.04,-0.16,-0.36,0.11
23653.766,136.2544536,35.2941717,130.158,0.02,0.02,0.04,-0.16,-0.34,0.11
23653.776,136.2544536,35.2941717,130.158,0.02,0.02,0.04,-0.16,-0.32,0.11
23653.786,136.2544536,35.2941717,130.158,0.02,0.02,0.04,-0.16,-0.31,0.11
23653.796,136.2544536,35.2941717,130.158,0.02,0.02,0.04,-0.16,-0.31,0.11
23653.806,136.2544536,35.2941717,130.158,0.02,0.02,0.04,-0.16,-0.31,0.11
23653.816,136.2544536,35.2941717,130.158,0.02,0.02,0.04,-0.16,-0.31,0.12
23653.826,136.2544536,35.2941717,130.158,0.02,0.02,0.04,-0.16,-0.31,0.12
23653.836,136.2544536,35.2941717,130.158,0.02,0.02,0.04,-0.16,-0.31,0.13
23653.846,136.2544536,35.2941717,130.158,0.02,0.02,0.04,-0.16,-0.31,0.13
23653.856,136.2544536,35.2941717,130.158,0.02,0.02,0.04,-0.16,-0.31,0.13
23653.869,136.2544536,35.2941717,130.158,0.02,0.02,0.04,-0.16,-0.3,0.13
23653.876,136.2544536,35.2941717,130.158,0.02,0.02,0.04,-0.16,-0.3,0.14
23653.887,136.2544536,35.2941715,130.157,0.01,0.02,0.04,-0.16,-0.3,0.14
23653.897,136.2544536,35.2941715,130.157,0.01,0.01,0.04,-0.16,-0.31,0.14
23653.907,136.2544536,35.2941715,130.157,0.01,0.01,0.04,-0.16,-0.31,0.15
23653.919,136.2544536,35.2941715,130.157,0.01,0.01,0.04,-0.16,-0.32,0.15
23653.927,136.2544536,35.2941715,130.157,0.01,0.01,0.04,-0.15,-0.33,0.15
23653.937,136.2544536,35.2941715,130.157,0.01,0.01,0.04,-0.15,-0.34,0.16
23653.948,136.2544536,35.2941715,130.157,0.01,0.01,0.04,-0.15,-0.35,0.16
23653.956,136.2544536,35.2941715,130.157,0.01,0.01,0.04,-0.15,-0.36,0.17
23653.966,136.2544536,35.2941715,130.157,0.01,0.01,0.04,-0.15,-0.36,0.17
23653.976,136.2544536,35.2941715,130.157,0.01,0.01,0.04,-0.15,-0.37,0.18
23653.986,136.2544536,35.2941715,130.157,0.01,0.01,0.04,-0.15,-0.37,0.18
23653.996,136.2544536,35.2941715,130.157,0.01,0.01,0.04,-0.15,-0.37,0.18
23654.006,136.2544536,35.2941715,130.157,0.01,0.01,0.04,-0.15,-0.37,0.19
23654.016,136.2544536,35.2941715,130.157,0.01,0.01,0.04,-0.15,-0.37,0.19
23654.026,136.2544536,35.2941715,130.157,0.01,0.01,0.04,-0.15,-0.37,0.19
23654.036,136.2544536,35.2941715,130.157,0.01,0.01,0.04,-0.15,-0.37,0.19
23654.046,136.2544536,35.2941715,130.157,0.01,0.01,0.04,-0.15,-0.38,0.19
23654.056,136.2544536,35.2941715,130.157,0.01,0.01,0.04,-0.15,-0.38,0.19
23654.069,136.2544536,35.2941715,130.157,0.01,0.01,0.04,-0.15,-0.38,0.19
23654.076,136.2544536,35.2941715,130.157,0.01,0.01,0.04,-0.14,-0.38,0.2
23654.087,136.2544536,35.2941713,130.174,0.01,0.01,0.04,-0.14,-0.38,0.19
23654.097,136.2544536,35.2941713,130.174,0.01,0,0.04,-0.14,-0.38,0.2
23654.109,136.2544536,35.2941713,130.174,0.01,0,0.04,-0.14,-0.38,0.2
23654.117,136.2544536,35.2941713,130.174,0.01,0,0.04,-0.14,-0.38,0.2
23654.127,136.2544536,35.2941713,130.174,0.01,0,0.04,-0.14,-0.38,0.2
23654.139,136.2544536,35.2941713,130.174,0.01,0,0.04,-0.14,-0.37,0.2
23654.146,136.2544536,35.2941713,130.174,0.01,0,0.04,-0.14,-0.37,0.2
23654.156,136.2544536,35.2941713,130.174,0.01,0,0.04,-0.14,-0.36,0.2
23654.166,136.2544536,35.2941713,130.174,0.01,0,0.04,-0.14,-0.36,0.2
23654.176,136.2544536,35.2941713,130.174,0.01,0,0.04,-0.14,-0.35,0.2
23654.186,136.2544536,35.2941713,130.174,0.01,0,0.04,-0.14,-0.35,0.2
23654.196,136.2544536,35.2941713,130.174,0.01,0,0.04,-0.14,-0.35,0.2
23654.206,136.2544536,35.2941713,130.174,0.01,0,0.04,-0.14,-0.35,0.2
23654.216,136.2544536,35.2941713,130.174,0.01,0,0.04,-0.14,-0.35,0.2
23654.226,136.2544536,35.2941713,130.174,0.01,0,0.04,-0.14,-0.35,0.19
23654.236,136.2544536,35.2941713,130.174,0.01,0,0.04,-0.14,-0.35,0.19
23654.246,136.2544536,35.2941713,130.174,0.01,0,0.04,-0.14,-0.35,0.19
23654.256,136.2544536,35.2941713,130.174,0.01,0,0.04,-0.14,-0.35,0.18
23654.267,136.2544536,35.2941713,130.174,0.01,0,0.04,-0.14,-0.35,0.18
23654.276,136.2544536,35.2941713,130.174,0.01,0,0.04,-0.14,-0.35,0.18
23654.289,136.2544535,35.294171,130.182,0.02,0.01,0.02,-0.14,-0.36,0.18
23654.297,136.2544535,35.294171,130.182,0.02,0.01,0.02,-0.14,-0.37,0.18
23654.306,136.2544535,35.294171,130.182,0.02,0.01,0.02,-0.14,-0.38,0.18
23654.319,136.2544535,35.294171,130.182,0.02,0.01,0.02,-0.14,-0.39,0.18
23654.327,136.2544535,35.294171,130.182,0.02,0.01,0.02,-0.14,-0.4,0.18
23654.337,136.2544535,35.294171,130.182,0.02,0.01,0.02,-0.14,-0.4,0.17
23654.347,136.2544535,35.294171,130.182,0.02,0.01,0.02,-0.14,-0.4,0.17
23654.356,136.2544535,35.294171,130.182,0.02,0.01,0.02,-0.14,-0.4,0.17
23654.366,136.2544535,35.294171,130.182,0.02,0.01,0.02,-0.14,-0.4,0.16
23654.376,136.2544535,35.294171,130.182,0.02,0.01,0.02,-0.14,-0.39,0.16
23654.386,136.2544535,35.294171,130.182,0.02,0.01,0.02,-0.14,-0.39,0.15
23654.397,136.2544535,35.294171,130.182,0.02,0.01,0.02,-0.14,-0.39,0.14
23654.406,136.2544535,35.294171,130.182,0.02,0.01,0.02,-0.14,-0.39,0.14
23654.416,136.2544535,35.294171,130.182,0.02,0.01,0.02,-0.14,-0.39,0.13
23654.426,136.2544535,35.294171,130.182,0.02,0.01,0.02,-0.14,-0.4,0.13
23654.436,136.2544535,35.294171,130.182,0.02,0.01,0.02,-0.15,-0.41,0.12
23654.446,136.2544535,35.294171,130.182,0.02,0.01,0.02,-0.15,-0.41,0.12
23654.456,136.2544535,35.294171,130.182,0.02,0.01,0.02,-0.15,-0.41,0.12
23654.469,136.2544535,35.294171,130.182,0.02,0.01,0.02,-0.15,-0.41,0.12
23654.477,136.2544535,35.294171,130.182,0.02,0.01,0.02,-0.15,-0.41,0.12
23654.489,136.2544535,35.2941708,130.172,0,0.02,0.01,-0.16,-0.4,0.12
23654.497,136.2544535,35.2941708,130.172,0,0.02,0.01,-0.16,-0.4,0.12
23654.509,136.2544535,35.2941708,130.172,0,0.02,0.01,-0.16,-0.4,0.12
23654.517,136.2544535,35.2941708,130.172,0,0.02,0.01,-0.16,-0.39,0.11
23654.526,136.2544535,35.2941708,130.172,0,0.02,0.01,-0.16,-0.39,0.11
23654.539,136.2544535,35.2941708,130.172,0,0.02,0.01,-0.16,-0.39,0.11
23654.547,136.2544535,35.2941708,130.172,0,0.02,0.01,-0.16,-0.39,0.1
23654.556,136.2544535,35.2941708,130.172,0,0.02,0.01,-0.17,-0.39,0.1
23654.566,136.2544535,35.2941708,130.172,0,0.02,0.01,-0.17,-0.39,0.1
23654.576,136.2544535,35.2941708,130.172,0,0.02,0.01,-0.17,-0.39,0.09
23654.586,136.2544535,35.2941708,130.172,0,0.02,0.01,-0.17,-0.38,0.09
23654.596,136.2544535,35.2941708,130.172,0,0.02,0.01,-0.17,-0.38,0.09
23654.606,136.2544535,35.2941708,130.172,0,0.02,0.01,-0.17,-0.37,0.09
23654.616,136.2544535,35.2941708,130.172,0,0.02,0.01,-0.18,-0.37,0.09
23654.626,136.2544535,35.2941708,130.172,0,0.02,0.01,-0.18,-0.37,0.1
23654.636,136.2544535,35.2941708,130.172,0,0.02,0.01,-0.18,-0.36,0.1
23654.646,136.2544535,35.2941708,130.172,0,0.02,0.01,-0.18,-0.36,0.1
23654.656,136.2544535,35.2941708,130.172,0,0.02,0.01,-0.19,-0.36,0.1
23654.669,136.2544535,35.2941708,130.172,0,0.02,0.01,-0.19,-0.36,0.1
23654.676,136.2544535,35.2941708,130.172,0,0.02,0.01,-0.19,-0.36,0.1
23654.687,136.2544535,35.2941708,130.172,0,0.02,0.01,-0.2,-0.36,0.1
23654.699,136.2544535,35.2941708,130.172,0,0.02,0.01,-0.2,-0.36,0.1
23654.707,136.2544535,35.2941707,130.172,0,0.02,0.01,-0.2,-0.35,0.1
23654.719,136.2544535,35.2941707,130.172,0.01,0,0.01,-0.2,-0.35,0.1
23654.727,136.2544535,35.2941707,130.172,0.01,0,0.01,-0.21,-0.34,0.1
23654.737,136.2544535,35.2941707,130.172,0.01,0,0.01,-0.21,-0.34,0.1
23654.747,136.2544535,35.2941707,130.172,0.01,0,0.01,-0.21,-0.34,0.1
23654.757,136.2544535,35.2941707,130.172,0.01,0,0.01,-0.21,-0.33,0.1
23654.767,136.2544535,35.2941707,130.172,0.01,0,0.01,-0.21,-0.33,0.1
23654.777,136.2544535,35.2941707,130.172,0.01,0,0.01,-0.22,-0.33,0.1
23654.787,136.2544535,35.2941707,130.172,0.01,0,0.01,-0.22,-0.33,0.1
23654.797,136.2544535,35.2941707,130.172,0.01,0,0.01,-0.22,-0.33,0.1
23654.806,136.2544535,35.2941707,130.172,0.01,0,0.01,-0.23,-0.34,0.1
23654.816,136.2544535,35.2941707,130.172,0.01,0,0.01,-0.23,-0.34,0.1
23654.826,136.2544535,35.2941707,130.172,0.01,0,0.01,-0.23,-0.35,0.1
23654.836,136.2544535,35.2941707,130.172,0.01,0,0.01,-0.23,-0.35,0.1
23654.846,136.2544535,35.2941707,130.172,0.01,0,0.01,-0.23,-0.35,0.1
23654.856,136.2544535,35.2941707,130.172,0.01,0,0.01,-0.24,-0.34,0.09
23654.869,136.2544535,35.2941707,130.172,0.01,0,0.01,-0.24,-0.34,0.09
23654.876,136.2544535,35.2941707,130.172,0.01,0,0.01,-0.24,-0.35,0.09
23654.887,136.2544534,35.2941707,130.163,0.01,0,0.01,-0.24,-0.35,0.09
23654.898,136.2544534,35.2941707,130.163,0.01,-0.01,0.01,-0.25,-0.35,0.09
23654.909,136.2544534,35.2941707,130.163,0.01,-0.01,0.01,-0.25,-0.36,0.09
23654.917,136.2544534,35.2941707,130.163,0.01,-0.01,0.01,-0.25,-0.36,0.09
23654.926,136.2544534,35.2941707,130.163,0.01,-0.01,0.01,-0.25,-0.37,0.09
23654.939,136.2544534,35.2941707,130.163,0.01,-0.01,0.01,-0.25,-0.37,0.09
23654.947,136.2544534,35.2941707,130.163,0.01,-0.01,0.01,-0.25,-0.37,0.09
23654.956,136.2544534,35.2941707,130.163,0.01,-0.01,0.01,-0.26,-0.37,0.1
23654.966,136.2544534,35.2941707,130.163,0.01,-0.01,0.01,-0.26,-0.37,0.1
23654.976,136.2544534,35.2941707,130.163,0.01,-0.01,0.01,-0.26,-0.37,0.1
23654.986,136.2544534,35.2941707,130.163,0.01,-0.01,0.01,-0.26,-0.36,0.1
23654.996,136.2544534,35.2941707,130.163,0.01,-0.01,0.01,-0.26,-0.36,0.1
23655.006,136.2544534,35.2941707,130.163,0.01,-0.01,0.01,-0.26,-0.36,0.1
23655.016,136.2544534,35.2941707,130.163,0.01,-0.01,0.01,-0.26,-0.37,0.1
23655.026,136.2544534,35.2941707,130.163,0.01,-0.01,0.01,-0.27,-0.37,0.1
23655.036,136.2544534,35.2941707,130.163,0.01,-0.01,0.01,-0.27,-0.37,0.1
23655.046,136.2544534,35.2941707,130.163,0.01,-0.01,0.01,-0.27,-0.37,0.1
23655.056,136.2544534,35.2941707,130.163,0.01,-0.01,0.01,-0.27,-0.37,0.1
23655.069,136.2544534,35.2941707,130.163,0.01,-0.01,0.01,-0.27,-0.37,0.1
23655.076,136.2544534,35.2941707,130.163,0.01,-0.01,0.01,-0.27,-0.37,0.1
23655.089,136.2544533,35.2941707,130.164,0,0.04,-0.01,-0.27,-0.36,0.11
23655.097,136.2544533,35.2941707,130.164,0,0.04,-0.01,-0.28,-0.35,0.11
23655.109,136.2544533,35.2941707,130.164,0,0.04,-0.01,-0.28,-0.34,0.11
23655.117,136.2544533,35.2941707,130.164,0,0.04,-0.01,-0.28,-0.33,0.1
23655.127,136.2544533,35.2941707,130.164,0,0.04,-0.01,-0.28,-0.32,0.1
23655.139,136.2544533,35.2941707,130.164,0,0.04,-0.01,-0.28,-0.31,0.1
23655.147,136.2544533,35.2941707,130.164,0,0.04,-0.01,-0.28,-0.31,0.1
23655.156,136.2544533,35.2941707,130.164,0,0.04,-0.01,-0.28,-0.3,0.09
23655.166,136.2544533,35.2941707,130.164,0,0.04,-0.01,-0.28,-0.3,0.09
23655.176,136.2544533,35.2941707,130.164,0,0.04,-0.01,-0.28,-0.3,0.09
23655.186,136.2544533,35.2941707,130.164,0,0.04,-0.01,-0.28,-0.3,0.09
23655.196,136.2544533,35.2941707,130.164,0,0.04,-0.01,-0.27,-0.3,0.09
23655.206,136.2544533,35.2941707,130.164,0,0.04,-0.01,-0.27,-0.31,0.09
23655.216,136.2544533,35.2941707,130.164,0,0.04,-0.01,-0.27,-0.31,0.09
23655.229,136.2544533,35.2941707,130.164,0,0.04,-0.01,-0.27,-0.31,0.09
23655.236,136.2544533,35.2941707,130.164,0,0.04,-0.01,-0.27,-0.31,0.09
23655.246,136.2544533,35.2941707,130.164,0,0.04,-0.01,-0.26,-0.32,0.09
23655.256,136.2544533,35.2941707,130.164,0,0.04,-0.01,-0.26,-0.32,0.09
23655.266,136.2544533,35.2941707,130.164,0,0.04,-0.01,-0.26,-0.32,0.09
23655.276,136.2544533,35.2941707,130.164,0,0.04,-0.01,-0.26,-0.31,0.09
23655.287,136.2544532,35.2941707,130.16,0.02,0.04,-0.01,-0.26,-0.31,0.09
23655.299,136.2544532,35.2941707,130.16,0.02,0.01,-0.02,-0.25,-0.3,0.09
23655.307,136.2544532,35.2941707,130.16,0.02,0.01,-0.02,-0.25,-0.29,0.09
23655.316,136.2544532,35.2941707,130.16,0.02,0.01,-0.02,-0.25,-0.29,0.09
23655.329,136.2544532,35.2941707,130.16,0.02,0.01,-0.02,-0.25,-0.29,0.1
23655.337,136.2544532,35.2941707,130.16,0.02,0.01,-0.02,-0.25,-0.28,0.1
23655.347,136.2544532,35.2941707,130.16,0.02,0.01,-0.02,-0.25,-0.28,0.1
23655.356,136.2544532,35.2941707,130.16,0.02,0.01,-0.02,-0.24,-0.29,0.1
23655.366,136.2544532,35.2941707,130.16,0.02,0.01,-0.02,-0.24,-0.29,0.09
23655.376,136.2544532,35.2941707,130.16,0.02,0.01,-0.02,-0.24,-0.3,0.09
23655.386,136.2544532,35.2941707,130.16,0.02,0.01,-0.02,-0.23,-0.31,0.09
23655.397,136.2544532,35.2941707,130.16,0.02,0.01,-0.02,-0.23,-0.31,0.09
23655.406,136.2544532,35.2941707,130.16,0.02,0.01,-0.02,-0.23,-0.32,0.08
23655.416,136.2544532,35.2941707,130.16,0.02,0.01,-0.02,-0.22,-0.32,0.08
23655.427,136.2544532,35.2941707,130.16,0.02,0.01,-0.02,-0.22,-0.33,0.08
23655.436,136.2544532,35.2941707,130.16,0.02,0.01,-0.02,-0.22,-0.33,0.08
23655.446,136.2544532,35.2941707,130.16,0.02,0.01,-0.02,-0.21,-0.33,0.09
23655.456,136.2544532,35.2941707,130.16,0.02,0.01,-0.02,-0.21,-0.33,0.09
23655.466,136.2544532,35.2941707,130.16,0.02,0.01,-0.02,-0.21,-0.33,0.09
23655.477,136.2544532,35.2941707,130.16,0.02,0.01,-0.02,-0.2,-0.34,0.09
23655.487,136.2544532,35.2941707,130.146,0.03,0.02,-0.02,-0.2,-0.34,0.09
23655.499,136.2544532,35.2941707,130.146,0.03,0.02,-0.02,-0.2,-0.35,0.1
23655.507,136.2544532,35.2941707,130.146,0.03,0.02,-0.02,-0.19,-0.35,0.1
23655.519,136.2544532,35.2941707,130.146,0.03,0.02,-0.02,-0.19,-0.36,0.09
23655.527,136.2544532,35.2941707,130.146,0.03,0.02,-0.02,-0.19,-0.37,0.09
23655.537,136.2544532,35.2941707,130.146,0.03,0.02,-0.02,-0.19,-0.38,0.09
23655.547,136.2544532,35.2941707,130.146,0.03,0.02,-0.02,-0.18,-0.39,0.09
23655.556,136.2544532,35.2941707,130.146,0.03,0.02,-0.02,-0.18,-0.39,0.09
23655.566,136.2544532,35.2941707,130.146,0.03,0.02,-0.02,-0.18,-0.4,0.08
23655.576,136.2544532,35.2941707,130.146,0.03,0.02,-0.02,-0.17,-0.41,0.07
23655.586,136.2544532,35.2941707,130.146,0.03,0.02,-0.02,-0.17,-0.42,0.07
23655.596,136.2544532,35.2941707,130.146,0.03,0.02,-0.02,-0.17,-0.43,0.06
23655.606,136.2544532,35.2941707,130.146,0.03,0.02,-0.02,-0.16,-0.43,0.06
23655.616,136.2544532,35.2941707,130.146,0.03,0.02,-0.02,-0.16,-0.44,0.06
23655.629,136.2544532,35.2941707,130.146,0.03,0.02,-0.02,-0.15,-0.44,0.05
23655.636,136.2544532,35.2941707,130.146,0.03,0.02,-0.02,-0.15,-0.45,0.05
23655.646,136.2544532,35.2941707,130.146,0.03,0.02,-0.02,-0.14,-0.45,0.05
23655.656,136.2544532,35.2941707,130.146,0.03,0.02,-0.02,-0.14,-0.45,0.05
23655.666,136.2544532,35.2941707,130.146,0.03,0.02,-0.02,-0.14,-0.44,0.05
23655.676,136.2544532,35.2941707,130.146,0.03,0.02,-0.02,-0.13,-0.44,0.05
23655.687,136.2544532,35.2941707,130.146,0.03,0.02,-0.02,-0.13,-0.44,0.05
23655.697,136.2544533,35.2941706,130.12,0,-0.01,-0.01,-0.12,-0.43,0.05
23655.707,136.2544533,35.2941706,130.12,0,-0.01,-0.01,-0.12,-0.43,0.05
23655.717,136.2544533,35.2941706,130.12,0,-0.01,-0.01,-0.12,-0.42,0.05
23655.727,136.2544533,35.2941706,130.12,0,-0.01,-0.01,-0.12,-0.42,0.05
23655.739,136.2544533,35.2941706,130.12,0,-0.01,-0.01,-0.11,-0.41,0.05
23655.747,136.2544533,35.2941706,130.12,0,-0.01,-0.01,-0.11,-0.4,0.05
23655.757,136.2544533,35.2941706,130.12,0,-0.01,-0.01,-0.11,-0.4,0.05
23655.768,136.2544533,35.2941706,130.12,0,-0.01,-0.01,-0.1,-0.4,0.05
23655.776,136.2544533,35.2941706,130.12,0,-0.01,-0.01,-0.1,-0.4,0.05
23655.786,136.2544533,35.2941706,130.12,0,-0.01,-0.01,-0.1,-0.39,0.05
23655.796,136.2544533,35.2941706,130.12,0,-0.01,-0.01,-0.1,-0.39,0.05
23655.806,136.2544533,35.2941706,130.12,0,-0.01,-0.01,-0.09,-0.39,0.05
23655.816,136.2544533,35.2941706,130.12,0,-0.01,-0.01,-0.09,-0.39,0.04
23655.829,136.2544533,35.2941706,130.12,0,-0.01,-0.01,-0.09,-0.38,0.05
23655.836,136.2544533,35.2941706,130.12,0,-0.01,-0.01,-0.08,-0.37,0.05
23655.846,136.2544533,35.2941706,130.12,0,-0.01,-0.01,-0.08,-0.35,0.05
23655.856,136.2544533,35.2941706,130.12,0,-0.01,-0.01,-0.08,-0.34,0.05
23655.866,136.2544533,35.2941706,130.12,0,-0.01,-0.01,-0.07,-0.33,0.05
23655.876,136.2544533,35.2941706,130.12,0,-0.01,-0.01,-0.07,-0.32,0.05
23655.887,136.254453,35.2941704,130.14,0,-0.01,-0.01,-0.07,-0.32,0.05
23655.899,136.254453,35.2941704,130.14,0,-0.01,0,-0.06,-0.31,0.05
23655.907,136.254453,35.2941704,130.14,0,-0.01,0,-0.06,-0.31,0.05
23655.919,136.254453,35.2941704,130.14,0,-0.01,0,-0.05,-0.31,0.05
23655.927,136.254453,35.2941704,130.14,0,-0.01,0,-0.05,-0.31,0.05
23655.937,136.254453,35.2941704,130.14,0,-0.01,0,-0.05,-0.31,0.06
23655.949,136.254453,35.2941704,130.14,0,-0.01,0,-0.05,-0.3,0.06
23655.956,136.254453,35.2941704,130.14,0,-0.01,0,-0.04,-0.3,0.06
23655.966,136.254453,35.2941704,130.14,0,-0.01,0,-0.04,-0.29,0.06
23655.976,136.254453,35.2941704,130.14,0,-0.01,0,-0.04,-0.29,0.07
23655.986,136.254453,35.2941704,130.14,0,-0.01,0,-0.03,-0.3,0.07
23655.996,136.254453,35.2941704,130.14,0,-0.01,0,-0.03,-0.3,0.07
23656.006,136.254453,35.2941704,130.14,0,-0.01,0,-0.03,-0.31,0.08
23656.016,136.254453,35.2941704,130.14,0,-0.01,0,-0.02,-0.32,0.08
23656.029,136.254453,35.2941704,130.14,0,-0.01,0,-0.02,-0.32,0.08
23656.036,136.254453,35.2941704,130.14,0,-0.01,0,-0.02,-0.32,0.08
