SYS_TIME[ms],T_CNT[us],T_PPS[us],T_CAN_RSV[us],DP[Pa],AOA[deg],AOS[deg],T_DP_SENSOR[degC],PS[hPa],H_PS[m],TAT[degC],HUM[%],RHO[kg/m^3],T_PS_SENSOR[degC],AX[m/s^2],AY[m/s^2],AZ[m/s^2],GX[deg/s],GY[deg/s],GZ[deg/s],EX[deg],EY[deg],EZ[deg],MICROSECONDS_PPS[us],cls[-],id[-],len[-],iTOW[ms],year[y],month[month],day[d],hour[h],minute[min],sec[s],valid[-],tAcc[ns],nano[ns],fixType[-],flags[-],flags2[-],numSV[-],lon[10^7 deg],lat[10^7 deg],height[mm],hMSL[mm],hAcc[mm],vAcc[mm],velN[mm/s],velE[mm/s],velD[mm/s],gSpeed[mm/s],headMot[10^5 deg],sAcc[mm/s],headAcc[10^5 deg],pDOP[-],reserved1[-],headVeh[10^5 deg],reserved2[-],DP_raw[Pa],AOA_raw[deg],AOS_raw[deg],T_DP_SENSOR_raw[degC],PS_raw[hPa],H_PS_raw[m],TAT_raw[degC],HUM_raw[%],RHO_raw[kg/m^3],T_PS_SENSOR_raw[degC],AX_raw[m/s^2],AY_raw[m/s^2],AZ_raw[m/s^2],GX_raw[deg/s],GY_raw[deg/s],GZ_raw[deg/s],EX_raw[deg],EY_raw[deg],EZ_raw[deg],MICROSECONDS_PPS_raw[us],cls_raw[-],id_raw[-],len_raw[-],iTOW_raw[ms],year_raw[y],month_raw[month],day_raw[d],hour_raw[h],minute_raw[min],sec_raw[s],valid_raw[-],tAcc_raw[ns],nano_raw[ns],fixType_raw[-],flags_raw[-],flags2_raw[-],numSV_raw[-],lon_raw[10^7 deg],lat_raw[10^7 deg],height_raw[mm],hMSL_raw[mm],hAcc_raw[mm],vAcc_raw[mm],velN_raw[mm/s],velE_raw[mm/s],velD_raw[mm/s],gSpeed_raw[mm/s],headMot_raw[10^5 deg],sAcc_raw[mm/s],headAcc_raw[10^5 deg],pDOP_raw[-],reserved1_raw[-],headVeh_raw[10^5 deg],reserved2_raw[-],ROLL[deg],PITCH[deg],YAW[deg],H_US[-],ELEV[-],RUDD[-],AIR_DATA_EN[-],ENV_DATA_EN[-],IMU_DATA_EN[-],GPS_DATA_EN[-],LOGGING_EN[-],LOGGING_MODE[-],AOA_OFFSET[deg],AOS_OFFSET[deg],DP_GAIN[-],DP_OFFSET[Pa],LPF_DP[-],LPF_SW[-],PS_INIT_VAL[hPa],H_PS_OFFSET[m],LPF_PS[-],LPF_SW[-],AX_OFFSET[m/s^2],AY_OFFSET[m/s^2],AZ_OFFSET[m/s^2],GX_OFFSET[deg/s],GY_OFFSET[deg/s],GZ_OFFSET[deg/s],EX_OFFSET[deg],EY_OFFSET[deg],EZ_OFFSET[deg],LPF_ACC[-],LPF_GYR[-],LPF_ACC_SW[-],LPF_GYR_SW[-],DP_err[-],AOA_err[-],AOS_err[-],T_DP_SENSOR_err[-],DP_GAIN_err[-],DP_OFFSET_err[-],AOA_OFFSET_err[-],AOS_OFFSET_err[-],LPF_DP_err[-],DP_I2C_err[-],AOA_I2C_err[-],AOS_I2C_err[-],SETTING_DATA_READ_err[-],PS_err[-],T_PS_SENSOR_err[-],TAT_err[-],HUM_err[-],PS_INIT_VAL_err[-],H_PS_OFFSET_err[-],H_PS_err[-],RHO_err[-],LPF_PS_err[-],ENV_I2C_err[-],SETTING_DATA_READ_err[-],AX_err[-],AY_err[-],AZ_err[-],GX_err[-],GY_err[-],GZ_err[-],LPF_ACC_err[-],LPF_GYR_err[-],AX_OFFSET_err[-],AY_OFFSET_err[-],AZ_OFFSET_err[-],GX_OFFSET_err[-],GY_OFFSET_err[-],GZ_OFFSET_err[-],EX_OFFSET_err[-],EY_OFFSET_err[-],EZ_OFFSET_err[-],SETTING_DATA_READ_err[-],PPS_INTV_err[-],MEG_INTV_err[-],CHK_SUM_err[-],INIT_err[-],SET_MODE_err[-],SEND_err[-],RECEIVE_err[-],AIRSPEED[m/s],WINDN[m/s],WINDE[m/s],WINDD[m/s],SD_DETECT[-],LOG_NUMBER[-],LOGGING_MODE[-],LOGGING_EN[-],CPU_USED[%],MEMORY_USED[%],
902857,1,902161797,0,4.400000095367432,-1.48583984375,-1.3947334289550781,22.344999313354492,999.3604125976562,2.4757635593414307,21.5953311920166,82.79087829589844,1.1722829341888428,43.25,-0.5395500063896179,-0.16676999628543854,9.888480186462402,0.8399999737739563,-0.41999998688697815,-0.07000000029802322,-0.8750287890434265,3.3492696285247803,152.43873596191406,0,0,0,0,0,2000,1,1,0,0,0,0,0,0,0,0,0,0,0,0,0,0,0,0,0,0,0,0,0,0,0,0,,0,,4.400000095367432,169.82666015625,54.0966796875,22.344999313354492,999.38037109375,0.0,21.5953311920166,82.79087829589844,1.225000023841858,43.25,-0.5395500063896179,-0.16676999628543854,9.888480186462402,0.8399999737739563,-0.41999998688697815,-0.07000000029802322,-0.8750287890434265,3.3492696285247803,152.43873596191406,0,0,0,0,0,2000,1,1,0,0,0,0,0,0,0,0,0,0,0,0,0,0,0,0,0,0,0,0,0,0,0,0,,0,,0.0,0.0,0.0,0,0,0,True,True,True,True,True,1,-171.3125,-55.49141311645508,1.0,0.0,1.0,False,999.638427734375,0.0,0.05000000074505806,True,0.0,0.0,0.0,0.0,0.0,0.0,0.0,0.0,0.0,1.0,1.0,False,False,False,False,False,False,False,False,False,False,False,False,False,False,False,False,False,False,False,False,False,False,False,False,False,False,False,False,False,False,False,False,False,False,False,False,False,False,False,False,False,False,False,False,True,True,False,False,False,True,True,2.739839553833008,0.5133434534072876,-0.3894073963165283,0.13638761639595032,True,3,1,True,76,56,
902918,1,902161797,0,4.166666507720947,-1.4638671875,-1.4606513977050781,22.334999084472656,999.3578491210938,2.4923415184020996,21.6380558013916,82.80155944824219,1.1720842123031616,43.25,-0.6572700142860413,-0.16676999628543854,9.94734001159668,0.41999998688697815,-0.6299999952316284,0.0,-0.8823698163032532,3.4671542644500732,152.43295288085938,0,0,0,0,0,2000,1,1,0,0,0,0,0,0,0,0,0,0,0,0,0,0,0,0,0,0,0,0,0,0,0,0,,0,,4.166666507720947,169.8486328125,54.03076171875,22.334999084472656,999.341064453125,0.0,21.6380558013916,82.80155944824219,1.225000023841858,43.25,-0.6572700142860413,-0.16676999628543854,9.94734001159668,0.41999998688697815,-0.6299999952316284,0.0,-0.8823698163032532,3.4671542644500732,152.43295288085938,0,0,0,0,0,2000,1,1,0,0,0,0,0,0,0,0,0,0,0,0,0,0,0,0,0,0,0,0,0,0,0,0,,0,,0.0,0.0,0.0,0,0,0,True,True,True,True,True,1,-171.3125,-55.49141311645508,1.0,0.0,1.0,False,999.638427734375,0.0,0.05000000074505806,True,0.0,0.0,0.0,0.0,0.0,0.0,0.0,0.0,0.0,1.0,1.0,False,False,False,False,False,False,False,False,False,False,False,False,False,False,False,False,False,False,False,False,False,False,False,False,False,False,False,False,False,False,False,False,False,False,False,False,False,False,False,False,False,False,False,False,True,True,False,False,False,True,True,2.666428565979004,0.4065263569355011,-0.2765626013278961,-0.021528154611587524,True,3,1,True,53,56,
902978,1,902161797,0,4.300000190734863,-1.44189453125,-1.4386787414550781,22.334999084472656,999.3585205078125,2.4918673038482666,21.581979751586914,82.77714538574219,1.1723432540893555,43.2400016784668,-0.5885999798774719,-0.09809999912977219,9.859049797058105,0.5600000023841858,-0.20999999344348907,-0.14000000059604645,-0.7201693654060364,3.3015527725219727,152.4429931640625,0,0,0,0,0,2000,1,1,0,0,0,0,0,0,0,0,0,0,0,0,0,0,0,0,0,0,0,0,0,0,0,0,,0,,4.300000190734863,169.87060546875,54.052734375,22.334999084472656,999.375732421875,0.0,21.581979751586914,82.77714538574219,1.225000023841858,43.2400016784668,-0.5885999798774719,-0.09809999912977219,9.859049797058105,0.5600000023841858,-0.20999999344348907,-0.14000000059604645,-0.7201693654060364,3.3015527725219727,152.4429931640625,0,0,0,0,0,2000,1,1,0,0,0,0,0,0,0,0,0,0,0,0,0,0,0,0,0,0,0,0,0,0,0,0,,0,,0.0,0.0,0.0,0,0,0,True,True,True,True,True,1,-171.3125,-55.49141311645508,1.0,0.0,1.0,False,999.638427734375,0.0,0.05000000074505806,True,0.0,0.0,0.0,0.0,0.0,0.0,0.0,0.0,0.0,1.0,1.0,False,False,False,False,False,False,False,False,False,False,False,False,False,False,False,False,False,False,False,False,False,False,False,False,False,False,False,False,False,False,False,False,False,False,False,False,False,False,False,False,False,False,False,False,True,True,False,False,False,True,True,2.70845627784729,0.494337260723114,-0.29137787222862244,0.04517686367034912,True,3,1,True,53,56,
903038,1,902161797,0,3.866666555404663,-1.4638671875,-1.3947334289550781,22.350000381469727,999.3648071289062,2.4271130561828613,21.5953311920166,82.76951599121094,1.1722917556762695,43.2400016784668,-0.5885999798774719,-0.19619999825954437,9.8100004196167,0.3499999940395355,-0.49000000953674316,0.14000000059604645,-1.0823473930358887,3.4582247734069824,152.4200897216797,0,0,0,0,0,2000,1,1,0,0,0,0,0,0,0,0,0,0,0,0,0,0,0,0,0,0,0,0,0,0,0,0,,0,,3.866666555404663,169.8486328125,54.0966796875,22.350000381469727,999.40185546875,0.0,21.5953311920166,82.76951599121094,1.225000023841858,43.2400016784668,-0.5885999798774719,-0.19619999825954437,9.8100004196167,0.3499999940395355,-0.49000000953674316,0.14000000059604645,-1.0823473930358887,3.4582247734069824,152.4200897216797,0,0,0,0,0,2000,1,1,0,0,0,0,0,0,0,0,0,0,0,0,0,0,0,0,0,0,0,0,0,0,0,0,,0,,0.0,0.0,0.0,0,0,0,True,True,True,True,True,1,-171.3125,-55.49141311645508,1.0,0.0,1.0,False,999.638427734375,0.0,0.05000000074505806,True,0.0,0.0,0.0,0.0,0.0,0.0,0.0,0.0,0.0,1.0,1.0,False,False,False,False,False,False,False,False,False,False,False,False,False,False,False,False,False,False,False,False,False,False,False,False,False,False,False,False,False,False,False,False,False,False,False,False,False,False,False,False,False,False,False,False,True,True,False,False,False,True,True,2.5684168338775635,0.5237855911254883,-0.45553117990493774,-0.012057602405548096,True,3,1,True,53,56,
903098,1,902161797,0,3.799999952316284,-1.5078125,-1.4826240539550781,22.3700008392334,999.3606567382812,2.4648406505584717,21.581979751586914,82.75578308105469,1.172349452972412,43.25,-0.578790009021759,-0.16676999628543854,9.790379524230957,0.8399999737739563,-0.49000000953674316,-0.07000000029802322,-1.054505705833435,3.3961503505706787,152.4196014404297,0,0,0,0,0,2000,1,1,0,0,0,0,0,0,0,0,0,0,0,0,0,0,0,0,0,0,0,0,0,0,0,0,,0,,3.799999952316284,169.8046875,54.0087890625,22.3700008392334,999.361083984375,0.0,21.581979751586914,82.75578308105469,1.225000023841858,43.25,-0.578790009021759,-0.16676999628543854,9.790379524230957,0.8399999737739563,-0.49000000953674316,-0.07000000029802322,-1.054505705833435,3.3961503505706787,152.4196014404297,0,0,0,0,0,2000,1,1,0,0,0,0,0,0,0,0,0,0,0,0,0,0,0,0,0,0,0,0,0,0,0,0,,0,,0.0,0.0,0.0,0,0,0,True,True,True,True,True,1,-171.3125,-55.49141311645508,1.0,0.0,1.0,False,999.638427734375,0.0,0.05000000074505806,True,0.0,0.0,0.0,0.0,0.0,0.0,0.0,0.0,0.0,1.0,1.0,False,False,False,False,False,False,False,False,False,False,False,False,False,False,False,False,False,False,False,False,False,False,False,False,False,False,False,False,False,False,False,False,False,False,False,False,False,False,False,False,False,False,False,False,True,True,False,False,False,True,True,2.546116352081299,0.27411484718322754,-0.21922507882118225,-0.02389872819185257,True,3,1,True,53,56,
903158,1,902161797,0,4.0,-1.44189453125,-1.5485420227050781,22.350000381469727,999.3675537109375,2.404924154281616,21.525901794433594,82.75120544433594,1.172613501548767,43.2599983215332,-0.5395500063896179,-0.14714999496936798,9.878669738769531,0.3499999940395355,-0.2800000011920929,0.0,-0.9970898032188416,3.2850146293640137,152.4209442138672,0,0,0,0,0,2000,1,1,0,0,0,0,0,0,0,0,0,0,0,0,0,0,0,0,0,0,0,0,0,0,0,0,,0,,4.0,169.87060546875,53.94287109375,22.350000381469727,999.300048828125,0.0,21.525901794433594,82.75120544433594,1.225000023841858,43.2599983215332,-0.5395500063896179,-0.14714999496936798,9.878669738769531,0.3499999940395355,-0.2800000011920929,0.0,-0.9970898032188416,3.2850146293640137,152.4209442138672,0,0,0,0,0,2000,1,1,0,0,0,0,0,0,0,0,0,0,0,0,0,0,0,0,0,0,0,0,0,0,0,0,,0,,0.0,0.0,0.0,0,0,0,True,True,True,True,True,1,-171.3125,-55.49141311645508,1.0,0.0,1.0,False,999.638427734375,0.0,0.05000000074505806,True,0.0,0.0,0.0,0.0,0.0,0.0,0.0,0.0,0.0,1.0,1.0,False,False,False,False,False,False,False,False,False,False,False,False,False,False,False,False,False,False,False,False,False,False,False,False,False,False,False,False,False,False,False,False,False,False,False,False,False,False,False,False,False,False,False,False,True,True,False,False,False,True,True,2.611966133117676,0.23258516192436218,-0.10127823799848557,-0.24700389802455902,True,3,1,True,53,56,
903218,1,903161814,0,3.5833332538604736,-1.4638671875,-1.5485420227050781,22.325000762939453,999.365966796875,2.4107871055603027,21.581979751586914,82.72830963134766,1.1723594665527344,43.2599983215332,-0.627839982509613,-0.1373399943113327,9.917909622192383,0.699999988079071,-0.49000000953674316,-0.07000000029802322,-0.7813438773155212,3.6213271617889404,152.43997192382812,0,0,0,0,0,2000,1,1,0,0,0,0,0,0,0,0,0,0,0,0,0,0,0,0,0,0,0,0,0,0,0,0,,0,,3.5833332538604736,169.8486328125,53.94287109375,22.325000762939453,999.2939453125,0.0,21.581979751586914,82.72830963134766,1.225000023841858,43.2599983215332,-0.627839982509613,-0.1373399943113327,9.917909622192383,0.699999988079071,-0.49000000953674316,-0.07000000029802322,-0.7813438773155212,3.6213271617889404,152.43997192382812,0,0,0,0,0,2000,1,1,0,0,0,0,0,0,0,0,0,0,0,0,0,0,0,0,0,0,0,0,0,0,0,0,,0,,0.0,0.0,0.0,0,0,0,True,True,True,True,True,1,-171.3125,-55.49141311645508,1.0,0.0,1.0,False,999.638427734375,0.0,0.05000000074505806,True,0.0,0.0,0.0,0.0,0.0,0.0,0.0,0.0,0.0,1.0,1.0,False,False,False,False,False,False,False,False,False,False,False,False,False,False,False,False,False,False,False,False,False,False,False,False,False,False,False,False,False,False,False,False,False,False,False,False,False,False,False,False,False,False,False,False,True,True,False,False,False,True,True,2.4724538326263428,0.23052969574928284,-0.1248696893453598,-0.1276472955942154,True,3,1,True,53,56,
903278,1,903161814,0,3.566666603088379,-1.5517578125,-1.5265693664550781,22.354999542236328,999.36865234375,2.3886029720306396,21.512550354003906,82.74967193603516,1.1726768016815186,43.25,-0.5885999798774719,-0.11772000044584274,9.859049797058105,0.5600000023841858,-0.699999988079071,-0.07000000029802322,-0.773551881313324,3.4697916507720947,152.43325805664062,0,0,0,0,0,2000,1,1,0,0,0,0,0,0,0,0,0,0,0,0,0,0,0,0,0,0,0,0,0,0,0,0,,0,,3.566666603088379,169.7607421875,53.96484375,22.354999542236328,999.417724609375,0.0,21.512550354003906,82.74967193603516,1.225000023841858,43.25,-0.5885999798774719,-0.11772000044584274,9.859049797058105,0.5600000023841858,-0.699999988079071,-0.07000000029802322,-0.773551881313324,3.4697916507720947,152.43325805664062,0,0,0,0,0,2000,1,1,0,0,0,0,0,0,0,0,0,0,0,0,0,0,0,0,0,0,0,0,0,0,0,0,,0,,0.0,0.0,0.0,0,0,0,True,True,True,True,True,1,-171.3125,-55.49141311645508,1.0,0.0,1.0,False,999.638427734375,0.0,0.05000000074505806,True,0.0,0.0,0.0,0.0,0.0,0.0,0.0,0.0,0.0,1.0,1.0,False,False,False,False,False,False,False,False,False,False,False,False,False,False,False,False,False,False,False,False,False,False,False,False,False,False,False,False,False,False,False,False,False,False,False,False,False,False,False,False,False,False,False,False,True,True,False,False,False,True,True,2.4663634300231934,0.10866116732358932,-0.06563542783260345,0.043481774628162384,True,3,1,True,53,56,
903338,1,903161814,0,3.75,-1.595703125,-1.4826240539550781,22.329999923706055,999.3713989257812,2.367093801498413,21.525901794433594,82.7328872680664,1.1726207733154297,43.2599983215332,-0.627839982509613,-0.11772000044584274,9.927720069885254,0.20999999344348907,-0.41999998688697815,0.07000000029802322,-0.6770778298377991,3.528015613555908,152.44107055664062,0,0,0,0,0,2000,1,1,0,0,0,0,0,0,0,0,0,0,0,0,0,0,0,0,0,0,0,0,0,0,0,0,,0,,3.75,169.716796875,54.0087890625,22.329999923706055,999.358642578125,0.0,21.525901794433594,82.7328872680664,1.225000023841858,43.2599983215332,-0.627839982509613,-0.11772000044584274,9.927720069885254,0.20999999344348907,-0.41999998688697815,0.07000000029802322,-0.6770778298377991,3.528015613555908,152.44107055664062,0,0,0,0,0,2000,1,1,0,0,0,0,0,0,0,0,0,0,0,0,0,0,0,0,0,0,0,0,0,0,0,0,,0,,0.0,0.0,0.0,0,0,0,True,True,True,True,True,1,-171.3125,-55.49141311645508,1.0,0.0,1.0,False,999.638427734375,0.0,0.05000000074505806,True,0.0,0.0,0.0,0.0,0.0,0.0,0.0,0.0,0.0,1.0,1.0,False,False,False,False,False,False,False,False,False,False,False,False,False,False,False,False,False,False,False,False,False,False,False,False,False,False,False,False,False,False,False,False,False,False,False,False,False,False,False,False,False,False,False,False,True,True,False,False,False,True,True,2.529017448425293,0.0840417742729187,-0.05038130655884743,0.19504375755786896,True,3,1,True,53,56,
903398,1,903161814,0,3.383333444595337,-1.57373046875,-1.5485420227050781,22.344999313354492,999.3701171875,2.372605562210083,21.53925323486328,82.75578308105469,1.1725565195083618,43.2599983215332,-0.6572700142860413,-0.14714999496936798,9.878669738769531,0.14000000059604645,-0.49000000953674316,-0.20999999344348907,-0.9495183825492859,3.4445743560791016,152.418701171875,0,0,0,0,0,2000,1,1,0,0,0,0,0,0,0,0,0,0,0,0,0,0,0,0,0,0,0,0,0,0,0,0,,0,,3.383333444595337,169.73876953125,53.94287109375,22.344999313354492,999.3125,0.0,21.53925323486328,82.75578308105469,1.225000023841858,43.2599983215332,-0.6572700142860413,-0.14714999496936798,9.878669738769531,0.14000000059604645,-0.49000000953674316,-0.20999999344348907,-0.9495183825492859,3.4445743560791016,152.418701171875,0,0,0,0,0,2000,1,1,0,0,0,0,0,0,0,0,0,0,0,0,0,0,0,0,0,0,0,0,0,0,0,0,,0,,0.0,0.0,0.0,0,0,0,True,True,True,True,True,1,-171.3125,-55.49141311645508,1.0,0.0,1.0,False,999.638427734375,0.0,0.05000000074505806,True,0.0,0.0,0.0,0.0,0.0,0.0,0.0,0.0,0.0,1.0,1.0,False,False,False,False,False,False,False,False,False,False,False,False,False,False,False,False,False,False,False,False,False,False,False,False,False,False,False,False,False,False,False,False,False,False,False,False,False,False,False,False,False,False,False,False,True,True,False,False,False,True,True,2.4022626876831055,0.03873996436595917,-0.03207005560398102,0.035120368003845215,True,3,1,True,53,56,
903458,1,903161814,0,3.0999999046325684,-1.5078125,-1.5485420227050781,22.325000762939453,999.36376953125,2.4211370944976807,21.525901794433594,82.75120544433594,1.172611117362976,43.2599983215332,-0.5101199746131897,-0.15695999562740326,9.888480186462402,0.20999999344348907,-0.49000000953674316,0.20999999344348907,-0.9056412577629089,3.1783862113952637,152.42401123046875,0,0,0,0,0,2000,1,1,0,0,0,0,0,0,0,0,0,0,0,0,0,0,0,0,0,0,0,0,0,0,0,0,,0,,3.0999999046325684,169.8046875,53.94287109375,22.325000762939453,999.2939453125,0.0,21.525901794433594,82.75120544433594,1.225000023841858,43.2599983215332,-0.5101199746131897,-0.15695999562740326,9.888480186462402,0.20999999344348907,-0.49000000953674316,0.20999999344348907,-0.9056412577629089,3.1783862113952637,152.42401123046875,0,0,0,0,0,2000,1,1,0,0,0,0,0,0,0,0,0,0,0,0,0,0,0,0,0,0,0,0,0,0,0,0,,0,,0.0,0.0,0.0,0,0,0,True,True,True,True,True,1,-171.3125,-55.49141311645508,1.0,0.0,1.0,False,999.638427734375,0.0,0.05000000074505806,True,0.0,0.0,0.0,0.0,0.0,0.0,0.0,0.0,0.0,1.0,1.0,False,False,False,False,False,False,False,False,False,False,False,False,False,False,False,False,False,False,False,False,False,False,False,False,False,False,False,False,False,False,False,False,False,False,False,False,False,False,False,False,False,False,False,False,True,True,False,False,False,True,True,2.2994227409362793,0.12962891161441803,-0.051419131457805634,-0.08215757459402084,True,3,1,True,53,56,
903518,1,903161814,0,2.9666666984558105,-1.52978515625,-1.5045967102050781,22.350000381469727,999.3644409179688,2.416761636734009,21.65140724182129,82.77714538574219,1.17203688621521,43.2599983215332,-0.6572700142860413,-0.14714999496936798,9.878669738769531,0.2800000011920929,-0.5600000023841858,0.0,-0.9418100714683533,3.421802520751953,152.42144775390625,0,0,0,0,0,2000,1,1,0,0,0,0,0,0,0,0,0,0,0,0,0,0,0,0,0,0,0,0,0,0,0,0,,0,,2.9666666984558105,169.78271484375,53.98681640625,22.350000381469727,999.364990234375,0.0,21.65140724182129,82.77714538574219,1.225000023841858,43.2599983215332,-0.6572700142860413,-0.14714999496936798,9.878669738769531,0.2800000011920929,-0.5600000023841858,0.0,-0.9418100714683533,3.421802520751953,152.42144775390625,0,0,0,0,0,2000,1,1,0,0,0,0,0,0,0,0,0,0,0,0,0,0,0,0,0,0,0,0,0,0,0,0,,0,,0.0,0.0,0.0,0,0,0,True,True,True,True,True,1,-171.3125,-55.49141311645508,1.0,0.0,1.0,False,999.638427734375,0.0,0.05000000074505806,True,0.0,0.0,0.0,0.0,0.0,0.0,0.0,0.0,0.0,1.0,1.0,False,False,False,False,False,False,False,False,False,False,False,False,False,False,False,False,False,False,False,False,False,False,False,False,False,False,False,False,False,False,False,False,False,False,False,False,False,False,False,False,False,False,False,False,True,True,False,False,False,True,True,2.2499804496765137,0.1742728054523468,-0.12525984644889832,0.014239437878131866,True,3,1,True,53,56,
903579,1,903161814,0,3.4166667461395264,-1.48583984375,-1.6144599914550781,22.325000762939453,999.3661499023438,2.4101099967956543,21.49919891357422,82.67642974853516,1.172743558883667,43.2599983215332,-0.6474599838256836,-0.1863899976015091,9.966959953308105,0.3499999940395355,-0.41999998688697815,-0.2800000011920929,-1.0101420879364014,3.606945753097534,152.39968872070312,0,0,0,0,0,2000,1,1,0,0,0,0,0,0,0,0,0,0,0,0,0,0,0,0,0,0,0,0,0,0,0,0,,0,,3.4166667461395264,169.82666015625,53.876953125,22.325000762939453,999.410400390625,0.0,21.49919891357422,82.67642974853516,1.225000023841858,43.2599983215332,-0.6474599838256836,-0.1863899976015091,9.966959953308105,0.3499999940395355,-0.41999998688697815,-0.2800000011920929,-1.0101420879364014,3.606945753097534,152.39968872070312,0,0,0,0,0,2000,1,1,0,0,0,0,0,0,0,0,0,0,0,0,0,0,0,0,0,0,0,0,0,0,0,0,,0,,0.0,0.0,0.0,0,0,0,True,True,True,True,True,1,-171.3125,-55.49141311645508,1.0,0.0,1.0,False,999.638427734375,0.0,0.05000000074505806,True,0.0,0.0,0.0,0.0,0.0,0.0,0.0,0.0,0.0,1.0,1.0,False,False,False,False,False,False,False,False,False,False,False,False,False,False,False,False,False,False,False,False,False,False,False,False,False,False,False,False,False,False,False,False,False,False,False,False,False,False,False,False,False,False,False,False,True,True,False,False,False,True,True,2.413875102996826,0.02296440303325653,-0.009443245828151703,-0.20877674221992493,True,3,1,True,53,56,
903639,1,903161814,0,3.4666666984558105,-1.52978515625,-1.5924873352050781,22.329999923706055,999.3663330078125,2.404924154281616,21.525901794433594,82.7237319946289,1.1726163625717163,43.2599983215332,-0.47088000178337097,-0.1863899976015091,9.83942985534668,0.2800000011920929,-0.3499999940395355,0.0,-1.0659189224243164,3.358780860900879,152.39700317382812,0,0,0,0,0,2000,1,1,0,0,0,0,0,0,0,0,0,0,0,0,0,0,0,0,0,0,0,0,0,0,0,0,,0,,3.4666666984558105,169.78271484375,53.89892578125,22.329999923706055,999.383544921875,0.0,21.525901794433594,82.7237319946289,1.225000023841858,43.2599983215332,-0.47088000178337097,-0.1863899976015091,9.83942985534668,0.2800000011920929,-0.3499999940395355,0.0,-1.0659189224243164,3.358780860900879,152.39700317382812,0,0,0,0,0,2000,1,1,0,0,0,0,0,0,0,0,0,0,0,0,0,0,0,0,0,0,0,0,0,0,0,0,,0,,0.0,0.0,0.0,0,0,0,True,True,True,True,True,1,-171.3125,-55.49141311645508,1.0,0.0,1.0,False,999.638427734375,0.0,0.05000000074505806,True,0.0,0.0,0.0,0.0,0.0,0.0,0.0,0.0,0.0,1.0,1.0,False,False,False,False,False,False,False,False,False,False,False,False,False,False,False,False,False,False,False,False,False,False,False,False,False,False,False,False,False,False,False,False,False,False,False,False,False,False,False,False,False,False,False,False,True,True,False,False,False,True,True,2.431605339050293,0.002749301493167877,0.022496793419122696,-0.11054247617721558,True,3,1,True,53,56,
903699,1,903161814,0,2.933333396911621,-1.5517578125,-1.4826240539550781,22.354999542236328,999.3643188476562,2.415973663330078,21.555274963378906,82.73136138916016,1.1724804639816284,43.2599983215332,-0.7161300182342529,-0.19619999825954437,9.84924030303955,0.20999999344348907,-0.41999998688697815,-0.20999999344348907,-0.9735878705978394,3.5079634189605713,152.39210510253906,0,0,0,0,0,2000,1,1,0,0,0,0,0,0,0,0,0,0,0,0,0,0,0,0,0,0,0,0,0,0,0,0,,0,,2.933333396911621,169.7607421875,54.0087890625,22.354999542236328,999.39599609375,0.0,21.555274963378906,82.73136138916016,1.225000023841858,43.2599983215332,-0.7161300182342529,-0.19619999825954437,9.84924030303955,0.20999999344348907,-0.41999998688697815,-0.20999999344348907,-0.9735878705978394,3.5079634189605713,152.39210510253906,0,0,0,0,0,2000,1,1,0,0,0,0,0,0,0,0,0,0,0,0,0,0,0,0,0,0,0,0,0,0,0,0,,0,,0.0,0.0,0.0,0,0,0,True,True,True,True,True,1,-171.3125,-55.49141311645508,1.0,0.0,1.0,False,999.638427734375,0.0,0.05000000074505806,True,0.0,0.0,0.0,0.0,0.0,0.0,0.0,0.0,0.0,1.0,1.0,False,False,False,False,False,False,False,False,False,False,False,False,False,False,False,False,False,False,False,False,False,False,False,False,False,False,False,False,False,False,False,False,False,False,False,False,False,False,False,False,False,False,False,False,True,True,False,False,False,True,True,2.2368810176849365,0.1860603392124176,-0.1397949755191803,0.0719912052154541,True,3,1,True,53,56,
903759,1,903161814,0,3.0,-1.52978515625,-1.5045967102050781,22.315000534057617,999.3621826171875,2.437924385070801,21.5953311920166,82.73136138916016,1.172295093536377,43.2599983215332,-0.5199300050735474,-0.1373399943113327,9.74133014678955,0.6299999952316284,-0.5600000023841858,-0.14000000059604645,-0.8071202635765076,3.22141695022583,152.3998260498047,0,0,0,0,0,2000,1,1,0,0,0,0,0,0,0,0,0,0,0,0,0,0,0,0,0,0,0,0,0,0,0,0,,0,,3.0,169.78271484375,53.98681640625,22.315000534057617,999.410400390625,0.0,21.5953311920166,82.73136138916016,1.225000023841858,43.2599983215332,-0.5199300050735474,-0.1373399943113327,9.74133014678955,0.6299999952316284,-0.5600000023841858,-0.14000000059604645,-0.8071202635765076,3.22141695022583,152.3998260498047,0,0,0,0,0,2000,1,1,0,0,0,0,0,0,0,0,0,0,0,0,0,0,0,0,0,0,0,0,0,0,0,0,,0,,0.0,0.0,0.0,0,0,0,True,True,True,True,True,1,-171.3125,-55.49141311645508,1.0,0.0,1.0,False,999.638427734375,0.0,0.05000000074505806,True,0.0,0.0,0.0,0.0,0.0,0.0,0.0,0.0,0.0,1.0,1.0,False,False,False,False,False,False,False,False,False,False,False,False,False,False,False,False,False,False,False,False,False,False,False,False,False,False,False,False,False,False,False,False,False,False,False,False,False,False,False,False,False,False,False,False,True,True,False,False,False,True,True,2.262336254119873,0.1720258593559265,-0.11323270201683044,0.036935314536094666,True,3,1,True,53,56,
903819,1,903161814,0,3.1666667461395264,-1.6396484375,-1.5265693664550781,22.354999542236328,999.3635864257812,2.427574872970581,21.65140724182129,82.81529235839844,1.1720309257507324,43.27000045776367,-0.48069000244140625,-0.1863899976015091,9.819809913635254,0.2800000011920929,-0.2800000011920929,0.07000000029802322,-0.879408597946167,3.4289166927337646,152.3926544189453,0,0,0,0,0,2000,1,1,0,0,0,0,0,0,0,0,0,0,0,0,0,0,0,0,0,0,0,0,0,0,0,0,,0,,3.1666667461395264,169.6728515625,53.96484375,22.354999542236328,999.332275390625,0.0,21.65140724182129,82.81529235839844,1.225000023841858,43.27000045776367,-0.48069000244140625,-0.1863899976015091,9.819809913635254,0.2800000011920929,-0.2800000011920929,0.07000000029802322,-0.879408597946167,3.4289166927337646,152.3926544189453,0,0,0,0,0,2000,1,1,0,0,0,0,0,0,0,0,0,0,0,0,0,0,0,0,0,0,0,0,0,0,0,0,,0,,0.0,0.0,0.0,0,0,0,True,True,True,True,True,1,-171.3125,-55.49141311645508,1.0,0.0,1.0,False,999.638427734375,0.0,0.05000000074505806,True,0.0,0.0,0.0,0.0,0.0,0.0,0.0,0.0,0.0,1.0,1.0,False,False,False,False,False,False,False,False,False,False,False,False,False,False,False,False,False,False,False,False,False,False,False,False,False,False,False,False,False,False,False,False,False,False,False,False,False,False,False,False,False,False,False,False,True,True,False,False,False,True,True,2.3245913982391357,-0.024405211210250854,-0.016205832362174988,0.1787269562482834,True,3,1,True,53,56,
903879,1,903161814,0,3.066666603088379,-1.57373046875,-1.4606513977050781,22.299999237060547,999.363525390625,2.4271130561828613,21.5953311920166,82.82902526855469,1.1722853183746338,43.27000045776367,-0.7161300182342529,-0.1373399943113327,9.908100128173828,0.3499999940395355,-0.699999988079071,0.14000000059604645,-0.7734557390213013,3.6332461833953857,152.408447265625,0,0,0,0,0,2000,1,1,0,0,0,0,0,0,0,0,0,0,0,0,0,0,0,0,0,0,0,0,0,0,0,0,,0,,3.066666603088379,169.73876953125,54.03076171875,22.299999237060547,999.3076171875,0.0,21.5953311920166,82.82902526855469,1.225000023841858,43.27000045776367,-0.7161300182342529,-0.1373399943113327,9.908100128173828,0.3499999940395355,-0.699999988079071,0.14000000059604645,-0.7734557390213013,3.6332461833953857,152.408447265625,0,0,0,0,0,2000,1,1,0,0,0,0,0,0,0,0,0,0,0,0,0,0,0,0,0,0,0,0,0,0,0,0,,0,,0.0,0.0,0.0,0,0,0,True,True,True,True,True,1,-171.3125,-55.49141311645508,1.0,0.0,1.0,False,999.638427734375,0.0,0.05000000074505806,True,0.0,0.0,0.0,0.0,0.0,0.0,0.0,0.0,0.0,1.0,1.0,False,False,False,False,False,False,False,False,False,False,False,False,False,False,False,False,False,False,False,False,False,False,False,False,False,False,False,False,False,False,False,False,False,False,False,False,False,False,False,False,False,False,False,False,True,True,False,False,False,True,True,2.2873446941375732,0.16711780428886414,-0.08760301023721695,0.16234950721263885,True,3,1,True,53,56,
903939,1,903161814,0,3.0999999046325684,-1.57373046875,-1.5485420227050781,22.31999969482422,999.3588256835938,2.4653096199035645,21.6380558013916,82.75425720214844,1.172093391418457,43.27000045776367,-0.5199300050735474,-0.16676999628543854,9.888480186462402,0.49000000953674316,-0.49000000953674316,0.14000000059604645,-0.9218778014183044,3.3892717361450195,152.39987182617188,0,0,0,0,0,2000,1,1,0,0,0,0,0,0,0,0,0,0,0,0,0,0,0,0,0,0,0,0,0,0,0,0,,0,,3.0999999046325684,169.73876953125,53.94287109375,22.31999969482422,999.40478515625,0.0,21.6380558013916,82.75425720214844,1.225000023841858,43.27000045776367,-0.5199300050735474,-0.16676999628543854,9.888480186462402,0.49000000953674316,-0.49000000953674316,0.14000000059604645,-0.9218778014183044,3.3892717361450195,152.39987182617188,0,0,0,0,0,2000,1,1,0,0,0,0,0,0,0,0,0,0,0,0,0,0,0,0,0,0,0,0,0,0,0,0,,0,,0.0,0.0,0.0,0,0,0,True,True,True,True,True,1,-171.3125,-55.49141311645508,1.0,0.0,1.0,False,999.638427734375,0.0,0.05000000074505806,True,0.0,0.0,0.0,0.0,0.0,0.0,0.0,0.0,0.0,1.0,1.0,False,False,False,False,False,False,False,False,False,False,False,False,False,False,False,False,False,False,False,False,False,False,False,False,False,False,False,False,False,False,False,False,False,False,False,False,False,False,False,False,False,False,False,False,True,True,False,False,False,True,True,2.2999305725097656,0.03638438507914543,-0.031580600887537,0.03515934199094772,True,3,1,True,53,56,
903999,1,903161814,0,2.950000047683716,-1.5517578125,-1.4606513977050781,22.34000015258789,999.3587036132812,2.4650862216949463,21.611352920532227,82.7359390258789,1.1722174882888794,43.27000045776367,-0.6082199811935425,-0.21581999957561493,9.888480186462402,0.20999999344348907,-0.6299999952316284,0.2800000011920929,-1.0047531127929688,3.4011003971099854,152.4001922607422,0,0,0,0,0,2000,1,1,0,0,0,0,0,0,0,0,0,0,0,0,0,0,0,0,0,0,0,0,0,0,0,0,,0,,2.950000047683716,169.7607421875,54.03076171875,22.34000015258789,999.357177734375,0.0,21.611352920532227,82.7359390258789,1.225000023841858,43.27000045776367,-0.6082199811935425,-0.21581999957561493,9.888480186462402,0.20999999344348907,-0.6299999952316284,0.2800000011920929,-1.0047531127929688,3.4011003971099854,152.4001922607422,0,0,0,0,0,2000,1,1,0,0,0,0,0,0,0,0,0,0,0,0,0,0,0,0,0,0,0,0,0,0,0,0,,0,,0.0,0.0,0.0,0,0,0,True,True,True,True,True,1,-171.3125,-55.49141311645508,1.0,0.0,1.0,False,999.638427734375,0.0,0.05000000074505806,True,0.0,0.0,0.0,0.0,0.0,0.0,0.0,0.0,0.0,1.0,1.0,False,False,False,False,False,False,False,False,False,False,False,False,False,False,False,False,False,False,False,False,False,False,False,False,False,False,False,False,False,False,False,False,False,False,False,False,False,False,False,False,False,False,False,False,True,True,False,False,False,True,True,2.243478536605835,0.23008275032043457,-0.18855562806129456,0.09437814354896545,True,3,1,True,53,56,
904059,1,903161814,0,2.7666666507720947,-1.5078125,-1.3288154602050781,22.350000381469727,999.3602294921875,2.4481587409973145,21.525901794433594,82.76341247558594,1.1726062297821045,43.279998779296875,-0.6965100169181824,-0.08828999847173691,9.917909622192383,0.3499999940395355,-0.699999988079071,-0.14000000059604645,-0.9324385523796082,3.5255980491638184,152.4076385498047,0,0,0,0,0,2000,1,1,0,0,0,0,0,0,0,0,0,0,0,0,0,0,0,0,0,0,0,0,0,0,0,0,,0,,2.7666666507720947,169.8046875,54.16259765625,22.350000381469727,999.289306640625,0.0,21.525901794433594,82.76341247558594,1.225000023841858,43.279998779296875,-0.6965100169181824,-0.08828999847173691,9.917909622192383,0.3499999940395355,-0.699999988079071,-0.14000000059604645,-0.9324385523796082,3.5255980491638184,152.4076385498047,0,0,0,0,0,2000,1,1,0,0,0,0,0,0,0,0,0,0,0,0,0,0,0,0,0,0,0,0,0,0,0,0,,0,,0.0,0.0,0.0,0,0,0,True,True,True,True,True,1,-171.3125,-55.49141311645508,1.0,0.0,1.0,False,999.638427734375,0.0,0.05000000074505806,True,0.0,0.0,0.0,0.0,0.0,0.0,0.0,0.0,0.0,1.0,1.0,False,False,False,False,False,False,False,False,False,False,False,False,False,False,False,False,False,False,False,False,False,False,False,False,False,False,False,False,False,False,False,False,False,False,False,False,False,False,False,False,False,False,False,False,True,True,False,False,False,True,True,2.1722874641418457,0.4940527081489563,-0.37443527579307556,0.20045050978660583,True,3,1,True,53,56,
904119,1,903161814,0,2.9000000953674316,-1.52978515625,-1.3068428039550781,22.315000534057617,999.36328125,2.4211370944976807,21.525901794433594,82.80155944824219,1.172605276107788,43.2599983215332,-0.5003100037574768,-0.19619999825954437,9.986579895019531,0.49000000953674316,-0.14000000059604645,0.0,-1.009555697441101,3.274176836013794,152.3951416015625,0,0,0,0,0,2000,1,1,0,0,0,0,0,0,0,0,0,0,0,0,0,0,0,0,0,0,0,0,0,0,0,0,,0,,2.9000000953674316,169.78271484375,54.1845703125,22.315000534057617,999.32958984375,0.0,21.525901794433594,82.80155944824219,1.225000023841858,43.2599983215332,-0.5003100037574768,-0.19619999825954437,9.986579895019531,0.49000000953674316,-0.14000000059604645,0.0,-1.009555697441101,3.274176836013794,152.3951416015625,0,0,0,0,0,2000,1,1,0,0,0,0,0,0,0,0,0,0,0,0,0,0,0,0,0,0,0,0,0,0,0,0,,0,,0.0,0.0,0.0,0,0,0,True,True,True,True,True,1,-171.3125,-55.49141311645508,1.0,0.0,1.0,False,999.638427734375,0.0,0.05000000074505806,True,0.0,0.0,0.0,0.0,0.0,0.0,0.0,0.0,0.0,1.0,1.0,False,False,False,False,False,False,False,False,False,False,False,False,False,False,False,False,False,False,False,False,False,False,False,False,False,False,False,False,False,False,False,False,False,False,False,False,False,False,False,False,False,False,False,False,True,True,False,False,False,True,True,2.2240169048309326,0.5372552275657654,-0.4845788776874542,0.23513618111610413,True,3,1,True,53,56,
904179,1,904161831,0,2.5833332538604736,-1.57373046875,-1.2628974914550781,22.354999542236328,999.360107421875,2.4482696056365967,21.53925323486328,82.7176284790039,1.172550916671753,43.27000045776367,-0.6180300116539001,-0.12752999365329742,9.976770401000977,0.3499999940395355,-0.6299999952316284,0.0,-0.8321173191070557,3.4110968112945557,152.4044647216797,0,0,0,0,0,2000,1,1,0,0,0,0,0,0,0,0,0,0,0,0,0,0,0,0,0,0,0,0,0,0,0,0,,0,,2.5833332538604736,169.73876953125,54.228515625,22.354999542236328,999.318359375,0.0,21.53925323486328,82.7176284790039,1.225000023841858,43.27000045776367,-0.6180300116539001,-0.12752999365329742,9.976770401000977,0.3499999940395355,-0.6299999952316284,0.0,-0.8321173191070557,3.4110968112945557,152.4044647216797,0,0,0,0,0,2000,1,1,0,0,0,0,0,0,0,0,0,0,0,0,0,0,0,0,0,0,0,0,0,0,0,0,,0,,0.0,0.0,0.0,0,0,0,True,True,True,True,True,1,-171.3125,-55.49141311645508,1.0,0.0,1.0,False,999.638427734375,0.0,0.05000000074505806,True,0.0,0.0,0.0,0.0,0.0,0.0,0.0,0.0,0.0,1.0,1.0,False,False,False,False,False,False,False,False,False,False,False,False,False,False,False,False,False,False,False,False,False,False,False,False,False,False,False,False,False,False,False,False,False,False,False,False,False,False,False,False,False,False,False,False,True,True,False,False,False,True,True,2.099130153656006,0.46171659231185913,-0.3529547452926636,0.41655412316322327,True,3,1,True,53,56,
904240,1,904161831,0,2.7333333492279053,-1.52978515625,-1.3068428039550781,22.3799991607666,999.3616333007812,2.4377033710479736,21.568628311157227,82.67337799072266,1.1724234819412231,43.27000045776367,-0.6180300116539001,-0.19619999825954437,9.898289680480957,0.49000000953674316,-0.9100000262260437,-0.07000000029802322,-1.1315181255340576,3.56478214263916,152.37774658203125,0,0,0,0,0,2000,1,1,0,0,0,0,0,0,0,0,0,0,0,0,0,0,0,0,0,0,0,0,0,0,0,0,,0,,2.7333333492279053,169.78271484375,54.1845703125,22.3799991607666,999.400634765625,0.0,21.568628311157227,82.67337799072266,1.225000023841858,43.27000045776367,-0.6180300116539001,-0.19619999825954437,9.898289680480957,0.49000000953674316,-0.9100000262260437,-0.07000000029802322,-1.1315181255340576,3.56478214263916,152.37774658203125,0,0,0,0,0,2000,1,1,0,0,0,0,0,0,0,0,0,0,0,0,0,0,0,0,0,0,0,0,0,0,0,0,,0,,0.0,0.0,0.0,0,0,0,True,True,True,True,True,1,-171.3125,-55.49141311645508,1.0,0.0,1.0,False,999.638427734375,0.0,0.05000000074505806,True,0.0,0.0,0.0,0.0,0.0,0.0,0.0,0.0,0.0,1.0,1.0,False,False,False,False,False,False,False,False,False,False,False,False,False,False,False,False,False,False,False,False,False,False,False,False,False,False,False,False,False,False,False,False,False,False,False,False,False,False,False,False,False,False,False,False,True,True,False,False,False,True,True,2.159330129623413,0.5452916026115417,-0.46432358026504517,0.1572307050228119,True,3,1,True,53,56,
904300,1,904161831,0,2.633333444595337,-1.52978515625,-1.3068428039550781,22.350000381469727,999.36279296875,2.4217076301574707,21.5953311920166,82.7420425415039,1.1722955703735352,43.27000045776367,-0.5199300050735474,-0.17657999694347382,9.94734001159668,0.3499999940395355,-0.41999998688697815,0.0,-0.9866979718208313,3.013231039047241,152.3953857421875,0,0,0,0,0,2000,1,1,0,0,0,0,0,0,0,0,0,0,0,0,0,0,0,0,0,0,0,0,0,0,0,0,,0,,2.633333444595337,169.78271484375,54.1845703125,22.350000381469727,999.353515625,0.0,21.5953311920166,82.7420425415039,1.225000023841858,43.27000045776367,-0.5199300050735474,-0.17657999694347382,9.94734001159668,0.3499999940395355,-0.41999998688697815,0.0,-0.9866979718208313,3.013231039047241,152.3953857421875,0,0,0,0,0,2000,1,1,0,0,0,0,0,0,0,0,0,0,0,0,0,0,0,0,0,0,0,0,0,0,0,0,,0,,0.0,0.0,0.0,0,0,0,True,True,True,True,True,1,-171.3125,-55.49141311645508,1.0,0.0,1.0,False,999.638427734375,0.0,0.05000000074505806,True,0.0,0.0,0.0,0.0,0.0,0.0,0.0,0.0,0.0,1.0,1.0,False,False,False,False,False,False,False,False,False,False,False,False,False,False,False,False,False,False,False,False,False,False,False,False,False,False,False,False,False,False,False,False,False,False,False,False,False,False,False,False,False,False,False,False,True,True,False,False,False,True,True,2.1195778846740723,0.5084663033485413,-0.5145562291145325,0.22987490892410278,True,3,1,True,53,56,
904360,1,904161831,0,3.0166666507720947,-1.5078125,-1.2848701477050781,22.360000610351562,999.3641967773438,2.4205665588378906,21.45647430419922,82.75425720214844,1.1729280948638916,43.27000045776367,-0.6376500129699707,-0.14714999496936798,9.84924030303955,0.0,-0.5600000023841858,0.20999999344348907,-0.9859536290168762,3.56443190574646,152.3983154296875,0,0,0,0,0,2000,1,1,0,0,0,0,0,0,0,0,0,0,0,0,0,0,0,0,0,0,0,0,0,0,0,0,,0,,3.0166666507720947,169.8046875,54.20654296875,22.360000610351562,999.3369140625,0.0,21.45647430419922,82.75425720214844,1.225000023841858,43.27000045776367,-0.6376500129699707,-0.14714999496936798,9.84924030303955,0.0,-0.5600000023841858,0.20999999344348907,-0.9859536290168762,3.56443190574646,152.3983154296875,0,0,0,0,0,2000,1,1,0,0,0,0,0,0,0,0,0,0,0,0,0,0,0,0,0,0,0,0,0,0,0,0,,0,,0.0,0.0,0.0,0,0,0,True,True,True,True,True,1,-171.3125,-55.49141311645508,1.0,0.0,1.0,False,999.638427734375,0.0,0.05000000074505806,True,0.0,0.0,0.0,0.0,0.0,0.0,0.0,0.0,0.0,1.0,1.0,False,False,False,False,False,False,False,False,False,False,False,False,False,False,False,False,False,False,False,False,False,False,False,False,False,False,False,False,False,False,False,False,False,False,False,False,False,False,False,False,False,False,False,False,True,True,False,False,False,True,True,2.2679996490478516,0.6057270765304565,-0.47337859869003296,0.23379074037075043,True,3,1,True,53,56,
904420,1,904161831,0,2.566666603088379,-1.52978515625,-1.2848701477050781,22.354999542236328,999.3623657226562,2.4259696006774902,21.45647430419922,82.68253326416016,1.1729352474212646,43.27000045776367,-0.6180300116539001,-0.16676999628543854,9.780570030212402,0.41999998688697815,-0.49000000953674316,-0.2800000011920929,-0.9048540592193604,3.3653221130371094,152.39439392089844,0,0,0,0,0,2000,1,1,0,0,0,0,0,0,0,0,0,0,0,0,0,0,0,0,0,0,0,0,0,0,0,0,,0,,2.566666603088379,169.78271484375,54.20654296875,22.354999542236328,999.339111328125,0.0,21.45647430419922,82.68253326416016,1.225000023841858,43.27000045776367,-0.6180300116539001,-0.16676999628543854,9.780570030212402,0.41999998688697815,-0.49000000953674316,-0.2800000011920929,-0.9048540592193604,3.3653221130371094,152.39439392089844,0,0,0,0,0,2000,1,1,0,0,0,0,0,0,0,0,0,0,0,0,0,0,0,0,0,0,0,0,0,0,0,0,,0,,0.0,0.0,0.0,0,0,0,True,True,True,True,True,1,-171.3125,-55.49141311645508,1.0,0.0,1.0,False,999.638427734375,0.0,0.05000000074505806,True,0.0,0.0,0.0,0.0,0.0,0.0,0.0,0.0,0.0,1.0,1.0,False,False,False,False,False,False,False,False,False,False,False,False,False,False,False,False,False,False,False,False,False,False,False,False,False,False,False,False,False,False,False,False,False,False,False,False,False,False,False,False,False,False,False,False,True,True,False,False,False,True,True,2.0920050144195557,0.5130656361579895,-0.42194151878356934,0.2974171042442322,True,3,1,True,53,56,
904480,1,904161831,0,2.6666667461395264,-1.52978515625,-1.2628974914550781,22.364999771118164,999.37109375,2.3511152267456055,21.555274963378906,82.6810073852539,1.1724950075149536,43.279998779296875,-0.47088000178337097,-0.14714999496936798,9.780570030212402,0.3499999940395355,-0.2800000011920929,0.14000000059604645,-0.7606652975082397,3.2028446197509766,152.40440368652344,0,0,0,0,0,2000,1,1,0,0,0,0,0,0,0,0,0,0,0,0,0,0,0,0,0,0,0,0,0,0,0,0,,0,,2.6666667461395264,169.78271484375,54.228515625,22.364999771118164,999.356201171875,0.0,21.555274963378906,82.6810073852539,1.225000023841858,43.279998779296875,-0.47088000178337097,-0.14714999496936798,9.780570030212402,0.3499999940395355,-0.2800000011920929,0.14000000059604645,-0.7606652975082397,3.2028446197509766,152.40440368652344,0,0,0,0,0,2000,1,1,0,0,0,0,0,0,0,0,0,0,0,0,0,0,0,0,0,0,0,0,0,0,0,0,,0,,0.0,0.0,0.0,0,0,0,True,True,True,True,True,1,-171.3125,-55.49141311645508,1.0,0.0,1.0,False,999.638427734375,0.0,0.05000000074505806,True,0.0,0.0,0.0,0.0,0.0,0.0,0.0,0.0,0.0,1.0,1.0,False,False,False,False,False,False,False,False,False,False,False,False,False,False,False,False,False,False,False,False,False,False,False,False,False,False,False,False,False,False,False,False,False,False,False,False,False,False,False,False,False,False,False,False,True,True,False,False,False,True,True,2.1327693462371826,0.5052849650382996,-0.4484868049621582,0.41121232509613037,True,3,1,True,53,56,
904540,1,904161831,0,2.3499999046325684,-1.52978515625,-1.3068428039550781,22.360000610351562,999.3772583007812,2.297503709793091,21.611352920532227,82.74662017822266,1.1722396612167358,43.27000045776367,-0.7063199877738953,-0.17657999694347382,9.800189971923828,0.49000000953674316,-0.2800000011920929,0.14000000059604645,-0.869958758354187,3.478466033935547,152.39404296875,0,0,0,0,0,2000,1,1,0,0,0,0,0,0,0,0,0,0,0,0,0,0,0,0,0,0,0,0,0,0,0,0,,0,,2.3499999046325684,169.78271484375,54.1845703125,22.360000610351562,999.4033203125,0.0,21.611352920532227,82.74662017822266,1.225000023841858,43.27000045776367,-0.7063199877738953,-0.17657999694347382,9.800189971923828,0.49000000953674316,-0.2800000011920929,0.14000000059604645,-0.869958758354187,3.478466033935547,152.39404296875,0,0,0,0,0,2000,1,1,0,0,0,0,0,0,0,0,0,0,0,0,0,0,0,0,0,0,0,0,0,0,0,0,,0,,0.0,0.0,0.0,0,0,0,True,True,True,True,True,1,-171.3125,-55.49141311645508,1.0,0.0,1.0,False,999.638427734375,0.0,0.05000000074505806,True,0.0,0.0,0.0,0.0,0.0,0.0,0.0,0.0,0.0,1.0,1.0,False,False,False,False,False,False,False,False,False,False,False,False,False,False,False,False,False,False,False,False,False,False,False,False,False,False,False,False,False,False,False,False,False,False,False,False,False,False,False,False,False,False,False,False,True,True,False,False,False,True,True,2.0023534297943115,0.4479871690273285,-0.32917487621307373,0.2675907015800476,True,3,1,True,53,56,
904600,1,904161831,0,2.5333333015441895,-1.52978515625,-1.1969795227050781,22.325000762939453,999.38134765625,2.258577585220337,21.469825744628906,82.77714538574219,1.1728860139846802,43.27000045776367,-0.5395500063896179,-0.17657999694347382,9.868860244750977,0.49000000953674316,-0.49000000953674316,-0.3499999940395355,-1.0700911283493042,3.2698333263397217,152.37901306152344,0,0,0,0,0,2000,1,1,0,0,0,0,0,0,0,0,0,0,0,0,0,0,0,0,0,0,0,0,0,0,0,0,,0,,2.5333333015441895,169.78271484375,54.29443359375,22.325000762939453,999.417236328125,0.0,21.469825744628906,82.77714538574219,1.225000023841858,43.27000045776367,-0.5395500063896179,-0.17657999694347382,9.868860244750977,0.49000000953674316,-0.49000000953674316,-0.3499999940395355,-1.0700911283493042,3.2698333263397217,152.37901306152344,0,0,0,0,0,2000,1,1,0,0,0,0,0,0,0,0,0,0,0,0,0,0,0,0,0,0,0,0,0,0,0,0,,0,,0.0,0.0,0.0,0,0,0,True,True,True,True,True,1,-171.3125,-55.49141311645508,1.0,0.0,1.0,False,999.638427734375,0.0,0.05000000074505806,True,0.0,0.0,0.0,0.0,0.0,0.0,0.0,0.0,0.0,1.0,1.0,False,False,False,False,False,False,False,False,False,False,False,False,False,False,False,False,False,False,False,False,False,False,False,False,False,False,False,False,False,False,False,False,False,False,False,False,False,False,False,False,False,False,False,False,True,True,False,False,False,True,True,2.0784196853637695,0.7032034397125244,-0.6588587760925293,0.29600760340690613,True,3,1,True,53,56,
904660,1,904161831,0,2.2666666507720947,-1.5517578125,-1.3288154602050781,22.334999084472656,999.3798217773438,2.2702479362487793,21.581979751586914,82.78782653808594,1.1723721027374268,43.27000045776367,-0.5395500063896179,-0.19619999825954437,9.95715045928955,0.20999999344348907,-0.41999998688697815,0.14000000059604645,-0.9680898785591125,3.4587841033935547,152.38426208496094,0,0,0,0,0,2000,1,1,0,0,0,0,0,0,0,0,0,0,0,0,0,0,0,0,0,0,0,0,0,0,0,0,,0,,2.2666666507720947,169.7607421875,54.16259765625,22.334999084472656,999.34521484375,0.0,21.581979751586914,82.78782653808594,1.225000023841858,43.27000045776367,-0.5395500063896179,-0.19619999825954437,9.95715045928955,0.20999999344348907,-0.41999998688697815,0.14000000059604645,-0.9680898785591125,3.4587841033935547,152.38426208496094,0,0,0,0,0,2000,1,1,0,0,0,0,0,0,0,0,0,0,0,0,0,0,0,0,0,0,0,0,0,0,0,0,,0,,0.0,0.0,0.0,0,0,0,True,True,True,True,True,1,-171.3125,-55.49141311645508,1.0,0.0,1.0,False,999.638427734375,0.0,0.05000000074505806,True,0.0,0.0,0.0,0.0,0.0,0.0,0.0,0.0,0.0,1.0,1.0,False,False,False,False,False,False,False,False,False,False,False,False,False,False,False,False,False,False,False,False,False,False,False,False,False,False,False,False,False,False,False,False,False,False,False,False,False,False,False,False,False,False,False,False,True,True,False,False,False,True,True,1.9664191007614136,0.4075411260128021,-0.3229787349700928,0.22809387743473053,True,3,1,True,53,56,
904721,1,904161831,0,2.4666666984558105,-1.5517578125,-1.3068428039550781,22.329999923706055,999.3795166015625,2.2751171588897705,21.512550354003906,82.6413345336914,1.172704815864563,43.279998779296875,-0.7749900221824646,-0.14714999496936798,9.986579895019531,0.49000000953674316,-0.8399999737739563,0.0,-1.0050815343856812,3.424058675765991,152.38653564453125,0,0,0,0,0,2000,1,1,0,0,0,0,0,0,0,0,0,0,0,0,0,0,0,0,0,0,0,0,0,0,0,0,,0,,2.4666666984558105,169.7607421875,54.1845703125,22.329999923706055,999.40380859375,0.0,21.512550354003906,82.6413345336914,1.225000023841858,43.279998779296875,-0.7749900221824646,-0.14714999496936798,9.986579895019531,0.49000000953674316,-0.8399999737739563,0.0,-1.0050815343856812,3.424058675765991,152.38653564453125,0,0,0,0,0,2000,1,1,0,0,0,0,0,0,0,0,0,0,0,0,0,0,0,0,0,0,0,0,0,0,0,0,,0,,0.0,0.0,0.0,0,0,0,True,True,True,True,True,1,-171.3125,-55.49141311645508,1.0,0.0,1.0,False,999.638427734375,0.0,0.05000000074505806,True,0.0,0.0,0.0,0.0,0.0,0.0,0.0,0.0,0.0,1.0,1.0,False,False,False,False,False,False,False,False,False,False,False,False,False,False,False,False,False,False,False,False,False,False,False,False,False,False,False,False,False,False,False,False,False,False,False,False,False,False,False,False,False,False,False,False,True,True,False,False,False,True,True,2.0510482788085938,0.4706016778945923,-0.3907039761543274,0.24769501388072968,True,3,1,True,53,56,
904781,1,904161831,0,2.5166666507720947,-1.57373046875,-1.2189521789550781,22.329999923706055,999.3796997070312,2.275550127029419,21.568628311157227,82.7359390258789,1.1724382638931274,43.279998779296875,-0.5003100037574768,-0.16676999628543854,9.927720069885254,0.8399999737739563,-0.5600000023841858,-0.20999999344348907,-0.964634120464325,3.165526866912842,152.38792419433594,0,0,0,0,0,2000,1,1,0,0,0,0,0,0,0,0,0,0,0,0,0,0,0,0,0,0,0,0,0,0,0,0,,0,,2.5166666507720947,169.73876953125,54.2724609375,22.329999923706055,999.333984375,0.0,21.568628311157227,82.7359390258789,1.225000023841858,43.279998779296875,-0.5003100037574768,-0.16676999628543854,9.927720069885254,0.8399999737739563,-0.5600000023841858,-0.20999999344348907,-0.964634120464325,3.165526866912842,152.38792419433594,0,0,0,0,0,2000,1,1,0,0,0,0,0,0,0,0,0,0,0,0,0,0,0,0,0,0,0,0,0,0,0,0,,0,,0.0,0.0,0.0,0,0,0,True,True,True,True,True,1,-171.3125,-55.49141311645508,1.0,0.0,1.0,False,999.638427734375,0.0,0.05000000074505806,True,0.0,0.0,0.0,0.0,0.0,0.0,0.0,0.0,0.0,1.0,1.0,False,False,False,False,False,False,False,False,False,False,False,False,False,False,False,False,False,False,False,False,False,False,False,False,False,False,False,False,False,False,False,False,False,False,False,False,False,False,False,False,False,False,False,False,True,True,False,False,False,True,True,2.071967124938965,0.5832186937332153,-0.5747090578079224,0.41133370995521545,True,3,1,True,53,56,
904841,1,904161831,0,2.3333332538604736,-1.57373046875,-1.5045967102050781,22.350000381469727,999.3768920898438,2.2966294288635254,21.49919891357422,82.69474029541016,1.1727567911148071,43.279998779296875,-0.5689799785614014,-0.10790999978780746,9.790379524230957,0.20999999344348907,-0.49000000953674316,-0.07000000029802322,-0.6945804357528687,3.4904894828796387,152.4044189453125,0,0,0,0,0,2000,1,1,0,0,0,0,0,0,0,0,0,0,0,0,0,0,0,0,0,0,0,0,0,0,0,0,,0,,2.3333332538604736,169.73876953125,53.98681640625,22.350000381469727,999.43115234375,0.0,21.49919891357422,82.69474029541016,1.225000023841858,43.279998779296875,-0.5689799785614014,-0.10790999978780746,9.790379524230957,0.20999999344348907,-0.49000000953674316,-0.07000000029802322,-0.6945804357528687,3.4904894828796387,152.4044189453125,0,0,0,0,0,2000,1,1,0,0,0,0,0,0,0,0,0,0,0,0,0,0,0,0,0,0,0,0,0,0,0,0,,0,,0.0,0.0,0.0,0,0,0,True,True,True,True,True,1,-171.3125,-55.49141311645508,1.0,0.0,1.0,False,999.638427734375,0.0,0.05000000074505806,True,0.0,0.0,0.0,0.0,0.0,0.0,0.0,0.0,0.0,1.0,1.0,False,False,False,False,False,False,False,False,False,False,False,False,False,False,False,False,False,False,False,False,False,False,False,False,False,False,False,False,False,False,False,False,False,False,False,False,False,False,False,False,False,False,False,False,True,True,False,False,False,True,True,1.9948002099990845,0.07856982201337814,-0.0479595884680748,0.09865830838680267,True,3,1,True,53,56,
904901,1,904161831,0,2.4166667461395264,-1.5078125,-1.6364326477050781,22.350000381469727,999.3785400390625,2.2859253883361816,21.512550354003906,82.77714538574219,1.1726881265640259,43.279998779296875,-0.5395500063896179,-0.1373399943113327,9.800189971923828,0.5600000023841858,-0.6299999952316284,-0.07000000029802322,-0.7075565457344055,3.071707010269165,152.39926147460938,0,0,0,0,0,2000,1,1,0,0,0,0,0,0,0,0,0,0,0,0,0,0,0,0,0,0,0,0,0,0,0,0,,0,,2.4166667461395264,169.8046875,53.85498046875,22.350000381469727,999.406005859375,0.0,21.512550354003906,82.77714538574219,1.225000023841858,43.279998779296875,-0.5395500063896179,-0.1373399943113327,9.800189971923828,0.5600000023841858,-0.6299999952316284,-0.07000000029802322,-0.7075565457344055,3.071707010269165,152.39926147460938,0,0,0,0,0,2000,1,1,0,0,0,0,0,0,0,0,0,0,0,0,0,0,0,0,0,0,0,0,0,0,0,0,,0,,0.0,0.0,0.0,0,0,0,True,True,True,True,True,1,-171.3125,-55.49141311645508,1.0,0.0,1.0,False,999.638427734375,0.0,0.05000000074505806,True,0.0,0.0,0.0,0.0,0.0,0.0,0.0,0.0,0.0,1.0,1.0,False,False,False,False,False,False,False,False,False,False,False,False,False,False,False,False,False,False,False,False,False,False,False,False,False,False,False,False,False,False,False,False,False,False,False,False,False,False,False,False,False,False,False,False,True,True,False,False,False,True,True,2.0301685333251953,0.009838305413722992,0.1044207364320755,-0.1828359216451645,True,3,1,True,53,56,
904961,1,904161831,0,2.549999952316284,-1.52978515625,-1.6803779602050781,22.360000610351562,999.381103515625,2.2643091678619385,21.512550354003906,82.6901626586914,1.1727007627487183,43.279998779296875,-0.5297399759292603,-0.15695999562740326,9.83942985534668,0.5600000023841858,-0.5600000023841858,-0.07000000029802322,-0.7403095960617065,3.303741216659546,152.3857879638672,0,0,0,0,0,2000,1,1,0,0,0,0,0,0,0,0,0,0,0,0,0,0,0,0,0,0,0,0,0,0,0,0,,0,,2.549999952316284,169.78271484375,53.81103515625,22.360000610351562,999.3857421875,0.0,21.512550354003906,82.6901626586914,1.225000023841858,43.279998779296875,-0.5297399759292603,-0.15695999562740326,9.83942985534668,0.5600000023841858,-0.5600000023841858,-0.07000000029802322,-0.7403095960617065,3.303741216659546,152.3857879638672,0,0,0,0,0,2000,1,1,0,0,0,0,0,0,0,0,0,0,0,0,0,0,0,0,0,0,0,0,0,0,0,0,,0,,0.0,0.0,0.0,0,0,0,True,True,True,True,True,1,-171.3125,-55.49141311645508,1.0,0.0,1.0,False,999.638427734375,0.0,0.05000000074505806,True,0.0,0.0,0.0,0.0,0.0,0.0,0.0,0.0,0.0,1.0,1.0,False,False,False,False,False,False,False,False,False,False,False,False,False,False,False,False,False,False,False,False,False,False,False,False,False,False,False,False,False,False,False,False,False,False,False,False,False,False,False,False,False,False,False,False,True,True,False,False,False,True,True,2.0854101181030273,-0.09044143557548523,0.12533383071422577,-0.22410693764686584,True,3,1,True,53,56,
905021,1,904161831,0,2.816666603088379,-1.57373046875,-1.7243232727050781,22.364999771118164,999.3768920898438,2.3027844429016113,21.5953311920166,82.73136138916016,1.1723129749298096,43.279998779296875,-0.627839982509613,-0.15695999562740326,9.888480186462402,0.49000000953674316,-0.49000000953674316,0.07000000029802322,-0.8711185455322266,3.4992382526397705,152.37913513183594,0,0,0,0,0,2000,1,1,0,0,0,0,0,0,0,0,0,0,0,0,0,0,0,0,0,0,0,0,0,0,0,0,,0,,2.816666603088379,169.73876953125,53.76708984375,22.364999771118164,999.34423828125,0.0,21.5953311920166,82.73136138916016,1.225000023841858,43.279998779296875,-0.627839982509613,-0.15695999562740326,9.888480186462402,0.49000000953674316,-0.49000000953674316,0.07000000029802322,-0.8711185455322266,3.4992382526397705,152.37913513183594,0,0,0,0,0,2000,1,1,0,0,0,0,0,0,0,0,0,0,0,0,0,0,0,0,0,0,0,0,0,0,0,0,,0,,0.0,0.0,0.0,0,0,0,True,True,True,True,True,1,-171.3125,-55.49141311645508,1.0,0.0,1.0,False,999.638427734375,0.0,0.05000000074505806,True,0.0,0.0,0.0,0.0,0.0,0.0,0.0,0.0,0.0,1.0,1.0,False,False,False,False,False,False,False,False,False,False,False,False,False,False,False,False,False,False,False,False,False,False,False,False,False,False,False,False,False,False,False,False,False,False,False,False,False,False,False,False,False,False,False,False,True,True,False,False,False,True,True,2.1921029090881348,-0.25964924693107605,0.1817091703414917,-0.19731591641902924,True,3,1,True,53,56,
905081,1,904161831,0,2.6500000953674316,-1.595703125,-1.6803779602050781,22.34000015258789,999.3754272460938,2.31294584274292,21.512550354003906,82.75883483886719,1.172685980796814,43.279998779296875,-0.5689799785614014,-0.15695999562740326,9.927720069885254,0.3499999940395355,-0.5600000023841858,-0.14000000059604645,-0.8981906175613403,3.2724127769470215,152.37957763671875,0,0,0,0,0,2000,1,1,0,0,0,0,0,0,0,0,0,0,0,0,0,0,0,0,0,0,0,0,0,0,0,0,,0,,2.6500000953674316,169.716796875,53.81103515625,22.34000015258789,999.383544921875,0.0,21.512550354003906,82.75883483886719,1.225000023841858,43.279998779296875,-0.5689799785614014,-0.15695999562740326,9.927720069885254,0.3499999940395355,-0.5600000023841858,-0.14000000059604645,-0.8981906175613403,3.2724127769470215,152.37957763671875,0,0,0,0,0,2000,1,1,0,0,0,0,0,0,0,0,0,0,0,0,0,0,0,0,0,0,0,0,0,0,0,0,,0,,0.0,0.0,0.0,0,0,0,True,True,True,True,True,1,-171.3125,-55.49141311645508,1.0,0.0,1.0,False,999.638427734375,0.0,0.05000000074505806,True,0.0,0.0,0.0,0.0,0.0,0.0,0.0,0.0,0.0,1.0,1.0,False,False,False,False,False,False,False,False,False,False,False,False,False,False,False,False,False,False,False,False,False,False,False,False,False,False,False,False,False,False,False,False,False,False,False,False,False,False,False,False,False,False,False,False,True,True,False,False,False,True,True,2.1259207725524902,-0.21433614194393158,0.16293373703956604,-0.10200048983097076,True,3,1,True,53,56,
905141,1,904161831,0,2.4000000953674316,-1.57373046875,-1.6584053039550781,22.329999923706055,999.3722534179688,2.340411424636841,21.568628311157227,82.69474029541016,1.1724344491958618,43.290000915527344,-0.5689799785614014,-0.16676999628543854,9.829620361328125,0.2800000011920929,-0.3499999940395355,0.07000000029802322,-0.9041169285774231,3.240110397338867,152.3717803955078,0,0,0,0,0,2000,1,1,0,0,0,0,0,0,0,0,0,0,0,0,0,0,0,0,0,0,0,0,0,0,0,0,,0,,2.4000000953674316,169.73876953125,53.8330078125,22.329999923706055,999.365478515625,0.0,21.568628311157227,82.69474029541016,1.225000023841858,43.290000915527344,-0.5689799785614014,-0.16676999628543854,9.829620361328125,0.2800000011920929,-0.3499999940395355,0.07000000029802322,-0.9041169285774231,3.240110397338867,152.3717803955078,0,0,0,0,0,2000,1,1,0,0,0,0,0,0,0,0,0,0,0,0,0,0,0,0,0,0,0,0,0,0,0,0,,0,,0.0,0.0,0.0,0,0,0,True,True,True,True,True,1,-171.3125,-55.49141311645508,1.0,0.0,1.0,False,999.638427734375,0.0,0.05000000074505806,True,0.0,0.0,0.0,0.0,0.0,0.0,0.0,0.0,0.0,1.0,1.0,False,False,False,False,False,False,False,False,False,False,False,False,False,False,False,False,False,False,False,False,False,False,False,False,False,False,False,False,False,False,False,False,False,False,False,False,False,False,False,False,False,False,False,False,True,True,False,False,False,True,True,2.0233747959136963,-0.14273737370967865,0.12831829488277435,-0.10426979511976242,True,3,1,True,53,56,
905201,1,905161848,0,2.450000047683716,-1.595703125,-1.7462959289550781,22.354999542236328,999.37158203125,2.346156597137451,21.611352920532227,82.7054214477539,1.172237515449524,43.290000915527344,-0.5885999798774719,-0.17657999694347382,9.83942985534668,0.7699999809265137,-0.699999988079071,0.0,-1.0108249187469482,3.4059951305389404,152.366943359375,0,0,0,0,0,2000,1,1,0,0,0,0,0,0,0,0,0,0,0,0,0,0,0,0,0,0,0,0,0,0,0,0,,0,,2.450000047683716,169.716796875,53.7451171875,22.354999542236328,999.433837890625,0.0,21.611352920532227,82.7054214477539,1.225000023841858,43.290000915527344,-0.5885999798774719,-0.17657999694347382,9.83942985534668,0.7699999809265137,-0.699999988079071,0.0,-1.0108249187469482,3.4059951305389404,152.366943359375,0,0,0,0,0,2000,1,1,0,0,0,0,0,0,0,0,0,0,0,0,0,0,0,0,0,0,0,0,0,0,0,0,,0,,0.0,0.0,0.0,0,0,0,True,True,True,True,True,1,-171.3125,-55.49141311645508,1.0,0.0,1.0,False,999.638427734375,0.0,0.05000000074505806,True,0.0,0.0,0.0,0.0,0.0,0.0,0.0,0.0,0.0,1.0,1.0,False,False,False,False,False,False,False,False,False,False,False,False,False,False,False,False,False,False,False,False,False,False,False,False,False,False,False,False,False,False,False,False,False,False,False,False,False,False,False,False,False,False,False,False,True,True,False,False,False,True,True,2.0445146560668945,-0.32900217175483704,0.2553340196609497,-0.13963927328586578,True,3,1,True,53,56,
