SYS_TIME[ms],T_CNT[us],T_PPS[us],T_CAN_RSV[us],DP[Pa],AOA[deg],AOS[deg],T_DP_SENSOR[degC],PS[hPa],H_PS[m],TAT[degC],HUM[%],RHO[kg/m^3],T_PS_SENSOR[degC],AX[m/s^2],AY[m/s^2],AZ[m/s^2],GX[deg/s],GY[deg/s],GZ[deg/s],EX[deg],EY[deg],EZ[deg],MICROSECONDS_PPS[us],cls[-],id[-],len[-],iTOW[ms],year[y],month[month],day[d],hour[h],minute[min],sec[s],valid[-],tAcc[ns],nano[ns],fixType[-],flags[-],flags2[-],numSV[-],lon[10^7 deg],lat[10^7 deg],height[mm],hMSL[mm],hAcc[mm],vAcc[mm],velN[mm/s],velE[mm/s],velD[mm/s],gSpeed[mm/s],headMot[10^5 deg],sAcc[mm/s],headAcc[10^5 deg],pDOP[-],reserved1[-],headVeh[10^5 deg],reserved2[-],DP_raw[Pa],AOA_raw[deg],AOS_raw[deg],T_DP_SENSOR_raw[degC],PS_raw[hPa],H_PS_raw[m],TAT_raw[degC],HUM_raw[%],RHO_raw[kg/m^3],T_PS_SENSOR_raw[degC],AX_raw[m/s^2],AY_raw[m/s^2],AZ_raw[m/s^2],GX_raw[deg/s],GY_raw[deg/s],GZ_raw[deg/s],EX_raw[deg],EY_raw[deg],EZ_raw[deg],MICROSECONDS_PPS_raw[us],cls_raw[-],id_raw[-],len_raw[-],iTOW_raw[ms],year_raw[y],month_raw[month],day_raw[d],hour_raw[h],minute_raw[min],sec_raw[s],valid_raw[-],tAcc_raw[ns],nano_raw[ns],fixType_raw[-],flags_raw[-],flags2_raw[-],numSV_raw[-],lon_raw[10^7 deg],lat_raw[10^7 deg],height_raw[mm],hMSL_raw[mm],hAcc_raw[mm],vAcc_raw[mm],velN_raw[mm/s],velE_raw[mm/s],velD_raw[mm/s],gSpeed_raw[mm/s],headMot_raw[10^5 deg],sAcc_raw[mm/s],headAcc_raw[10^5 deg],pDOP_raw[-],reserved1_raw[-],headVeh_raw[10^5 deg],reserved2_raw[-],ROLL[deg],PITCH[deg],YAW[deg],H_US[-],ELEV[-],RUDD[-],AIR_DATA_EN[-],ENV_DATA_EN[-],IMU_DATA_EN[-],GPS_DATA_EN[-],LOGGING_EN[-],LOGGING_MODE[-],AOA_OFFSET[deg],AOS_OFFSET[deg],DP_GAIN[-],DP_OFFSET[Pa],LPF_DP[-],LPF_SW[-],PS_INIT_VAL[hPa],H_PS_OFFSET[m],LPF_PS[-],LPF_SW[-],AX_OFFSET[m/s^2],AY_OFFSET[m/s^2],AZ_OFFSET[m/s^2],GX_OFFSET[deg/s],GY_OFFSET[deg/s],GZ_OFFSET[deg/s],EX_OFFSET[deg],EY_OFFSET[deg],EZ_OFFSET[deg],LPF_ACC[-],LPF_GYR[-],LPF_ACC_SW[-],LPF_GYR_SW[-],DP_err[-],AOA_err[-],AOS_err[-],T_DP_SENSOR_err[-],DP_GAIN_err[-],DP_OFFSET_err[-],AOA_OFFSET_err[-],AOS_OFFSET_err[-],LPF_DP_err[-],DP_I2C_err[-],AOA_I2C_err[-],AOS_I2C_err[-],SETTING_DATA_READ_err[-],PS_err[-],T_PS_SENSOR_err[-],TAT_err[-],HUM_err[-],PS_INIT_VAL_err[-],H_PS_OFFSET_err[-],H_PS_err[-],RHO_err[-],LPF_PS_err[-],ENV_I2C_err[-],SETTING_DATA_READ_err[-],AX_err[-],AY_err[-],AZ_err[-],GX_err[-],GY_err[-],GZ_err[-],LPF_ACC_err[-],LPF_GYR_err[-],AX_OFFSET_err[-],AY_OFFSET_err[-],AZ_OFFSET_err[-],GX_OFFSET_err[-],GY_OFFSET_err[-],GZ_OFFSET_err[-],EX_OFFSET_err[-],EY_OFFSET_err[-],EZ_OFFSET_err[-],SETTING_DATA_READ_err[-],PPS_INTV_err[-],MEG_INTV_err[-],CHK_SUM_err[-],INIT_err[-],SET_MODE_err[-],SEND_err[-],RECEIVE_err[-],AIRSPEED[m/s],WINDN[m/s],WINDE[m/s],WINDD[m/s],SD_DETECT[-],LOG_NUMBER[-],LOGGING_MODE[-],LOGGING_EN[-],CPU_USED[%],MEMORY_USED[%],
603675,1,603563359,603637890,0.3499999940395355,33.694091796875,21.092269897460938,26.540000915527344,996.664306640625,-0.057543471455574036,25.670251846313477,73.88265991210938,1.151838779449463,38.4900016784668,1.069290041923523,-0.8534700274467468,10.016010284423828,-0.3499999940395355,1.9600000381469727,0.6299999952316284,-3.9604971408843994,1.476286768913269,-59.303436279296875,0,1,7,92,522326000,2022,7,23,1,5,8,55,5,-457899,3,1,10,14,1362543943,352942185,122392,87599,1715,2478,-10,45,-3,46,10123723,260,4681260,164,,0,,0.3499999940395355,-157.52197265625,-134.45068359375,26.540000915527344,996.676025390625,0.0,25.670251846313477,73.88265991210938,1.225000023841858,38.4900016784668,1.069290041923523,-0.8534700274467468,10.016010284423828,-0.3499999940395355,1.9600000381469727,0.6299999952316284,-3.9604971408843994,1.476286768913269,-59.303436279296875,0,1,7,92,522326000,2022,7,23,1,5,8,55,5,-457899,3,1,10,14,1362543943,352942185,122392,87599,1715,2478,-10,45,-3,46,10123723,260,4681260,164,,0,,0.0,0.0,0.0,214,2144,2105,True,True,True,True,True,1,-168.783935546875,155.54295349121094,1.0,0.0,1.0,False,996.6570434570312,0.0,0.05000000074505806,True,0.0,0.0,0.0,0.0,0.0,0.0,0.0,0.0,0.0,1.0,1.0,False,False,False,False,False,False,False,False,False,False,False,False,False,False,False,False,False,False,False,False,False,False,False,False,False,False,False,False,False,False,False,False,False,False,False,False,False,False,False,False,False,False,False,False,True,False,False,False,False,False,False,0.7795665264129639,0.22094812989234924,0.10707491636276245,-0.314492791891098,True,4,1,True,83,56,
603736,1,603563359,603722314,0.01666666753590107,4.009033203125,32.80369567871094,26.510000228881836,996.6632690429688,-0.05481114238500595,25.71297836303711,73.83993530273438,1.1516525745391846,38.4900016784668,0.1373399943113327,-0.5395500063896179,8.976149559020996,-0.699999988079071,-0.8399999737739563,1.8899999856948853,-3.998084545135498,1.632161021232605,-59.263763427734375,0,1,7,92,522326000,2022,7,23,1,5,8,55,5,-457899,3,1,10,14,1362543943,352942185,122392,87599,1715,2478,-10,45,-3,46,10123723,260,4681260,164,,0,,0.01666666753590107,172.79296875,-122.7392578125,26.510000228881836,996.634521484375,0.0,25.71297836303711,73.83993530273438,1.225000023841858,38.4900016784668,0.1373399943113327,-0.5395500063896179,8.976149559020996,-0.699999988079071,-0.8399999737739563,1.8899999856948853,-3.998084545135498,1.632161021232605,-59.263763427734375,0,1,7,92,522326000,2022,7,23,1,5,8,55,5,-457899,3,1,10,14,1362543943,352942185,122392,87599,1715,2478,-10,45,-3,46,10123723,260,4681260,164,,0,,0.0,0.0,0.0,214,2144,2107,True,True,True,True,True,1,-168.783935546875,155.54295349121094,1.0,0.0,1.0,False,996.6570434570312,0.0,0.05000000074505806,True,0.0,0.0,0.0,0.0,0.0,0.0,0.0,0.0,0.0,1.0,1.0,False,False,False,False,False,False,False,False,False,False,False,False,False,False,False,False,False,False,False,False,False,False,False,False,False,False,False,False,False,False,False,False,False,False,False,False,False,False,False,False,False,False,False,False,True,False,False,False,False,False,False,0.17012912034988403,0.10581277310848236,0.03900773078203201,0.027054276317358017,True,4,1,True,54,56,
603796,1,603563359,603764858,0.01666666753590107,-29.411376953125,21.729476928710938,26.530000686645508,996.6678466796875,-0.09316562116146088,25.670251846313477,73.80941772460938,1.1518542766571045,38.4900016784668,-0.6180300116539001,-0.21581999957561493,8.95652961730957,0.41999998688697815,-0.9100000262260437,1.3300000429153442,-3.9684791564941406,1.9540421962738037,-59.25909423828125,0,1,7,92,522326100,2022,7,23,1,5,8,55,5,99542091,3,1,10,14,1362543943,352942184,122414,87622,1714,2477,-92,31,-15,97,10123723,211,4681463,164,,0,,0.01666666753590107,139.37255859375,-133.8134765625,26.530000686645508,996.728271484375,0.0,25.670251846313477,73.80941772460938,1.225000023841858,38.4900016784668,-0.6180300116539001,-0.21581999957561493,8.95652961730957,0.41999998688697815,-0.9100000262260437,1.3300000429153442,-3.9684791564941406,1.9540421962738037,-59.25909423828125,0,1,7,92,522326100,2022,7,23,1,5,8,55,5,99542091,3,1,10,14,1362543943,352942184,122414,87622,1714,2477,-92,31,-15,97,10123723,211,4681463,164,,0,,0.0,0.0,0.0,214,2144,2105,True,True,True,True,True,1,-168.783935546875,155.54295349121094,1.0,0.0,1.0,False,996.6570434570312,0.0,0.05000000074505806,True,0.0,0.0,0.0,0.0,0.0,0.0,0.0,0.0,0.0,1.0,1.0,False,False,False,False,False,False,False,False,False,False,False,False,False,False,False,False,False,False,False,False,False,False,False,False,False,False,False,False,False,False,False,False,False,False,False,False,False,False,False,False,False,False,False,False,True,False,False,False,False,False,False,0.17011421918869019,0.09294133633375168,-0.08854461461305618,-0.08171871304512024,True,4,1,True,55,56,
603856,1,603563359,603849700,0.15000000596046448,-27.082275390625,6.3046722412109375,26.520000457763672,996.669189453125,-0.10411697626113892,25.6435489654541,73.88571166992188,1.1519644260406494,38.4900016784668,-1.4616899490356445,-0.6376500129699707,9.368550300598145,1.399999976158142,-0.8399999737739563,-1.0499999523162842,-4.156350135803223,1.8260959386825562,-59.31494140625,0,1,7,92,522326200,2022,7,23,1,5,8,55,5,199542081,3,1,10,14,1362543942,352942187,122400,87607,1714,2476,51,32,-12,60,10123723,217,4681671,164,,0,,0.15000000596046448,141.70166015625,-149.23828125,26.520000457763672,996.632568359375,0.0,25.6435489654541,73.88571166992188,1.225000023841858,38.4900016784668,-1.4616899490356445,-0.6376500129699707,9.368550300598145,1.399999976158142,-0.8399999737739563,-1.0499999523162842,-4.156350135803223,1.8260959386825562,-59.31494140625,0,1,7,92,522326200,2022,7,23,1,5,8,55,5,199542081,3,1,10,14,1362543942,352942187,122400,87607,1714,2476,51,32,-12,60,10123723,217,4681671,164,,0,,0.0,0.0,0.0,214,2146,2105,True,True,True,True,True,1,-168.783935546875,155.54295349121094,1.0,0.0,1.0,False,996.6570434570312,0.0,0.05000000074505806,True,0.0,0.0,0.0,0.0,0.0,0.0,0.0,0.0,0.0,1.0,1.0,False,False,False,False,False,False,False,False,False,False,False,False,False,False,False,False,False,False,False,False,False,False,False,False,False,False,False,False,False,False,False,False,False,False,False,False,False,False,False,False,False,False,False,False,True,False,False,False,False,False,False,0.5103182792663574,-0.1690974235534668,-0.2825903296470642,0.13221323490142822,True,4,1,True,54,56,
603916,1,603563359,603891848,0.13333334028720856,3.569580078125,24.498031616210938,26.4950008392334,996.671142578125,-0.12060713768005371,25.769054412841797,73.83230590820312,1.1514109373092651,38.5,-0.8142300248146057,-1.0889099836349487,9.986579895019531,1.2599999904632568,0.6299999952316284,-3.0799999237060547,-4.294410228729248,2.0373518466949463,-59.306396484375,0,1,7,92,522326200,2022,7,23,1,5,8,55,5,199542081,3,1,10,14,1362543942,352942187,122400,87607,1714,2476,51,32,-12,60,10123723,217,4681671,164,,0,,0.13333334028720856,172.353515625,-131.044921875,26.4950008392334,996.66748046875,0.0,25.769054412841797,73.83230590820312,1.225000023841858,38.5,-0.8142300248146057,-1.0889099836349487,9.986579895019531,1.2599999904632568,0.6299999952316284,-3.0799999237060547,-4.294410228729248,2.0373518466949463,-59.306396484375,0,1,7,92,522326200,2022,7,23,1,5,8,55,5,199542081,3,1,10,14,1362543942,352942187,122400,87607,1714,2476,51,32,-12,60,10123723,217,4681671,164,,0,,0.0,0.0,0.0,214,2146,2105,True,True,True,True,True,1,-168.783935546875,155.54295349121094,1.0,0.0,1.0,False,996.6570434570312,0.0,0.05000000074505806,True,0.0,0.0,0.0,0.0,0.0,0.0,0.0,0.0,0.0,1.0,1.0,False,False,False,False,False,False,False,False,False,False,False,False,False,False,False,False,False,False,False,False,False,False,False,False,False,False,False,False,False,False,False,False,False,False,False,False,False,False,False,False,False,False,False,False,True,False,False,False,False,False,False,0.48124828934669495,-0.4330158829689026,-0.34535157680511475,0.1907959133386612,True,4,1,True,55,56,
603976,1,603563359,603974870,0.03333333507180214,6.360107421875,30.804183959960938,26.524999618530273,996.6701049804688,-0.1151147112250328,25.742351531982422,73.80484008789062,1.151533842086792,38.4900016784668,1.1281499862670898,-1.2949199676513672,10.025819778442383,0.6299999952316284,-0.20999999344348907,-0.20999999344348907,-4.648192882537842,2.0963315963745117,-59.266448974609375,0,1,7,92,522326300,2022,7,23,1,5,8,55,5,299542072,3,1,10,14,1362543939,352942187,122372,87580,1713,2476,23,-11,-2,25,10123723,213,4681876,164,,0,,0.03333333507180214,175.14404296875,-124.73876953125,26.524999618530273,996.66259765625,0.0,25.742351531982422,73.80484008789062,1.225000023841858,38.4900016784668,1.1281499862670898,-1.2949199676513672,10.025819778442383,0.6299999952316284,-0.20999999344348907,-0.20999999344348907,-4.648192882537842,2.0963315963745117,-59.266448974609375,0,1,7,92,522326300,2022,7,23,1,5,8,55,5,299542072,3,1,10,14,1362543939,352942187,122372,87580,1713,2476,23,-11,-2,25,10123723,213,4681876,164,,0,,0.0,0.0,0.0,218,2145,2105,True,True,True,True,True,1,-168.783935546875,155.54295349121094,1.0,0.0,1.0,False,996.6570434570312,0.0,0.05000000074505806,True,0.0,0.0,0.0,0.0,0.0,0.0,0.0,0.0,0.0,1.0,1.0,False,False,False,False,False,False,False,False,False,False,False,False,False,False,False,False,False,False,False,False,False,False,False,False,False,False,False,False,False,False,False,False,False,False,False,False,False,False,False,False,False,False,False,False,True,False,False,False,False,False,False,0.24061129987239838,0.17341108620166779,0.11504251509904861,-0.09842906892299652,True,4,1,True,54,56,
604037,1,603563359,604016807,0.10000000149011612,-16.601318359375,24.783676147460938,26.530000686645508,996.6751708984375,-0.15620477497577667,25.699626922607422,73.82772827148438,1.1517280340194702,38.4900016784668,0.34334999322891235,-0.8927099704742432,9.966959953308105,0.20999999344348907,-2.0299999713897705,1.6100000143051147,-4.724911689758301,2.258817195892334,-59.27166748046875,0,1,7,92,522326300,2022,7,23,1,5,8,55,5,299542072,3,1,10,14,1362543939,352942187,122372,87580,1713,2476,23,-11,-2,25,10123723,213,4681876,164,,0,,0.10000000149011612,152.1826171875,-130.75927734375,26.530000686645508,996.6767578125,0.0,25.699626922607422,73.82772827148438,1.225000023841858,38.4900016784668,0.34334999322891235,-0.8927099704742432,9.966959953308105,0.20999999344348907,-2.0299999713897705,1.6100000143051147,-4.724911689758301,2.258817195892334,-59.27166748046875,0,1,7,92,522326300,2022,7,23,1,5,8,55,5,299542072,3,1,10,14,1362543939,352942187,122372,87580,1713,2476,23,-11,-2,25,10123723,213,4681876,164,,0,,0.0,0.0,0.0,215,2144,2105,True,True,True,True,True,1,-168.783935546875,155.54295349121094,1.0,0.0,1.0,False,996.6570434570312,0.0,0.05000000074505806,True,0.0,0.0,0.0,0.0,0.0,0.0,0.0,0.0,0.0,1.0,1.0,False,False,False,False,False,False,False,False,False,False,False,False,False,False,False,False,False,False,False,False,False,False,False,False,False,False,False,False,False,False,False,False,False,False,False,False,False,False,False,False,False,False,False,False,True,False,False,False,False,False,False,0.4167158603668213,-0.35470592975616455,0.04343152791261673,0.13245782256126404,True,4,1,True,55,56,
604097,1,603563359,604058518,0.01666666753590107,-22.511962890625,24.058578491210938,26.5,996.6663818359375,-0.08222479373216629,25.742351531982422,73.77584838867188,1.1515337228775024,38.4900016784668,-0.6670799851417542,-0.8142300248146057,9.819809913635254,-0.41999998688697815,-1.2599999904632568,1.9600000381469727,-4.636980056762695,2.4553558826446533,-59.28302001953125,0,1,7,92,522326400,2022,7,23,1,5,8,55,5,399542062,3,1,10,14,1362543938,352942188,122376,87583,1713,2475,1,-6,-6,6,10123723,196,4682064,164,,0,,0.01666666753590107,146.27197265625,-131.484375,26.5,996.614501953125,0.0,25.742351531982422,73.77584838867188,1.225000023841858,38.4900016784668,-0.6670799851417542,-0.8142300248146057,9.819809913635254,-0.41999998688697815,-1.2599999904632568,1.9600000381469727,-4.636980056762695,2.4553558826446533,-59.28302001953125,0,1,7,92,522326400,2022,7,23,1,5,8,55,5,399542062,3,1,10,14,1362543938,352942188,122376,87583,1713,2475,1,-6,-6,6,10123723,196,4682064,164,,0,,0.0,0.0,0.0,214,2144,2106,True,True,True,True,True,1,-168.783935546875,155.54295349121094,1.0,0.0,1.0,False,996.6570434570312,0.0,0.05000000074505806,True,0.0,0.0,0.0,0.0,0.0,0.0,0.0,0.0,0.0,1.0,1.0,False,False,False,False,False,False,False,False,False,False,False,False,False,False,False,False,False,False,False,False,False,False,False,False,False,False,False,False,False,False,False,False,False,False,False,False,False,False,False,False,False,False,False,False,True,False,False,False,False,False,False,0.1701378971338272,-0.14426180720329285,-0.040299054235219955,-0.04718872904777527,True,4,1,True,54,56,
604157,1,603563359,604142105,0.11666666716337204,-14.997314453125,27.420394897460938,26.514999389648438,996.666259765625,-0.07944988459348679,25.61417579650879,73.87808227539062,1.1520941257476807,38.5,-1.206629991531372,-0.6376500129699707,10.477080345153809,-0.3499999940395355,-0.07000000029802322,-1.8899999856948853,-4.573943614959717,2.0869834423065186,-59.322509765625,0,1,7,92,522326500,2022,7,23,1,5,8,55,5,499542053,3,1,10,14,1362543935,352942188,122358,87566,1712,2474,-13,-60,-3,62,10123723,252,4682306,164,,0,,0.11666666716337204,153.78662109375,-128.12255859375,26.514999389648438,996.73583984375,0.0,25.61417579650879,73.87808227539062,1.225000023841858,38.5,-1.206629991531372,-0.6376500129699707,10.477080345153809,-0.3499999940395355,-0.07000000029802322,-1.8899999856948853,-4.573943614959717,2.0869834423065186,-59.322509765625,0,1,7,92,522326500,2022,7,23,1,5,8,55,5,499542053,3,1,10,14,1362543935,352942188,122358,87566,1712,2474,-13,-60,-3,62,10123723,252,4682306,164,,0,,0.0,0.0,0.0,214,2143,2106,True,True,True,True,True,1,-168.783935546875,155.54295349121094,1.0,0.0,1.0,False,996.6570434570312,0.0,0.05000000074505806,True,0.0,0.0,0.0,0.0,0.0,0.0,0.0,0.0,0.0,1.0,1.0,False,False,False,False,False,False,False,False,False,False,False,False,False,False,False,False,False,False,False,False,False,False,False,False,False,False,False,False,False,False,False,False,False,False,False,False,False,False,False,False,False,False,False,False,True,False,False,False,False,False,False,0.450033038854599,0.28858745098114014,0.28951746225357056,-0.05306620895862579,True,4,1,True,54,56,
604217,1,603563359,604184270,0.11666666716337204,12.688232421875,35.24266052246094,26.510000228881836,996.65966796875,-0.021919364109635353,25.6435489654541,73.80484008789062,1.1519651412963867,38.5,0.04904999956488609,-0.990809977054596,10.261260032653809,-0.7699999809265137,-1.2599999904632568,-0.699999988079071,-4.828736305236816,1.7871642112731934,-59.270294189453125,0,1,7,92,522326500,2022,7,23,1,5,8,55,5,499542053,3,1,10,14,1362543935,352942188,122358,87566,1712,2474,-13,-60,-3,62,10123723,252,4682306,164,,0,,0.11666666716337204,-178.52783203125,-120.30029296875,26.510000228881836,996.679443359375,0.0,25.6435489654541,73.80484008789062,1.225000023841858,38.5,0.04904999956488609,-0.990809977054596,10.261260032653809,-0.7699999809265137,-1.2599999904632568,-0.699999988079071,-4.828736305236816,1.7871642112731934,-59.270294189453125,0,1,7,92,522326500,2022,7,23,1,5,8,55,5,499542053,3,1,10,14,1362543935,352942188,122358,87566,1712,2474,-13,-60,-3,62,10123723,252,4682306,164,,0,,0.0,0.0,0.0,216,2146,2107,True,True,True,True,True,1,-168.783935546875,155.54295349121094,1.0,0.0,1.0,False,996.6570434570312,0.0,0.05000000074505806,True,0.0,0.0,0.0,0.0,0.0,0.0,0.0,0.0,0.0,1.0,1.0,False,False,False,False,False,False,False,False,False,False,False,False,False,False,False,False,False,False,False,False,False,False,False,False,False,False,False,False,False,False,False,False,False,False,False,False,False,False,False,False,False,False,False,False,True,False,False,False,False,False,False,0.450058251619339,0.20374466478824615,0.09636837989091873,0.4021752178668976,True,4,1,True,55,56,
604277,1,603563359,604267772,0.18333333730697632,8.161865234375,30.738265991210938,26.510000228881836,996.6659545898438,-0.0739811584353447,25.65690040588379,73.77737426757812,1.1519163846969604,38.5,-0.6572700142860413,-1.2262500524520874,10.241640090942383,0.49000000953674316,-0.699999988079071,0.14000000059604645,-5.10764741897583,2.2342019081115723,-59.286224365234375,0,1,7,92,522326600,2022,7,23,1,5,8,55,5,599542043,3,1,10,14,1362543933,352942189,122355,87562,1712,2473,-2,-83,-3,83,10123723,256,4682553,164,,0,,0.18333333730697632,176.94580078125,-124.8046875,26.510000228881836,996.70556640625,0.0,25.65690040588379,73.77737426757812,1.225000023841858,38.5,-0.6572700142860413,-1.2262500524520874,10.241640090942383,0.49000000953674316,-0.699999988079071,0.14000000059604645,-5.10764741897583,2.2342019081115723,-59.286224365234375,0,1,7,92,522326600,2022,7,23,1,5,8,55,5,599542043,3,1,10,14,1362543933,352942189,122355,87562,1712,2473,-2,-83,-3,83,10123723,256,4682553,164,,0,,0.0,0.0,0.0,214,2142,2109,True,True,True,True,True,1,-168.783935546875,155.54295349121094,1.0,0.0,1.0,False,996.6570434570312,0.0,0.05000000074505806,True,0.0,0.0,0.0,0.0,0.0,0.0,0.0,0.0,0.0,1.0,1.0,False,False,False,False,False,False,False,False,False,False,False,False,False,False,False,False,False,False,False,False,False,False,False,False,False,False,False,False,False,False,False,False,False,False,False,False,False,False,False,False,False,False,False,False,True,False,False,False,False,False,False,0.5641897916793823,-0.3976745307445526,0.16007716953754425,-0.05229423940181732,True,4,1,True,56,56,
604337,1,603563359,604310015,0.18333333730697632,-22.819580078125,20.718734741210938,26.53499984741211,996.666748046875,-0.08220937103033066,25.6862735748291,73.89486694335938,1.1517683267593384,38.5,0.12752999365329742,-0.7651799917221069,9.976770401000977,0.2800000011920929,-0.07000000029802322,0.9800000190734863,-5.1473283767700195,1.9020614624023438,-59.22235107421875,0,1,7,92,522326600,2022,7,23,1,5,8,55,5,599542043,3,1,10,14,1362543933,352942189,122355,87562,1712,2473,-2,-83,-3,83,10123723,256,4682553,164,,0,,0.18333333730697632,145.96435546875,-134.82421875,26.53499984741211,996.663330078125,0.0,25.6862735748291,73.89486694335938,1.225000023841858,38.5,0.12752999365329742,-0.7651799917221069,9.976770401000977,0.2800000011920929,-0.07000000029802322,0.9800000190734863,-5.1473283767700195,1.9020614624023438,-59.22235107421875,0,1,7,92,522326600,2022,7,23,1,5,8,55,5,599542043,3,1,10,14,1362543933,352942189,122355,87562,1712,2473,-2,-83,-3,83,10123723,256,4682553,164,,0,,0.0,0.0,0.0,213,2143,2107,True,True,True,True,True,1,-168.783935546875,155.54295349121094,1.0,0.0,1.0,False,996.6570434570312,0.0,0.05000000074505806,True,0.0,0.0,0.0,0.0,0.0,0.0,0.0,0.0,0.0,1.0,1.0,False,False,False,False,False,False,False,False,False,False,False,False,False,False,False,False,False,False,False,False,False,False,False,False,False,False,False,False,False,False,False,False,False,False,False,False,False,False,False,False,False,False,False,False,True,False,False,False,False,False,False,0.5642260909080505,0.33777642250061035,0.07533062249422073,0.021250072866678238,True,4,1,True,55,56,
604397,1,603563359,604394718,0.18333333730697632,-22.819580078125,20.718734741210938,26.53499984741211,996.666748046875,-0.08220937103033066,25.6862735748291,73.89486694335938,1.1517683267593384,38.5,0.2256300002336502,-0.2746799886226654,9.299880027770996,0.9800000190734863,-0.14000000059604645,1.399999976158142,-4.513782024383545,1.8064117431640625,-59.15283203125,0,1,7,92,522326700,2022,7,23,1,5,8,55,5,699542034,3,1,10,14,1362543935,352942190,122354,87562,1711,2472,13,66,-2,67,10123723,255,4682798,164,,0,,0.11666666716337204,150.2490234375,-122.8271484375,26.530000686645508,996.646484375,0.0,25.65690040588379,73.86892700195312,1.225000023841858,38.4900016784668,0.2256300002336502,-0.2746799886226654,9.299880027770996,0.9800000190734863,-0.14000000059604645,1.399999976158142,-4.513782024383545,1.8064117431640625,-59.15283203125,0,1,7,92,522326700,2022,7,23,1,5,8,55,5,699542034,3,1,10,14,1362543935,352942190,122354,87562,1711,2472,13,66,-2,67,10123723,255,4682798,164,,0,,0.0,0.0,0.0,218,2144,2104,True,True,True,True,True,1,-168.783935546875,155.54295349121094,1.0,0.0,1.0,False,996.6570434570312,0.0,0.05000000074505806,True,0.0,0.0,0.0,0.0,0.0,0.0,0.0,0.0,0.0,1.0,1.0,False,False,False,False,False,False,False,False,False,False,False,False,False,False,False,False,False,False,False,False,False,False,False,False,False,False,False,False,False,False,False,False,False,False,False,False,False,False,False,False,False,False,False,False,True,False,False,False,False,False,False,0.4500702917575836,-0.38192224502563477,-0.3010697066783905,-0.2020222693681717,True,4,1,True,54,56,
604457,1,603563359,604436716,0.21666666865348816,-2.802490234375,45.61375427246094,26.5,996.664306640625,-0.060280945152044296,25.65690040588379,73.87808227539062,1.1518996953964233,38.5,-0.20600999891757965,-0.25505998730659485,8.92710018157959,0.699999988079071,-0.7699999809265137,0.5600000023841858,-4.034438610076904,1.3713096380233765,-59.142059326171875,0,1,7,92,522326800,2022,7,23,1,5,8,55,5,799542024,3,1,10,14,1362543932,352942192,122321,87529,1711,2471,88,10,8,89,10123723,193,4682983,164,,0,,0.21666666865348816,165.9814453125,-109.92919921875,26.5,996.60791015625,0.0,25.65690040588379,73.87808227539062,1.225000023841858,38.5,-0.20600999891757965,-0.25505998730659485,8.92710018157959,0.699999988079071,-0.7699999809265137,0.5600000023841858,-4.034438610076904,1.3713096380233765,-59.142059326171875,0,1,7,92,522326800,2022,7,23,1,5,8,55,5,799542024,3,1,10,14,1362543932,352942192,122321,87529,1711,2471,88,10,8,89,10123723,193,4682983,164,,0,,0.0,0.0,0.0,219,2144,2108,True,True,True,True,True,1,-168.783935546875,155.54295349121094,1.0,0.0,1.0,False,996.6570434570312,0.0,0.05000000074505806,True,0.0,0.0,0.0,0.0,0.0,0.0,0.0,0.0,0.0,1.0,1.0,False,False,False,False,False,False,False,False,False,False,False,False,False,False,False,False,False,False,False,False,False,False,False,False,False,False,False,False,False,False,False,False,False,False,False,False,False,False,False,False,False,False,False,False,True,False,False,False,False,False,False,0.6133434176445007,0.47242623567581177,0.534115195274353,-0.1330181509256363,True,4,1,True,55,56,
604518,1,603563359,604478439,-0.06666667014360428,0.449462890625,42.36180114746094,26.514999389648438,996.6599731445312,-0.02741340734064579,25.79842758178711,73.86892700195312,1.1512610912322998,38.5,-0.23544000089168549,-0.7161300182342529,9.545129776000977,1.399999976158142,-0.07000000029802322,0.49000000953674316,-4.260871887207031,1.409836769104004,-59.107391357421875,0,1,7,92,522326800,2022,7,23,1,5,8,55,5,799542024,3,1,10,14,1362543932,352942192,122321,87529,1711,2471,88,10,8,89,10123723,193,4682983,164,,0,,-0.06666667014360428,169.2333984375,-113.18115234375,26.514999389648438,996.580810546875,0.0,25.79842758178711,73.86892700195312,1.225000023841858,38.5,-0.23544000089168549,-0.7161300182342529,9.545129776000977,1.399999976158142,-0.07000000029802322,0.49000000953674316,-4.260871887207031,1.409836769104004,-59.107391357421875,0,1,7,92,522326800,2022,7,23,1,5,8,55,5,799542024,3,1,10,14,1362543932,352942192,122321,87529,1711,2471,88,10,8,89,10123723,193,4682983,164,,0,,0.0,0.0,0.0,219,2143,2105,True,True,True,True,True,1,-168.783935546875,155.54295349121094,1.0,0.0,1.0,False,996.6570434570312,0.0,0.05000000074505806,True,0.0,0.0,0.0,0.0,0.0,0.0,0.0,0.0,0.0,1.0,1.0,False,False,False,False,False,False,False,False,False,False,False,False,False,False,False,False,False,False,False,False,False,False,False,False,False,False,False,False,False,False,False,False,False,False,False,False,False,False,False,False,False,False,False,False,True,False,False,False,False,False,False,0.3403160870075226,0.21556195616722107,0.24714429676532745,-0.036602139472961426,True,4,1,True,54,56,
604578,1,604563380,604560943,0.13333334028720856,10.227294921875,37.96726989746094,26.489999771118164,996.6490478515625,0.07123793661594391,25.6435489654541,73.85519409179688,1.1519453525543213,38.5,-0.34334999322891235,-1.0006200075149536,9.859049797058105,2.1700000762939453,0.41999998688697815,-0.20999999344348907,-4.520837306976318,1.2891819477081299,-59.11407470703125,0,1,7,92,522326900,2022,7,23,1,5,8,55,5,899542015,3,1,10,14,1362543930,352942193,122298,87505,1710,2470,29,8,14,30,10123723,191,4683167,164,,0,,0.13333334028720856,179.01123046875,-117.57568359375,26.489999771118164,996.631103515625,0.0,25.6435489654541,73.85519409179688,1.225000023841858,38.5,-0.34334999322891235,-1.0006200075149536,9.859049797058105,2.1700000762939453,0.41999998688697815,-0.20999999344348907,-4.520837306976318,1.2891819477081299,-59.11407470703125,0,1,7,92,522326900,2022,7,23,1,5,8,55,5,899542015,3,1,10,14,1362543930,352942193,122298,87505,1710,2470,29,8,14,30,10123723,191,4683167,164,,0,,0.0,0.0,0.0,218,2144,2106,True,True,True,True,True,1,-168.783935546875,155.54295349121094,1.0,0.0,1.0,False,996.6570434570312,0.0,0.05000000074505806,True,0.0,0.0,0.0,0.0,0.0,0.0,0.0,0.0,0.0,1.0,1.0,False,False,False,False,False,False,False,False,False,False,False,False,False,False,False,False,False,False,False,False,False,False,False,False,False,False,False,False,False,False,False,False,False,False,False,False,False,False,False,False,False,False,False,False,True,False,False,False,False,False,False,0.48113664984703064,0.2526504099369049,-0.11121448874473572,0.289175808429718,True,4,1,True,54,56,
604638,1,604563380,604602370,0.0833333358168602,22.597900390625,33.33103942871094,26.510000228881836,996.6478271484375,0.082201287150383,25.65690040588379,73.83688354492188,1.1518868207931519,38.5,-0.578790009021759,-0.9711899757385254,10.65365982055664,0.699999988079071,-1.2599999904632568,0.14000000059604645,-4.757285118103027,1.9155995845794678,-59.10491943359375,0,1,7,92,522326900,2022,7,23,1,5,8,55,5,899542015,3,1,10,14,1362543930,352942193,122298,87505,1710,2470,29,8,14,30,10123723,191,4683167,164,,0,,0.0833333358168602,-168.6181640625,-122.2119140625,26.510000228881836,996.665283203125,0.0,25.65690040588379,73.83688354492188,1.225000023841858,38.5,-0.578790009021759,-0.9711899757385254,10.65365982055664,0.699999988079071,-1.2599999904632568,0.14000000059604645,-4.757285118103027,1.9155995845794678,-59.10491943359375,0,1,7,92,522326900,2022,7,23,1,5,8,55,5,899542015,3,1,10,14,1362543930,352942193,122298,87505,1710,2470,29,8,14,30,10123723,191,4683167,164,,0,,0.0,0.0,0.0,218,2145,2106,True,True,True,True,True,1,-168.783935546875,155.54295349121094,1.0,0.0,1.0,False,996.6570434570312,0.0,0.05000000074505806,True,0.0,0.0,0.0,0.0,0.0,0.0,0.0,0.0,0.0,1.0,1.0,False,False,False,False,False,False,False,False,False,False,False,False,False,False,False,False,False,False,False,False,False,False,False,False,False,False,False,False,False,False,False,False,False,False,False,False,False,False,False,False,False,False,False,False,True,False,False,False,False,False,False,0.38038158416748047,0.18095152080059052,0.1921849399805069,-0.015058769844472408,True,4,1,True,55,56,
604698,1,604563380,604687190,0.23333333432674408,22.136474609375,43.61424255371094,26.510000228881836,996.651123046875,0.05478812754154205,25.587472915649414,73.78042602539062,1.1522101163864136,38.5,-0.3335399925708771,-0.9123299717903137,10.388790130615234,-0.07000000029802322,-0.2800000011920929,0.3499999940395355,-4.539907932281494,1.8428715467453003,-59.0804443359375,0,1,7,92,522327000,2022,7,23,1,5,9,55,5,-457994,3,1,10,14,1362543931,352942191,122332,87540,1710,2469,-118,-14,-1,119,10123723,195,4683354,164,,0,,0.23333333432674408,-169.07958984375,-111.9287109375,26.510000228881836,996.70751953125,0.0,25.587472915649414,73.78042602539062,1.225000023841858,38.5,-0.3335399925708771,-0.9123299717903137,10.388790130615234,-0.07000000029802322,-0.2800000011920929,0.3499999940395355,-4.539907932281494,1.8428715467453003,-59.0804443359375,0,1,7,92,522327000,2022,7,23,1,5,9,55,5,-457994,3,1,10,14,1362543931,352942191,122332,87540,1710,2469,-118,-14,-1,119,10123723,195,4683354,164,,0,,0.0,0.0,0.0,218,2146,2105,True,True,True,True,True,1,-168.783935546875,155.54295349121094,1.0,0.0,1.0,False,996.6570434570312,0.0,0.05000000074505806,True,0.0,0.0,0.0,0.0,0.0,0.0,0.0,0.0,0.0,1.0,1.0,False,False,False,False,False,False,False,False,False,False,False,False,False,False,False,False,False,False,False,False,False,False,False,False,False,False,False,False,False,False,False,False,False,False,False,False,False,False,False,False,False,False,False,False,True,False,False,False,False,False,False,0.6364108324050903,-0.17307808995246887,-0.28809070587158203,0.5029700398445129,True,4,1,True,55,56,
604758,1,604563380,604729386,0.05000000074505806,9.062744140625,39.35154724121094,26.524999618530273,996.6499633789062,0.06577043235301971,25.699626922607422,73.79568481445312,1.1517034769058228,38.5,-0.19619999825954437,-0.8338500261306763,10.153349876403809,0.07000000029802322,0.20999999344348907,1.0499999523162842,-4.266622066497803,1.54780113697052,-59.0157470703125,0,1,7,92,522327100,2022,7,23,1,5,9,55,5,99541996,3,1,10,14,1362543928,352942192,122333,87541,1709,2469,9,-79,-1,80,10123723,252,4683596,164,,0,,0.05000000074505806,177.8466796875,-116.19140625,26.524999618530273,996.5849609375,0.0,25.699626922607422,73.79568481445312,1.225000023841858,38.5,-0.19619999825954437,-0.8338500261306763,10.153349876403809,0.07000000029802322,0.20999999344348907,1.0499999523162842,-4.266622066497803,1.54780113697052,-59.0157470703125,0,1,7,92,522327100,2022,7,23,1,5,9,55,5,99541996,3,1,10,14,1362543928,352942192,122333,87541,1709,2469,9,-79,-1,80,10123723,252,4683596,164,,0,,0.0,0.0,0.0,218,2147,2105,True,True,True,True,True,1,-168.783935546875,155.54295349121094,1.0,0.0,1.0,False,996.6570434570312,0.0,0.05000000074505806,True,0.0,0.0,0.0,0.0,0.0,0.0,0.0,0.0,0.0,1.0,1.0,False,False,False,False,False,False,False,False,False,False,False,False,False,False,False,False,False,False,False,False,False,False,False,False,False,False,False,False,False,False,False,False,False,False,False,False,False,False,False,False,False,False,False,False,True,False,False,False,False,False,False,0.29466575384140015,0.25996896624565125,0.3187933564186096,-0.027079489082098007,True,4,1,True,55,56,
604818,1,604563380,604814189,0.01666666753590107,17.939697265625,35.94578552246094,26.479999542236328,996.6502685546875,0.06028956547379494,25.699626922607422,73.83688354492188,1.1516978740692139,38.5,-0.8338500261306763,-1.0006200075149536,10.074870109558105,0.0,-0.7699999809265137,0.9800000190734863,-4.4703569412231445,2.205745220184326,-58.984466552734375,0,1,7,92,522327100,2022,7,23,1,5,9,55,5,99541996,3,1,10,14,1362543928,352942192,122333,87541,1709,2469,9,-79,-1,80,10123723,252,4683596,164,,0,,0.01666666753590107,-173.2763671875,-119.59716796875,26.479999542236328,996.6923828125,0.0,25.699626922607422,73.83688354492188,1.225000023841858,38.5,-0.8338500261306763,-1.0006200075149536,10.074870109558105,0.0,-0.7699999809265137,0.9800000190734863,-4.4703569412231445,2.205745220184326,-58.984466552734375,0,1,7,92,522327100,2022,7,23,1,5,9,55,5,99541996,3,1,10,14,1362543928,352942192,122333,87541,1709,2469,9,-79,-1,80,10123723,252,4683596,164,,0,,0.0,0.0,0.0,213,2145,2106,True,True,True,True,True,1,-168.783935546875,155.54295349121094,1.0,0.0,1.0,False,996.6570434570312,0.0,0.05000000074505806,True,0.0,0.0,0.0,0.0,0.0,0.0,0.0,0.0,0.0,1.0,1.0,False,False,False,False,False,False,False,False,False,False,False,False,False,False,False,False,False,False,False,False,False,False,False,False,False,False,False,False,False,False,False,False,False,False,False,False,False,False,False,False,False,False,False,False,True,False,False,False,False,False,False,0.17012576758861542,0.04773194342851639,0.16091126203536987,0.07886597514152527,True,4,1,True,54,56,
604878,1,604563380,604856099,0.0,28.244873046875,39.61521911621094,26.524999618530273,996.6554565429688,0.010960661806166172,25.670251846313477,73.83078002929688,1.1518367528915405,38.5,-0.1373399943113327,-0.990809977054596,9.927720069885254,-0.07000000029802322,0.6299999952316284,0.2800000011920929,-4.679704666137695,1.9110571146011353,-58.959625244140625,0,1,7,92,522327200,2022,7,23,1,5,9,55,5,199541986,3,1,10,14,1362543928,352942192,122313,87520,1709,2468,2,-2,6,3,10123723,202,4683791,164,,0,,0.0,-162.97119140625,-115.927734375,26.524999618530273,996.70703125,0.0,25.670251846313477,73.83078002929688,1.225000023841858,38.5,-0.1373399943113327,-0.990809977054596,9.927720069885254,-0.07000000029802322,0.6299999952316284,0.2800000011920929,-4.679704666137695,1.9110571146011353,-58.959625244140625,0,1,7,92,522327200,2022,7,23,1,5,9,55,5,199541986,3,1,10,14,1362543928,352942192,122313,87520,1709,2468,2,-2,6,3,10123723,202,4683791,164,,0,,0.0,0.0,0.0,214,2144,2105,True,True,True,True,True,1,-168.783935546875,155.54295349121094,1.0,0.0,1.0,False,996.6570434570312,0.0,0.05000000074505806,True,0.0,0.0,0.0,0.0,0.0,0.0,0.0,0.0,0.0,1.0,1.0,False,False,False,False,False,False,False,False,False,False,False,False,False,False,False,False,False,False,False,False,False,False,False,False,False,False,False,False,False,False,False,False,False,False,False,False,False,False,False,False,False,False,False,False,True,False,False,False,False,False,False,-0.0,-0.0020000000949949026,0.0020000000949949026,-0.006000000052154064,True,4,1,True,55,56,
604938,1,604563380,604898523,-0.0833333358168602,19.851318359375,32.67185974121094,26.510000228881836,996.6559448242188,0.010958114638924599,25.6008243560791,73.82620239257812,1.15215003490448,38.5,0.19619999825954437,-0.9025200009346008,9.976770401000977,-0.5600000023841858,-1.190000057220459,0.20999999344348907,-4.63348388671875,1.6800428628921509,-58.951202392578125,0,1,7,92,522327200,2022,7,23,1,5,9,55,5,199541986,3,1,10,14,1362543928,352942192,122313,87520,1709,2468,2,-2,6,3,10123723,202,4683791,164,,0,,-0.0833333358168602,-171.36474609375,-122.87109375,26.510000228881836,996.691650390625,0.0,25.6008243560791,73.82620239257812,1.225000023841858,38.5,0.19619999825954437,-0.9025200009346008,9.976770401000977,-0.5600000023841858,-1.190000057220459,0.20999999344348907,-4.63348388671875,1.6800428628921509,-58.951202392578125,0,1,7,92,522327200,2022,7,23,1,5,9,55,5,199541986,3,1,10,14,1362543928,352942192,122313,87520,1709,2468,2,-2,6,3,10123723,202,4683791,164,,0,,0.0,0.0,0.0,213,2148,2103,True,True,True,True,True,1,-168.783935546875,155.54295349121094,1.0,0.0,1.0,False,996.6570434570312,0.0,0.05000000074505806,True,0.0,0.0,0.0,0.0,0.0,0.0,0.0,0.0,0.0,1.0,1.0,False,False,False,False,False,False,False,False,False,False,False,False,False,False,False,False,False,False,False,False,False,False,False,False,False,False,False,False,False,False,False,False,False,False,False,False,False,False,False,False,False,False,False,False,True,False,False,False,False,False,False,0.3803381323814392,-0.21083123981952667,-0.06289166957139969,-0.08941309154033661,True,4,1,True,54,56,
604998,1,604563380,604983576,0.23333333432674408,-9.635986328125,22.388656616210938,26.520000457763672,996.6483764648438,0.08221671730279922,25.71297836303711,73.6675033569336,1.1516599655151367,38.5,0.3139199912548065,0.12752999365329742,8.740710258483887,1.6799999475479126,-1.9600000381469727,1.4700000286102295,-3.998483657836914,1.361960530281067,-58.9151611328125,0,1,7,92,522327300,2022,7,23,1,5,9,55,5,299541977,3,1,10,14,1362543927,352942193,122314,87521,1708,2467,-15,-10,4,18,10123723,211,4683993,164,,0,,0.23333333432674408,159.14794921875,-133.154296875,26.520000457763672,996.5869140625,0.0,25.71297836303711,73.6675033569336,1.225000023841858,38.5,0.3139199912548065,0.12752999365329742,8.740710258483887,1.6799999475479126,-1.9600000381469727,1.4700000286102295,-3.998483657836914,1.361960530281067,-58.9151611328125,0,1,7,92,522327300,2022,7,23,1,5,9,55,5,299541977,3,1,10,14,1362543927,352942193,122314,87521,1708,2467,-15,-10,4,18,10123723,211,4683993,164,,0,,0.0,0.0,0.0,214,2146,2104,True,True,True,True,True,1,-168.783935546875,155.54295349121094,1.0,0.0,1.0,False,996.6570434570312,0.0,0.05000000074505806,True,0.0,0.0,0.0,0.0,0.0,0.0,0.0,0.0,0.0,1.0,1.0,False,False,False,False,False,False,False,False,False,False,False,False,False,False,False,False,False,False,False,False,False,False,False,False,False,False,False,False,False,False,False,False,False,False,False,False,False,False,False,False,False,False,False,False,True,False,False,False,False,False,False,0.6365628242492676,-0.29889115691185,-0.43087175488471985,-0.510958194732666,True,4,1,True,54,56,
605059,1,604563380,605024865,0.13333334028720856,-18.425048828125,30.496566772460938,26.514999389648438,996.6467895507812,0.09317894279956818,25.71297836303711,73.90097045898438,1.151624321937561,38.5,-1.8050400018692017,-1.2458699941635132,10.05525016784668,1.75,-1.1200000047683716,0.07000000029802322,-4.18553352355957,1.409218192100525,-58.96826171875,0,1,7,92,522327400,2022,7,23,1,5,9,55,5,399541967,3,1,10,14,1362543926,352942193,122327,87534,1708,2466,-23,4,-7,24,10123723,202,4684187,164,,0,,0.13333334028720856,150.35888671875,-125.04638671875,26.514999389648438,996.699462890625,0.0,25.71297836303711,73.90097045898438,1.225000023841858,38.5,-1.8050400018692017,-1.2458699941635132,10.05525016784668,1.75,-1.1200000047683716,0.07000000029802322,-4.18553352355957,1.409218192100525,-58.96826171875,0,1,7,92,522327400,2022,7,23,1,5,9,55,5,399541967,3,1,10,14,1362543926,352942193,122327,87534,1708,2466,-23,4,-7,24,10123723,202,4684187,164,,0,,0.0,0.0,0.0,214,2146,2105,True,True,True,True,True,1,-168.783935546875,155.54295349121094,1.0,0.0,1.0,False,996.6570434570312,0.0,0.05000000074505806,True,0.0,0.0,0.0,0.0,0.0,0.0,0.0,0.0,0.0,1.0,1.0,False,False,False,False,False,False,False,False,False,False,False,False,False,False,False,False,False,False,False,False,False,False,False,False,False,False,False,False,False,False,False,False,False,False,False,False,False,False,False,False,False,False,False,False,True,False,False,False,False,False,False,0.48120370507240295,0.30613818764686584,0.4039810299873352,-0.3136184811592102,True,4,1,True,55,56,
605119,1,604563380,605108621,0.20000000298023224,9.963623046875,31.858871459960938,26.549999237060547,996.6406860351562,0.1479966938495636,25.726329803466797,73.71175384521484,1.1515846252441406,38.5,-1.255679965019226,-1.5892200469970703,10.643850326538086,1.5399999618530273,-0.20999999344348907,-0.6299999952316284,-4.345945835113525,1.1271430253982544,-58.982513427734375,0,1,7,92,522327400,2022,7,23,1,5,9,55,5,399541967,3,1,10,14,1362543926,352942193,122327,87534,1708,2466,-23,4,-7,24,10123723,202,4684187,164,,0,,0.20000000298023224,178.74755859375,-123.68408203125,26.549999237060547,996.63330078125,0.0,25.726329803466797,73.71175384521484,1.225000023841858,38.5,-1.255679965019226,-1.5892200469970703,10.643850326538086,1.5399999618530273,-0.20999999344348907,-0.6299999952316284,-4.345945835113525,1.1271430253982544,-58.982513427734375,0,1,7,92,522327400,2022,7,23,1,5,9,55,5,399541967,3,1,10,14,1362543926,352942193,122327,87534,1708,2466,-23,4,-7,24,10123723,202,4684187,164,,0,,0.0,0.0,0.0,213,2145,2103,True,True,True,True,True,1,-168.783935546875,155.54295349121094,1.0,0.0,1.0,False,996.6570434570312,0.0,0.05000000074505806,True,0.0,0.0,0.0,0.0,0.0,0.0,0.0,0.0,0.0,1.0,1.0,False,False,False,False,False,False,False,False,False,False,False,False,False,False,False,False,False,False,False,False,False,False,False,False,False,False,False,False,False,False,False,False,False,False,False,False,False,False,False,False,False,False,False,False,True,False,False,False,False,False,False,0.5893619060516357,0.46013468503952026,0.07808563858270645,0.3749259114265442,True,4,1,True,55,56,
605179,1,604563380,605149265,0.20000000298023224,6.557861328125,30.452621459960938,26.520000457763672,996.639892578125,0.15343554317951202,25.6435489654541,73.7437973022461,1.1519505977630615,38.4900016784668,0.2746799886226654,-1.4518799781799316,10.702710151672363,-0.3499999940395355,0.3499999940395355,-1.3300000429153442,-4.640844345092773,1.00776207447052,-58.932403564453125,0,1,7,92,522327500,2022,7,23,1,5,9,55,5,499541958,3,1,10,14,1362543925,352942194,122309,87517,1708,2466,-12,-6,-1,14,10123723,210,4684389,164,,0,,0.20000000298023224,175.341796875,-125.09033203125,26.520000457763672,996.59228515625,0.0,25.6435489654541,73.7437973022461,1.225000023841858,38.4900016784668,0.2746799886226654,-1.4518799781799316,10.702710151672363,-0.3499999940395355,0.3499999940395355,-1.3300000429153442,-4.640844345092773,1.00776207447052,-58.932403564453125,0,1,7,92,522327500,2022,7,23,1,5,9,55,5,499541958,3,1,10,14,1362543925,352942194,122309,87517,1708,2466,-12,-6,-1,14,10123723,210,4684389,164,,0,,0.0,0.0,0.0,215,2144,2104,True,True,True,True,True,1,-168.783935546875,155.54295349121094,1.0,0.0,1.0,False,996.6570434570312,0.0,0.05000000074505806,True,0.0,0.0,0.0,0.0,0.0,0.0,0.0,0.0,0.0,1.0,1.0,False,False,False,False,False,False,False,False,False,False,False,False,False,False,False,False,False,False,False,False,False,False,False,False,False,False,False,False,False,False,False,False,False,False,False,False,False,False,False,False,False,False,False,False,True,False,False,False,False,False,False,0.5892682671546936,0.13612918555736542,0.24774260818958282,-0.52419114112854,True,4,1,True,55,56,
605239,1,604563380,605233409,0.15000000596046448,-21.061767578125,40.86766052246094,26.520000457763672,996.6414794921875,0.13699603080749512,25.6435489654541,73.76364135742188,1.1519497632980347,38.5,0.16676999628543854,-1.108530044555664,10.349550247192383,-0.20999999344348907,-0.5600000023841858,1.190000057220459,-4.701395034790039,1.2844732999801636,-58.902313232421875,0,1,7,92,522327500,2022,7,23,1,5,9,55,5,499541958,3,1,10,14,1362543925,352942194,122309,87517,1708,2466,-12,-6,-1,14,10123723,210,4684389,164,,0,,0.15000000596046448,147.72216796875,-114.67529296875,26.520000457763672,996.62109375,0.0,25.6435489654541,73.76364135742188,1.225000023841858,38.5,0.16676999628543854,-1.108530044555664,10.349550247192383,-0.20999999344348907,-0.5600000023841858,1.190000057220459,-4.701395034790039,1.2844732999801636,-58.902313232421875,0,1,7,92,522327500,2022,7,23,1,5,9,55,5,499541958,3,1,10,14,1362543925,352942194,122309,87517,1708,2466,-12,-6,-1,14,10123723,210,4684389,164,,0,,0.0,0.0,0.0,214,2144,2107,True,True,True,True,True,1,-168.783935546875,155.54295349121094,1.0,0.0,1.0,False,996.6570434570312,0.0,0.05000000074505806,True,0.0,0.0,0.0,0.0,0.0,0.0,0.0,0.0,0.0,1.0,1.0,False,False,False,False,False,False,False,False,False,False,False,False,False,False,False,False,False,False,False,False,False,False,False,False,False,False,False,False,False,False,False,False,False,False,False,False,False,False,False,False,False,False,False,False,True,False,False,False,False,False,False,0.5103214979171753,-0.3411378860473633,0.23203004896640778,-0.2907485067844391,True,4,1,True,54,56,
605299,1,604563380,605275492,0.15000000596046448,-31.235107421875,54.31492614746094,26.510000228881836,996.6414794921875,0.13699603080749512,25.6435489654541,73.76364135742188,1.1519497632980347,38.5,0.16676999628543854,-1.108530044555664,10.349550247192383,-0.20999999344348907,-0.5600000023841858,1.190000057220459,-4.701395034790039,1.2844732999801636,-58.902313232421875,0,1,7,92,522327600,2022,7,23,1,5,9,55,5,599541948,3,1,10,14,1362543921,352942194,122264,87472,1708,2466,-13,-28,17,31,10123723,262,4684641,164,,0,,0.15000000596046448,137.548828125,-101.22802734375,26.510000228881836,996.53857421875,0.0,25.670251846313477,73.7499008178711,1.225000023841858,38.5,-0.9025200009346008,-1.3145400285720825,9.976770401000977,-0.07000000029802322,-1.2599999904632568,2.0299999713897705,-4.685882568359375,1.8803142309188843,-58.88916015625,0,1,7,92,522327600,2022,7,23,1,5,9,55,5,599541948,3,1,10,14,1362543921,352942194,122264,87472,1708,2466,-13,-28,17,31,10123723,262,4684641,164,,0,,0.0,0.0,0.0,213,2143,2103,True,True,True,True,True,1,-168.783935546875,155.54295349121094,1.0,0.0,1.0,False,996.6570434570312,0.0,0.05000000074505806,True,0.0,0.0,0.0,0.0,0.0,0.0,0.0,0.0,0.0,1.0,1.0,False,False,False,False,False,False,False,False,False,False,False,False,False,False,False,False,False,False,False,False,False,False,False,False,False,False,False,False,False,False,False,False,False,False,False,False,False,False,False,False,False,False,False,False,True,False,False,False,False,False,False,0.5103492736816406,0.2567835748195648,0.19669823348522186,0.3973159193992615,True,4,1,True,55,56,
605359,1,604563380,605359618,-0.03333333507180214,-1.506103515625,45.56980895996094,26.5049991607666,996.6326293945312,0.21376346051692963,25.71297836303711,73.80941772460938,1.1516214609146118,38.4900016784668,-0.7847999930381775,-0.5101199746131897,10.065059661865234,-0.6299999952316284,-0.14000000059604645,-0.5600000023841858,-4.466595649719238,1.699472188949585,-58.85577392578125,0,1,7,92,522327700,2022,7,23,1,5,9,55,5,699541939,3,1,10,14,1362543921,352942196,122258,87465,1709,2467,11,-4,11,11,10123723,208,4684841,164,,0,,-0.03333333507180214,167.27783203125,-109.97314453125,26.5049991607666,996.616455078125,0.0,25.71297836303711,73.80941772460938,1.225000023841858,38.4900016784668,-0.7847999930381775,-0.5101199746131897,10.065059661865234,-0.6299999952316284,-0.14000000059604645,-0.5600000023841858,-4.466595649719238,1.699472188949585,-58.85577392578125,0,1,7,92,522327700,2022,7,23,1,5,9,55,5,699541939,3,1,10,14,1362543921,352942196,122258,87465,1709,2467,11,-4,11,11,10123723,208,4684841,164,,0,,0.0,0.0,0.0,215,2147,2104,True,True,True,True,True,1,-168.783935546875,155.54295349121094,1.0,0.0,1.0,False,996.6570434570312,0.0,0.05000000074505806,True,0.0,0.0,0.0,0.0,0.0,0.0,0.0,0.0,0.0,1.0,1.0,False,False,False,False,False,False,False,False,False,False,False,False,False,False,False,False,False,False,False,False,False,False,False,False,False,False,False,False,False,False,False,False,False,False,False,False,False,False,False,False,False,False,False,False,True,False,False,False,False,False,False,0.24060215055942535,-0.02610674872994423,-0.006048983428627253,-0.012552550062537193,True,4,1,True,54,56,
605419,1,604563380,605401528,-0.0833333358168602,11.260009765625,9.974105834960938,26.510000228881836,996.6351318359375,0.19183900952339172,25.71297836303711,73.76821899414062,1.1516305208206177,38.5,0.19619999825954437,-0.6670799851417542,9.123299598693848,-0.3499999940395355,0.20999999344348907,-1.0499999523162842,-4.487504005432129,1.4339535236358643,-58.802337646484375,0,1,7,92,522327700,2022,7,23,1,5,9,55,5,699541939,3,1,10,14,1362543921,352942196,122258,87465,1709,2467,11,-4,11,11,10123723,208,4684841,164,,0,,-0.0833333358168602,-179.9560546875,-145.56884765625,26.510000228881836,996.6171875,0.0,25.71297836303711,73.76821899414062,1.225000023841858,38.5,0.19619999825954437,-0.6670799851417542,9.123299598693848,-0.3499999940395355,0.20999999344348907,-1.0499999523162842,-4.487504005432129,1.4339535236358643,-58.802337646484375,0,1,7,92,522327700,2022,7,23,1,5,9,55,5,699541939,3,1,10,14,1362543921,352942196,122258,87465,1709,2467,11,-4,11,11,10123723,208,4684841,164,,0,,0.0,0.0,0.0,214,2144,2104,True,True,True,True,True,1,-168.783935546875,155.54295349121094,1.0,0.0,1.0,False,996.6570434570312,0.0,0.05000000074505806,True,0.0,0.0,0.0,0.0,0.0,0.0,0.0,0.0,0.0,1.0,1.0,False,False,False,False,False,False,False,False,False,False,False,False,False,False,False,False,False,False,False,False,False,False,False,False,False,False,False,False,False,False,False,False,False,False,False,False,False,False,False,False,False,False,False,False,True,False,False,False,False,False,False,0.380423903465271,-0.15626071393489838,0.34967362880706787,0.05657771974802017,True,4,1,True,54,56,
605479,1,604563380,605443630,0.3166666626930237,-9.701904296875,8.370101928710938,26.55500030517578,996.6380615234375,0.1698993593454361,25.6862735748291,73.77279663085938,1.151752233505249,38.5,-0.11772000044584274,-0.44144999980926514,10.594799995422363,2.1700000762939453,-2.450000047683716,-0.07000000029802322,-4.5064263343811035,1.3505525588989258,-58.82354736328125,0,1,7,92,522327800,2022,7,23,1,5,9,55,5,799541929,3,1,10,14,1362543920,352942197,122246,87453,1709,2467,17,17,12,25,10123723,213,4685046,164,,0,,0.3166666626930237,159.08203125,-147.1728515625,26.55500030517578,996.662109375,0.0,25.6862735748291,73.77279663085938,1.225000023841858,38.5,-0.11772000044584274,-0.44144999980926514,10.594799995422363,2.1700000762939453,-2.450000047683716,-0.07000000029802322,-4.5064263343811035,1.3505525588989258,-58.82354736328125,0,1,7,92,522327800,2022,7,23,1,5,9,55,5,799541929,3,1,10,14,1362543920,352942197,122246,87453,1709,2467,17,17,12,25,10123723,213,4685046,164,,0,,0.0,0.0,0.0,216,2143,2102,True,True,True,True,True,1,-168.783935546875,155.54295349121094,1.0,0.0,1.0,False,996.6570434570312,0.0,0.05000000074505806,True,0.0,0.0,0.0,0.0,0.0,0.0,0.0,0.0,0.0,1.0,1.0,False,False,False,False,False,False,False,False,False,False,False,False,False,False,False,False,False,False,False,False,False,False,False,False,False,False,False,False,False,False,False,False,False,False,False,False,False,False,False,False,False,False,False,False,True,False,False,False,False,False,False,0.380423903465271,-0.15626071393489838,0.34967362880706787,0.05657771974802017,True,4,1,True,54,56,
605540,1,604563380,605526940,0.5,-3.219970703125,33.99021911621094,26.5049991607666,996.6399536132812,0.15895231068134308,25.71297836303711,73.73921966552734,1.1516389846801758,38.5,0.2746799886226654,-2.226870059967041,11.968199729919434,3.0799999237060547,-2.0999999046325684,-4.760000228881836,-4.367528438568115,1.0577374696731567,-58.88189697265625,0,1,7,92,522327800,2022,7,23,1,5,9,55,5,799541929,3,1,10,14,1362543920,352942197,122246,87453,1709,2467,17,17,12,25,10123723,213,4685046,164,,0,,0.5,165.56396484375,-121.552734375,26.5049991607666,996.59423828125,0.0,25.71297836303711,73.73921966552734,1.225000023841858,38.5,0.2746799886226654,-2.226870059967041,11.968199729919434,3.0799999237060547,-2.0999999046325684,-4.760000228881836,-4.367528438568115,1.0577374696731567,-58.88189697265625,0,1,7,92,522327800,2022,7,23,1,5,9,55,5,799541929,3,1,10,14,1362543920,352942197,122246,87453,1709,2467,17,17,12,25,10123723,213,4685046,164,,0,,0.0,0.0,0.0,215,2143,2106,True,True,True,True,True,1,-168.783935546875,155.54295349121094,1.0,0.0,1.0,False,996.6570434570312,0.0,0.05000000074505806,True,0.0,0.0,0.0,0.0,0.0,0.0,0.0,0.0,0.0,1.0,1.0,False,False,False,False,False,False,False,False,False,False,False,False,False,False,False,False,False,False,False,False,False,False,False,False,False,False,False,False,False,False,False,False,False,False,False,False,False,False,False,False,False,False,False,False,True,False,False,False,False,False,False,0.9318410158157349,0.15149959921836853,0.062479499727487564,-0.9149770140647888,True,4,1,True,54,56,
605600,1,605563400,605569557,-0.03333333507180214,8.864990234375,30.254867553710938,26.514999389648438,996.6326904296875,0.2137940227985382,25.75570297241211,73.77737426757812,1.1514344215393066,38.5,1.4911199808120728,-2.128770112991333,11.389410018920898,-0.49000000953674316,1.6799999475479126,0.9100000262260437,-4.603550910949707,1.510411262512207,-58.74224853515625,0,1,7,92,522327900,2022,7,23,1,5,9,55,5,899541919,3,1,10,14,1362543920,352942197,122270,87477,1709,2467,30,9,-3,31,10123723,209,4685247,164,,0,,-0.03333333507180214,177.64892578125,-125.2880859375,26.514999389648438,996.539306640625,0.0,25.75570297241211,73.77737426757812,1.225000023841858,38.5,1.4911199808120728,-2.128770112991333,11.389410018920898,-0.49000000953674316,1.6799999475479126,0.9100000262260437,-4.603550910949707,1.510411262512207,-58.74224853515625,0,1,7,92,522327900,2022,7,23,1,5,9,55,5,899541919,3,1,10,14,1362543920,352942197,122270,87477,1709,2467,30,9,-3,31,10123723,209,4685247,164,,0,,0.0,0.0,0.0,215,2145,2103,True,True,True,True,True,1,-168.783935546875,155.54295349121094,1.0,0.0,1.0,False,996.6570434570312,0.0,0.05000000074505806,True,0.0,0.0,0.0,0.0,0.0,0.0,0.0,0.0,0.0,1.0,1.0,False,False,False,False,False,False,False,False,False,False,False,False,False,False,False,False,False,False,False,False,False,False,False,False,False,False,False,False,False,False,False,False,False,False,False,False,False,False,False,False,False,False,False,False,True,False,False,False,False,False,False,0.2406216859817505,-0.1897657960653305,-0.12201821804046631,0.09496308863162994,True,4,1,True,54,56,
605660,1,605563400,605654309,-0.13333334028720856,0.405517578125,18.499496459960938,26.549999237060547,996.6367797851562,0.17532199621200562,25.587472915649414,73.70870208740234,1.1522046327590942,38.5,0.8828999996185303,-1.471500039100647,10.369170188903809,-1.399999976158142,-2.380000114440918,3.359999895095825,-4.571025371551514,1.7780745029449463,-58.706787109375,0,1,7,92,522328000,2022,7,23,1,5,10,55,5,-458089,3,1,10,14,1362543919,352942198,122267,87474,1710,2468,-15,-11,-4,19,10123723,220,4685458,164,,0,,-0.13333334028720856,169.189453125,-137.04345703125,26.549999237060547,996.578857421875,0.0,25.587472915649414,73.70870208740234,1.225000023841858,38.5,0.8828999996185303,-1.471500039100647,10.369170188903809,-1.399999976158142,-2.380000114440918,3.359999895095825,-4.571025371551514,1.7780745029449463,-58.706787109375,0,1,7,92,522328000,2022,7,23,1,5,10,55,5,-458089,3,1,10,14,1362543919,352942198,122267,87474,1710,2468,-15,-11,-4,19,10123723,220,4685458,164,,0,,0.0,0.0,0.0,215,2145,2106,True,True,True,True,True,1,-168.783935546875,155.54295349121094,1.0,0.0,1.0,False,996.6570434570312,0.0,0.05000000074505806,True,0.0,0.0,0.0,0.0,0.0,0.0,0.0,0.0,0.0,1.0,1.0,False,False,False,False,False,False,False,False,False,False,False,False,False,False,False,False,False,False,False,False,False,False,False,False,False,False,False,False,False,False,False,False,False,False,False,False,False,False,False,False,False,False,False,False,True,False,False,False,False,False,False,0.4810824990272522,0.028230026364326477,0.3836250603199005,-0.3663085401058197,True,4,1,True,54,56,
605720,1,605563400,605695796,-0.8333333134651184,9.919677734375,24.959457397460938,26.520000457763672,996.6329345703125,0.19732892513275146,25.726329803466797,73.6797103881836,1.1515825986862183,38.5,-1.618649959564209,-0.5885999798774719,10.261260032653809,-2.6600000858306885,-1.6799999475479126,1.1200000047683716,-4.293618679046631,1.898366093635559,-58.728729248046875,0,1,7,92,522328000,2022,7,23,1,5,10,55,5,-458089,3,1,10,14,1362543919,352942198,122267,87474,1710,2468,-15,-11,-4,19,10123723,220,4685458,164,,0,,-0.8333333134651184,178.70361328125,-130.58349609375,26.520000457763672,996.62109375,0.0,25.726329803466797,73.6797103881836,1.225000023841858,38.5,-1.618649959564209,-0.5885999798774719,10.261260032653809,-2.6600000858306885,-1.6799999475479126,1.1200000047683716,-4.293618679046631,1.898366093635559,-58.728729248046875,0,1,7,92,522328000,2022,7,23,1,5,10,55,5,-458089,3,1,10,14,1362543919,352942198,122267,87474,1710,2468,-15,-11,-4,19,10123723,220,4685458,164,,0,,0.0,0.0,0.0,214,2145,2105,True,True,True,True,True,1,-168.783935546875,155.54295349121094,1.0,0.0,1.0,False,996.6570434570312,0.0,0.05000000074505806,True,0.0,0.0,0.0,0.0,0.0,0.0,0.0,0.0,0.0,1.0,1.0,False,False,False,False,False,False,False,False,False,False,False,False,False,False,False,False,False,False,False,False,False,False,False,False,False,False,False,False,False,False,False,False,False,False,False,False,False,False,False,False,False,False,False,False,True,False,False,False,False,False,False,1.203031063079834,-0.03057856857776642,-1.0354825258255005,0.8640919923782349,True,4,1,True,55,56,
